[{"id":"Nj8cgD","name":"Main Brewery","streetAddress":"Lindenlaan 25","locality":"Ertvelde","region":"Oost-Vlaanderen","postalCode":"9940","phone":"+32 9 344 54 20","website":"http://vansteenberge.com/","latitude":51.176439,"longitude":3.746045,"isPrimary":"Y","inPlanning":"N","isClosed":"N","openToPublic":"Y","locationType":"micro","locationTypeDisplay":"Micro Brewery","countryIsoCode":"BE","status":"verified","statusDisplay":"Verified","createDate":"2012-01-03 02:41:49","updateDate":"2014-07-23 19:11:34","country":{"isoCode":"BE","name":"BELGIUM","displayName":"Belgium","isoThree":"BEL","numberCode":56,"createDate":"2012-01-03 02:41:33"}},{"id":"H4gL4a","name":"Main Brewery","streetAddress":"Kulių vartų 7","region":"Klaip?da","postalCode":"5799","phone":"+370 46 484 000","website":"http://www.svyturys.lt/","latitude":6.91224,"longitude":28.768451,"isPrimary":"Y","inPlanning":"N","isClosed":"N","openToPublic":"Y","locationType":"micro","locationTypeDisplay":"Micro Brewery","countryIsoCode":"LT","yearOpened":"1784","status":"verified","statusDisplay":"Verified","createDate":"2012-01-03 02:42:09","updateDate":"2014-07-23 19:11:34","country":{"isoCode":"LT","name":"LITHUANIA","displayName":"Lithuania","isoThree":"LTU","numberCode":440,"createDate":"2012-01-03 02:41:33"}},{"id":"DjNUzp","name":"Main Brewery","streetAddress":"Kuliu vartu 7","region":"Klaipeda","postalCode":"5799","latitude":55.7070282,"longitude":21.1418313,"isPrimary":"Y","inPlanning":"N","isClosed":"N","openToPublic":"Y","locationType":"micro","locationTypeDisplay":"Micro Brewery","countryIsoCode":"LT","status":"verified","statusDisplay":"Verified","createDate":"2014-01-04 22:34:10","updateDate":"2014-07-23 19:11:34","country":{"isoCode":"LT","name":"LITHUANIA","displayName":"Lithuania","isoThree":"LTU","numberCode":440,"createDate":"2012-01-03 02:41:33"}}]