[{"id":"QMmeHv","name":"Main Brewery","streetAddress":"Kerkstraat 96","locality":"Buggenhout","region":"Oost-Vlaanderen","postalCode":"9255","phone":"32-052-33-22-82","website":"http://www.bestbelgianspecialbeers.be/","hoursOfOperation":"by appointment on weekdays","latitude":51.0160973,"longitude":4.201942,"isPrimary":"Y","inPlanning":"N","isClosed":"N","openToPublic":"Y","locationType":"micro","locationTypeDisplay":"Micro Brewery","countryIsoCode":"BE","status":"verified","statusDisplay":"Verified","createDate":"2012-01-03 02:41:49","updateDate":"2014-07-23 19:11:34","country":{"isoCode":"BE","name":"BELGIUM","displayName":"Belgium","isoThree":"BEL","numberCode":56,"createDate":"2012-01-03 02:41:33"}},{"id":"BrvKTz","name":"Main Brewery","streetAddress":"Rothaus 1","locality":"Grafenhausen-Rothaus","postalCode":"79865","website":"http://www.rothaus.de/","latitude":47.7955,"longitude":8.24493,"isPrimary":"Y","inPlanning":"N","isClosed":"N","openToPublic":"Y","locationType":"micro","locationTypeDisplay":"Micro Brewery","countryIsoCode":"DE","yearOpened":"1791","status":"verified","statusDisplay":"Verified","createDate":"2012-01-03 02:42:07","updateDate":"2014-07-23 19:11:34","country":{"isoCode":"DE","name":"GERMANY","displayName":"Germany","isoThree":"DEU","numberCode":276,"createDate":"2012-01-03 02:41:33"}}]