[{"id":"gicLqz","name":"Main Brewery","locality":"Tartu","region":"Tartu","latitude":58.37655,"longitude":26.72614,"isPrimary":"Y","inPlanning":"N","isClosed":"N","openToPublic":"Y","locationType":"micro","locationTypeDisplay":"Micro Brewery","countryIsoCode":"EE","yearOpened":"1807","status":"verified","statusDisplay":"Verified","createDate":"2012-10-23 00:59:05","updateDate":"2014-07-23 19:11:34","country":{"isoCode":"EE","name":"ESTONIA","displayName":"Estonia","isoThree":"EST","numberCode":233,"createDate":"2012-01-03 02:41:33"}},{"id":"sHhTXv","name":"Main Brewery","streetAddress":"Heuchlinger Weg 4","locality":"Schrozberg","postalCode":"74575","latitude":49.349324,"longitude":9.917051,"isPrimary":"Y","inPlanning":"N","isClosed":"N","openToPublic":"Y","locationType":"micro","locationTypeDisplay":"Micro Brewery","countryIsoCode":"DE","status":"verified","statusDisplay":"Verified","createDate":"2012-08-16 12:45:00","updateDate":"2014-07-23 19:11:34","country":{"isoCode":"DE","name":"GERMANY","displayName":"Germany","isoThree":"DEU","numberCode":276,"createDate":"2012-01-03 02:41:33"}},{"id":"U7Mb6m","name":"Main Brewery","streetAddress":"Penny St","region":"Blackburn","postalCode":"BB1 6HQ","phone":"+44 1254 686868","website":"http://www.thwaites.co.uk","latitude":53.7489748,"longitude":-2.4798869,"isPrimary":"Y","inPlanning":"N","isClosed":"N","openToPublic":"Y","locationType":"micro","locationTypeDisplay":"Micro Brewery","countryIsoCode":"GB","yearOpened":"1807","status":"verified","statusDisplay":"Verified","createDate":"2014-04-08 02:33:34","updateDate":"2014-07-23 19:11:34","country":{"isoCode":"GB","name":"UNITED KINGDOM","displayName":"United Kingdom","isoThree":"GBR","numberCode":826,"createDate":"2012-01-03 02:41:33"}}]