[{"id":"vHWvX2","name":"Main Brewery","streetAddress":"1496 Lower Water St","locality":"Halifax","region":"Nova Scotia","postalCode":"B3J 1R9","phone":"(902) 455-1474","website":"http://keiths.ca/","latitude":44.6436726,"longitude":-63.5695422,"isPrimary":"Y","inPlanning":"N","isClosed":"N","openToPublic":"Y","locationType":"micro","locationTypeDisplay":"Micro Brewery","countryIsoCode":"CA","status":"verified","statusDisplay":"Verified","createDate":"2013-05-10 12:31:23","updateDate":"2014-07-23 19:11:34","country":{"isoCode":"CA","name":"CANADA","displayName":"Canada","isoThree":"CAN","numberCode":124,"createDate":"2012-01-03 02:41:33"}},{"id":"TM8JWK","name":"Main Brewery","streetAddress":"Ascher√∂der Str. 9","locality":"Schwalmstadt-Treysa","region":"Hesse","postalCode":"34613","latitude":50.91082,"longitude":9.188715,"isPrimary":"N","inPlanning":"N","isClosed":"N","openToPublic":"Y","locationType":"micro","locationTypeDisplay":"Micro Brewery","countryIsoCode":"DE","status":"verified","statusDisplay":"Verified","createDate":"2012-08-12 14:46:05","updateDate":"2014-07-23 19:11:34","country":{"isoCode":"DE","name":"GERMANY","displayName":"Germany","isoThree":"DEU","numberCode":276,"createDate":"2012-01-03 02:41:33"}},{"id":"CgUpen","name":"Main Brewery","streetAddress":"Tallinna mnt.2","locality":"Saku","region":"Harjumaa","postalCode":"75501","phone":"+3726508400","website":"http://www.saku.ee/","latitude":59.3014407,"longitude":24.6679157,"isPrimary":"Y","inPlanning":"N","isClosed":"N","openToPublic":"Y","locationType":"micro","locationTypeDisplay":"Micro Brewery","countryIsoCode":"EE","yearOpened":"1820","status":"verified","statusDisplay":"Verified","createDate":"2012-01-03 02:42:07","updateDate":"2014-07-23 19:11:34","country":{"isoCode":"EE","name":"ESTONIA","displayName":"Estonia","isoThree":"EST","numberCode":233,"createDate":"2012-01-03 02:41:33"}}]