[{"id":"jSwodP","name":"Main Brewery","streetAddress":"7, route de Bischwiller","region":"Schiltigheim","postalCode":"67300","phone":"+33 (0)3 88 33 82 00","website":"http://www.brasseriefischer.com/","latitude":48.6114971,"longitude":7.7510832,"isPrimary":"Y","inPlanning":"N","isClosed":"N","openToPublic":"Y","locationType":"micro","locationTypeDisplay":"Micro Brewery","countryIsoCode":"FR","yearOpened":"1821","status":"verified","statusDisplay":"Verified","createDate":"2012-01-03 02:41:47","updateDate":"2014-07-23 19:11:34","country":{"isoCode":"FR","name":"FRANCE","displayName":"France","isoThree":"FRA","numberCode":250,"createDate":"2012-01-03 02:41:33"}},{"id":"jH1IY7","name":"Main Brewery","streetAddress":"Spanjestraat 133-141","locality":"Roeselare","region":"West-Vlaanderen","phone":"32-051-27-28-10","website":"http://www.rodenbach.be/","latitude":50.9460157,"longitude":3.1375433,"isPrimary":"Y","inPlanning":"N","isClosed":"N","openToPublic":"Y","locationType":"micro","locationTypeDisplay":"Micro Brewery","countryIsoCode":"BE","yearOpened":"1821","status":"verified","statusDisplay":"Verified","createDate":"2012-01-03 02:41:49","updateDate":"2014-07-23 19:11:34","country":{"isoCode":"BE","name":"BELGIUM","displayName":"Belgium","isoThree":"BEL","numberCode":56,"createDate":"2012-01-03 02:41:33"}}]