[{"id":"bpBKo9","name":"Main Brewery","streetAddress":"Postplatz 6","region":"Böblingen","postalCode":"71032","phone":"07031/2173-0","website":"http://www.schoenbuchbraeu.de/","latitude":48.6802429,"longitude":9.055195,"isPrimary":"Y","inPlanning":"N","isClosed":"N","openToPublic":"Y","locationType":"micro","locationTypeDisplay":"Micro Brewery","countryIsoCode":"DE","status":"verified","statusDisplay":"Verified","createDate":"2012-08-16 15:06:21","updateDate":"2014-07-23 19:11:34","country":{"isoCode":"DE","name":"GERMANY","displayName":"Germany","isoThree":"DEU","numberCode":276,"createDate":"2012-01-03 02:41:33"}},{"id":"5TRopl","name":"Brauhaus Böblingen","streetAddress":"Lange Strasse 20","locality":"Böblingen","region":"Baden-Württemberg","postalCode":"71032","phone":"+497031681323","website":"http://www.brauhaus-bb.de/","hoursOfOperation":"Brauhaus:\nDaily 11.00 - 24.00 Uhr\nBiergarten:\nDaily 11.00 - 23.00 Uhr","latitude":48.6802429,"longitude":9.055195,"isPrimary":"N","inPlanning":"N","isClosed":"N","openToPublic":"Y","locationType":"restaurant","locationTypeDisplay":"Restaurant/Ale House","countryIsoCode":"DE","status":"new_unverified","statusDisplay":"New, Unverified","createDate":"2014-10-16 11:56:25","updateDate":"2014-10-16 11:56:25","country":{"isoCode":"DE","name":"GERMANY","displayName":"Germany","isoThree":"DEU","numberCode":276,"createDate":"2012-01-03 02:41:33"}},{"id":"hnAczC","name":"Brauhaus Böblingen","streetAddress":"Bolzstrasse 10","locality":"Stuttgart","region":"Baden-Württemberg","postalCode":"70173","phone":"+4971172230930","website":"http://www.brauhaus-schoenbuch.de/","hoursOfOperation":"Brauhaus:\nDaily 11.00 - 24.00\nThursday to Saturday 11.00 - 01.00","latitude":48.78019,"longitude":9.17786,"isPrimary":"N","inPlanning":"N","isClosed":"N","openToPublic":"Y","locationType":"restaurant","locationTypeDisplay":"Restaurant/Ale House","countryIsoCode":"DE","status":"new_unverified","statusDisplay":"New, Unverified","createDate":"2014-10-16 11:58:39","updateDate":"2014-10-16 11:58:39","country":{"isoCode":"DE","name":"GERMANY","displayName":"Germany","isoThree":"DEU","numberCode":276,"createDate":"2012-01-03 02:41:33"}},{"id":"K6tR8d","name":"Brauhaus Schönbuch Calw","streetAddress":"Auf dem Brühl 1","locality":"Calw","region":"Baden-Württemberg","postalCode":"75365","phone":"+4970519663280","website":"http://www.brauhaus-schoenbuch.de/calw.html","hoursOfOperation":"Brauhaus:\nDaily 11.00 - 24.00 Uhr\n\nBiergarten:\nDaily 11.00 - 23.00 Uhr","latitude":48.7215745,"longitude":8.7177385,"isPrimary":"N","inPlanning":"N","isClosed":"N","openToPublic":"Y","locationType":"restaurant","locationTypeDisplay":"Restaurant/Ale House","countryIsoCode":"DE","yearOpened":"2014","status":"new_unverified","statusDisplay":"New, Unverified","createDate":"2014-10-16 12:00:22","updateDate":"2014-10-16 12:00:22","country":{"isoCode":"DE","name":"GERMANY","displayName":"Germany","isoThree":"DEU","numberCode":276,"createDate":"2012-01-03 02:41:33"}}]