[{"id":"pPGV1H","name":"Main Brewery","streetAddress":"Halberstädter Straße 45","locality":"Paderborn","region":"Nordrhein-Westfalen","postalCode":"D-33106","latitude":51.73393,"longitude":8.684877,"isPrimary":"N","inPlanning":"N","isClosed":"N","openToPublic":"Y","locationType":"micro","locationTypeDisplay":"Micro Brewery","countryIsoCode":"DE","status":"verified","statusDisplay":"Verified","createDate":"2012-08-12 14:45:24","updateDate":"2014-07-23 19:11:34","country":{"isoCode":"DE","name":"GERMANY","displayName":"Germany","isoThree":"DEU","numberCode":276,"createDate":"2012-01-03 02:41:33"}},{"id":"8C6fp0","name":"Pivovarna Laško","streetAddress":"Trubarjeva ulica 28","locality":"Laško","postalCode":"`````","phone":"+386 3 734 80 00","website":"http://www.pivo-lasko.si/","latitude":50.593349,"longitude":23.23594,"isPrimary":"Y","inPlanning":"N","isClosed":"N","openToPublic":"Y","locationType":"production","locationTypeDisplay":"Production Facility","countryIsoCode":"SI","status":"verified","statusDisplay":"Verified","createDate":"2012-05-01 18:58:45","updateDate":"2014-07-23 19:11:34","country":{"isoCode":"SI","name":"SLOVENIA","displayName":"Slovenia","isoThree":"SVN","numberCode":705,"createDate":"2012-01-03 02:41:33"}}]