[{"id":"93XbpS","name":"Main Brewery","streetAddress":"Oggenhauser Hauptstra√üe 1","locality":"Heidenheim an der Brenz","postalCode":"89522","latitude":48.669499,"longitude":10.235498,"isPrimary":"Y","inPlanning":"N","isClosed":"N","openToPublic":"Y","locationType":"micro","locationTypeDisplay":"Micro Brewery","countryIsoCode":"DE","status":"verified","statusDisplay":"Verified","createDate":"2012-08-16 13:21:25","updateDate":"2014-07-23 19:11:34","country":{"isoCode":"DE","name":"GERMANY","displayName":"Germany","isoThree":"DEU","numberCode":276,"createDate":"2012-01-03 02:41:33"}},{"id":"564ZPt","name":"Main Brewery","streetAddress":"Greifswalder Chaussee 84-85","locality":"Hansestadt Stralsund","postalCode":"18439","latitude":54.290818,"longitude":13.094093,"isPrimary":"Y","inPlanning":"N","isClosed":"N","openToPublic":"Y","locationType":"micro","locationTypeDisplay":"Micro Brewery","countryIsoCode":"DE","status":"verified","statusDisplay":"Verified","createDate":"2012-08-16 15:14:10","updateDate":"2014-07-23 19:11:34","country":{"isoCode":"DE","name":"GERMANY","displayName":"Germany","isoThree":"DEU","numberCode":276,"createDate":"2012-01-03 02:41:33"}},{"id":"pwBcRV","name":"Main Brewery","streetAddress":"T&R Theakston Ltd","locality":"Masham","postalCode":"HG4 4YD","phone":"011 44 1765 680000","website":"http://www.theakstons.co.uk/","hoursOfOperation":"Mon - Sun: 10:30 am - 4:30 am","latitude":54.224464,"longitude":-1.657235,"isPrimary":"Y","inPlanning":"N","isClosed":"N","openToPublic":"Y","locationType":"micro","locationTypeDisplay":"Micro Brewery","countryIsoCode":"GB","status":"verified","statusDisplay":"Verified","createDate":"2012-01-03 02:42:09","updateDate":"2014-07-23 19:11:34","country":{"isoCode":"GB","name":"UNITED KINGDOM","displayName":"United Kingdom","isoThree":"GBR","numberCode":826,"createDate":"2012-01-03 02:41:33"}}]