[{"id":"siPwY9","name":"Main Brewery","streetAddress":"Prolongaci√≥n Av.Independencia, Km 6.5","region":"Santo Domingo","postalCode":"AP 1086","latitude":-11.8881,"longitude":43.876999,"isPrimary":"Y","inPlanning":"N","isClosed":"N","openToPublic":"Y","locationType":"micro","locationTypeDisplay":"Micro Brewery","countryIsoCode":"DO","status":"verified","statusDisplay":"Verified","createDate":"2012-10-31 11:36:23","updateDate":"2014-07-23 19:11:34","country":{"isoCode":"DO","name":"DOMINICAN REPUBLIC","displayName":"Dominican Republic","isoThree":"DOM","numberCode":214,"createDate":"2012-01-03 02:41:33"}},{"id":"mLNnA3","name":"Pottsville","streetAddress":"310 Mill Creek Avenue","locality":"Pottsville","region":"Pennsylvania","postalCode":"17901","phone":"570-622-0153","website":"http://www.yuengling.com","hoursOfOperation":"Monday thru Friday\r\n9:00 a.m. - 4:00 p.m.\r\n \r\nSaturday\r\nApril thru December Only\r\n10:00 a.m. - 3:00 p.m.","latitude":40.6999592,"longitude":-76.1747169,"isPrimary":"Y","inPlanning":"N","isClosed":"N","openToPublic":"Y","locationType":"macro","locationTypeDisplay":"Macro Brewery","countryIsoCode":"US","status":"verified","statusDisplay":"Verified","createDate":"2012-01-03 02:41:52","updateDate":"2014-07-23 19:11:34","country":{"isoCode":"US","name":"UNITED STATES","displayName":"United States","isoThree":"USA","numberCode":840,"createDate":"2012-01-03 02:41:33"}},{"id":"BVG7Ls","name":"Tampa","streetAddress":"11111 N 30th St","locality":"Tampa","region":"Florida","postalCode":"33612","hoursOfOperation":"Monday thru Friday\r\n9:00 a.m. - 3:00 p.m.\r\n \r\nSaturday\r\n10:00 a.m. - 2:00 p.m.","latitude":28.049125,"longitude":-82.426171,"isPrimary":"N","inPlanning":"N","isClosed":"N","openToPublic":"Y","locationType":"macro","locationTypeDisplay":"Macro Brewery","countryIsoCode":"US","status":"verified","statusDisplay":"Verified","createDate":"2012-09-07 12:14:22","updateDate":"2014-07-23 19:11:34","country":{"isoCode":"US","name":"UNITED STATES","displayName":"United States","isoThree":"USA","numberCode":840,"createDate":"2012-01-03 02:41:33"}}]