[{"id":"kaqJLy","name":"Main Brewery","streetAddress":"Mechelsesteenweg 291","locality":"Antwerpen","postalCode":"2018","website":"http://www.dekoninck.be/","latitude":51.1992117,"longitude":4.4151234,"isPrimary":"Y","inPlanning":"N","isClosed":"N","openToPublic":"Y","locationType":"micro","locationTypeDisplay":"Micro Brewery","countryIsoCode":"BE","yearOpened":"1833","status":"verified","statusDisplay":"Verified","createDate":"2012-01-03 02:41:49","updateDate":"2014-07-23 19:11:34","country":{"isoCode":"BE","name":"BELGIUM","displayName":"Belgium","isoThree":"BEL","numberCode":56,"createDate":"2012-01-03 02:41:33"}},{"id":"5I05VB","name":"Main Brewery","streetAddress":"Hofgut Dürren 1","locality":"Kißlegg-Dürren","region":"Baden-Württemberg","postalCode":"88353","phone":"49-(0)7522-/-9788-0","latitude":34.622679,"longitude":-105.172055,"isPrimary":"Y","inPlanning":"N","isClosed":"N","openToPublic":"Y","locationType":"micro","locationTypeDisplay":"Micro Brewery","countryIsoCode":"DE","status":"verified","statusDisplay":"Verified","createDate":"2012-08-13 11:26:48","updateDate":"2014-07-23 19:11:34","country":{"isoCode":"DE","name":"GERMANY","displayName":"Germany","isoThree":"DEU","numberCode":276,"createDate":"2012-01-03 02:41:33"}},{"id":"CtcAmY","name":"Main Brewery","streetAddress":"Waldhaus 1","locality":"Waldhaus","region":"Baden-Württemberg","postalCode":"79809","latitude":47.682625,"longitude":8.158013,"isPrimary":"N","inPlanning":"N","isClosed":"N","openToPublic":"Y","locationType":"micro","locationTypeDisplay":"Micro Brewery","countryIsoCode":"DE","status":"verified","statusDisplay":"Verified","createDate":"2012-08-12 14:46:52","updateDate":"2014-07-23 19:11:34","country":{"isoCode":"DE","name":"GERMANY","displayName":"Germany","isoThree":"DEU","numberCode":276,"createDate":"2012-01-03 02:41:33"}}]