[{"id":"X60E3Q","name":"Main Brewery","streetAddress":"Obergrundstrasse 110","region":"Lucerna","postalCode":"8005","website":"http://www.eichhof.ch/","latitude":47.0407123,"longitude":8.2987264,"isPrimary":"Y","inPlanning":"N","isClosed":"N","openToPublic":"Y","locationType":"micro","locationTypeDisplay":"Micro Brewery","countryIsoCode":"CH","yearOpened":"1834","status":"verified","statusDisplay":"Verified","createDate":"2013-05-22 11:40:17","updateDate":"2014-07-23 19:11:34","country":{"isoCode":"CH","name":"SWITZERLAND","displayName":"Switzerland","isoThree":"CHE","numberCode":756,"createDate":"2012-01-03 02:41:33"}},{"id":"QZQCey","name":"Main Brewery","streetAddress":"Shobnall Road","locality":"Burton-on-Trent","region":"Staffordshire","postalCode":"DE14 2BW","phone":"01902 711811","website":"http://www.marstonsbeercompany.co.uk/","latitude":52.8072231,"longitude":-1.6563508,"isPrimary":"Y","inPlanning":"N","isClosed":"N","openToPublic":"Y","locationType":"micro","locationTypeDisplay":"Micro Brewery","countryIsoCode":"GB","status":"verified","statusDisplay":"Verified","createDate":"2013-01-09 01:00:17","updateDate":"2014-07-23 19:11:34","country":{"isoCode":"GB","name":"UNITED KINGDOM","displayName":"United Kingdom","isoThree":"GBR","numberCode":826,"createDate":"2012-01-03 02:41:33"}}]