[{"id":"UrsqPT","name":"Palmbräu Zorn Söhne","established":"1835","isOrganic":"N","status":"verified","statusDisplay":"Verified","createDate":"2012-08-07 10:17:10","updateDate":"2012-08-13 14:21:02","locations":[{"id":"WV1ql5","name":"Main Brewery","streetAddress":"Brettener Straße 12","locality":"Eppingen","region":"Baden-Württemberg","postalCode":"D-75031","latitude":48.761009,"longitude":8.23147,"isPrimary":"N","inPlanning":"N","isClosed":"N","openToPublic":"Y","locationType":"micro","locationTypeDisplay":"Micro Brewery","countryIsoCode":"DE","status":"deleted","statusDisplay":"Deleted","createDate":"2012-08-12 14:39:52","updateDate":"2014-07-23 19:11:34","country":{"isoCode":"DE","name":"GERMANY","displayName":"Germany","isoThree":"DEU","numberCode":276,"createDate":"2012-01-03 02:41:33"}},{"id":"G9uBTm","name":"Main Brewery","streetAddress":"Brettener Straße 12","locality":"Eppingen","region":"Baden-Württemberg","postalCode":"D-75031","latitude":48.761009,"longitude":8.23147,"isPrimary":"N","inPlanning":"N","isClosed":"N","openToPublic":"Y","locationType":"micro","locationTypeDisplay":"Micro Brewery","countryIsoCode":"DE","status":"verified","statusDisplay":"Verified","createDate":"2012-08-12 14:48:15","updateDate":"2014-07-23 19:11:34","country":{"isoCode":"DE","name":"GERMANY","displayName":"Germany","isoThree":"DEU","numberCode":276,"createDate":"2012-01-03 02:41:33"}}]}]