[{"id":"ZRzruY","name":"Main Brewery","streetAddress":"Rauentalstrasse 4","locality":"Rastatt","region":"Baden-Württemberg","postalCode":"76437","latitude":32.37968,"longitude":-98.991632,"isPrimary":"N","inPlanning":"N","isClosed":"N","openToPublic":"Y","locationType":"micro","locationTypeDisplay":"Micro Brewery","countryIsoCode":"DE","status":"verified","statusDisplay":"Verified","createDate":"2012-08-12 14:45:35","updateDate":"2014-07-23 19:11:34","country":{"isoCode":"DE","name":"GERMANY","displayName":"Germany","isoThree":"DEU","numberCode":276,"createDate":"2012-01-03 02:41:33"}},{"id":"xN40g3","name":"Main Brewery","streetAddress":"Berliner Straße 122","locality":"Lübbecke","postalCode":"32312","phone":"+49 5741 2701","website":"http://barre.de","latitude":52.29583,"longitude":8.61828,"isPrimary":"Y","inPlanning":"N","isClosed":"N","openToPublic":"Y","locationType":"micro","locationTypeDisplay":"Micro Brewery","countryIsoCode":"DE","status":"verified","statusDisplay":"Verified","createDate":"2012-08-16 14:31:54","updateDate":"2014-07-23 19:11:34","country":{"isoCode":"DE","name":"GERMANY","displayName":"Germany","isoThree":"DEU","numberCode":276,"createDate":"2012-01-03 02:41:33"}}]