[{"id":"ct1Zeb","name":"Main Brewery","streetAddress":"PO Box 1661","locality":"San Antonio","region":"Texas","postalCode":"78296","phone":"1-800-935-2337","website":"http://www.pabst.com/","latitude":29.4497864,"longitude":-98.5386319,"isPrimary":"Y","inPlanning":"N","isClosed":"N","openToPublic":"Y","locationType":"micro","locationTypeDisplay":"Micro Brewery","countryIsoCode":"US","yearOpened":"1844","status":"verified","statusDisplay":"Verified","createDate":"2012-01-03 02:42:05","updateDate":"2014-07-23 19:11:34","country":{"isoCode":"US","name":"UNITED STATES","displayName":"United States","isoThree":"USA","numberCode":840,"createDate":"2012-01-03 02:41:33"}},{"id":"F20glD","name":"Main Brewery","streetAddress":"Thomas-Mann-Stra√üe 17","locality":"Ehrenfriedersdorf","region":"Sachsen","postalCode":"09427","latitude":50.64608,"longitude":12.96634,"isPrimary":"N","inPlanning":"N","isClosed":"N","openToPublic":"Y","locationType":"micro","locationTypeDisplay":"Micro Brewery","countryIsoCode":"DE","status":"verified","statusDisplay":"Verified","createDate":"2012-08-12 14:47:00","updateDate":"2014-07-23 19:11:34","country":{"isoCode":"DE","name":"GERMANY","displayName":"Germany","isoThree":"DEU","numberCode":276,"createDate":"2012-01-03 02:41:33"}}]