[{"id":"8cp8pE","name":"Main Brewery","streetAddress":"Leopoldstrasse 40","locality":"Sigmaringen","region":"Baden-Württemberg","postalCode":"72488","latitude":48.091042,"longitude":9.206585,"isPrimary":"N","inPlanning":"N","isClosed":"N","openToPublic":"Y","locationType":"micro","locationTypeDisplay":"Micro Brewery","countryIsoCode":"DE","status":"verified","statusDisplay":"Verified","createDate":"2012-08-12 14:46:36","updateDate":"2014-07-23 19:11:34","country":{"isoCode":"DE","name":"GERMANY","displayName":"Germany","isoThree":"DEU","numberCode":276,"createDate":"2012-01-03 02:41:33"}},{"id":"APW1BC","name":"Main Brewery","streetAddress":"Lindenbergstraat 10","locality":"Sint-Ulriks-Kapelle","region":"Vlaams Brabant","postalCode":"1700","phone":"02/453 94 19","latitude":50.84598,"longitude":4.262506,"isPrimary":"Y","inPlanning":"N","isClosed":"N","openToPublic":"Y","locationType":"micro","locationTypeDisplay":"Micro Brewery","countryIsoCode":"BE","yearOpened":"1845","status":"verified","statusDisplay":"Verified","createDate":"2012-01-03 02:41:49","updateDate":"2014-07-23 19:11:34","country":{"isoCode":"BE","name":"BELGIUM","displayName":"Belgium","isoThree":"BEL","numberCode":56,"createDate":"2012-01-03 02:41:33"}},{"id":"5dTTap","name":"Main Brewery","streetAddress":"ul. Browarna 14","locality":"Brzesko","phone":"48-0146865000","website":"http://www.okocim.pl/","latitude":49.9621897,"longitude":20.6002747,"isPrimary":"Y","inPlanning":"N","isClosed":"N","openToPublic":"Y","locationType":"micro","locationTypeDisplay":"Micro Brewery","countryIsoCode":"PL","yearOpened":"1845","status":"verified","statusDisplay":"Verified","createDate":"2012-01-03 02:41:49","updateDate":"2014-07-23 19:11:34","country":{"isoCode":"PL","name":"POLAND","displayName":"Poland","isoThree":"POL","numberCode":616,"createDate":"2012-01-03 02:41:33"}},{"id":"kdhkBc","name":"Main Brewery","streetAddress":"Chiswick Lane South","locality":"London","region":"London","phone":"44-(0208)-996-2000","website":"http://www.fullers.co.uk/","latitude":42.986895,"longitude":-81.246214,"isPrimary":"Y","inPlanning":"N","isClosed":"N","openToPublic":"Y","locationType":"micro","locationTypeDisplay":"Micro Brewery","countryIsoCode":"GB","yearOpened":"1845","status":"verified","statusDisplay":"Verified","createDate":"2012-01-03 02:41:55","updateDate":"2014-07-23 19:11:34","country":{"isoCode":"GB","name":"UNITED KINGDOM","displayName":"United Kingdom","isoThree":"GBR","numberCode":826,"createDate":"2012-01-03 02:41:33"}},{"id":"EGmPAl","name":"Main Brewery","streetAddress":"1208 14th Avenue","locality":"Monroe","region":"Wisconsin","postalCode":"53566","phone":"608-325-3191","website":"http://www.minhasbrewery.com/","latitude":42.599801,"longitude":-89.641048,"isPrimary":"Y","inPlanning":"N","isClosed":"N","openToPublic":"Y","locationType":"micro","locationTypeDisplay":"Micro Brewery","countryIsoCode":"US","yearOpened":"1845","status":"verified","statusDisplay":"Verified","createDate":"2012-01-03 02:42:02","updateDate":"2014-07-23 19:11:34","country":{"isoCode":"US","name":"UNITED STATES","displayName":"United States","isoThree":"USA","numberCode":840,"createDate":"2012-01-03 02:41:33"}},{"id":"Gnjzbl","name":"Calgary","streetAddress":"1314 44 Ave NE","locality":"Calgary","region":"Alberta","postalCode":"T2E 6L6","phone":"403-695-3701","website":"http://minhasbrewery.com/","latitude":51.0917928,"longitude":-114.0328014,"isPrimary":"N","inPlanning":"N","isClosed":"N","openToPublic":"Y","locationType":"micro","locationTypeDisplay":"Micro Brewery","countryIsoCode":"CA","status":"verified","statusDisplay":"Verified","createDate":"2014-03-29 12:29:47","updateDate":"2014-07-23 19:11:34","country":{"isoCode":"CA","name":"CANADA","displayName":"Canada","isoThree":"CAN","numberCode":124,"createDate":"2012-01-03 02:41:33"}},{"id":"WoLqIq","name":"Main Brewery","streetAddress":"Wiedenbrücker Straße 155 Postfach 1129","locality":"Langenberg","region":"Nordrhein-Westfalen","postalCode":"D-33449","latitude":51.775611,"longitude":8.316431,"isPrimary":"N","inPlanning":"N","isClosed":"N","openToPublic":"Y","locationType":"micro","locationTypeDisplay":"Micro Brewery","countryIsoCode":"DE","status":"verified","statusDisplay":"Verified","createDate":"2012-08-12 14:46:00","updateDate":"2014-07-23 19:11:34","country":{"isoCode":"DE","name":"GERMANY","displayName":"Germany","isoThree":"DEU","numberCode":276,"createDate":"2012-01-03 02:41:33"}}]