[{"id":"7Uve6f","name":"Main Brewery","streetAddress":"Ratinger Straße 28","locality":"Düsseldorf","region":"Nordrhein-Westfalen","postalCode":"D-40213","latitude":51.22787,"longitude":6.775735,"isPrimary":"N","inPlanning":"N","isClosed":"N","openToPublic":"Y","locationType":"micro","locationTypeDisplay":"Micro Brewery","countryIsoCode":"DE","status":"verified","statusDisplay":"Verified","createDate":"2012-08-12 14:45:20","updateDate":"2014-07-23 19:11:34","country":{"isoCode":"DE","name":"GERMANY","displayName":"Germany","isoThree":"DEU","numberCode":276,"createDate":"2012-01-03 02:41:33"}},{"id":"ZSTefG","name":"Main Brewery","streetAddress":"Elisabethufer 18","locality":"Jever","region":"Niedersachsen","phone":"49-(0)4461-/-13-0","latitude":53.575477,"longitude":7.9016465,"isPrimary":"Y","inPlanning":"N","isClosed":"N","openToPublic":"Y","locationType":"macro","locationTypeDisplay":"Macro Brewery","countryIsoCode":"DE","status":"verified","statusDisplay":"Verified","createDate":"2012-01-03 02:41:55","updateDate":"2014-10-29 16:33:50","country":{"isoCode":"DE","name":"GERMANY","displayName":"Germany","isoThree":"DEU","numberCode":276,"createDate":"2012-01-03 02:41:33"}},{"id":"0jYfnH","name":"Main Brewery","streetAddress":"825 Schoenhaar Drive","locality":"West Bend","region":"Wisconsin","postalCode":"53090","phone":"877-927-6367","website":"http://www.lithiabeer.com/","hoursOfOperation":"8 am - 4 pm Monday thru Thursday\r\n8 am - 3 pm Friday","latitude":43.4313442,"longitude":-88.1578439,"isPrimary":"Y","inPlanning":"N","isClosed":"N","openToPublic":"Y","locationType":"micro","locationTypeDisplay":"Micro Brewery","countryIsoCode":"US","yearOpened":"1848","status":"verified","statusDisplay":"Verified","createDate":"2012-01-03 02:42:12","updateDate":"2014-07-23 19:11:34","country":{"isoCode":"US","name":"UNITED STATES","displayName":"United States","isoThree":"USA","numberCode":840,"createDate":"2012-01-03 02:41:33"}}]