[{"id":"Osvyj0","name":"Main Brewery","streetAddress":"1431 Duffield Rd","locality":"Flushing","region":"Michigan","postalCode":"48433","latitude":43.027413,"longitude":-83.913387,"isPrimary":"N","inPlanning":"N","isClosed":"N","openToPublic":"Y","locationType":"cidery","locationTypeDisplay":"Cidery","countryIsoCode":"US","status":"verified","statusDisplay":"Verified","createDate":"2014-10-08 17:04:24","updateDate":"2014-10-08 17:04:24","country":{"isoCode":"US","name":"UNITED STATES","displayName":"United States","isoThree":"USA","numberCode":840,"createDate":"2012-01-03 02:41:33"}},{"id":"i6yPHf","name":"Main Brewery","streetAddress":"Am Fürstenwald","locality":"Freiberg","region":"Saxony","postalCode":"09599","latitude":50.916199,"longitude":13.335215,"isPrimary":"Y","inPlanning":"N","isClosed":"N","openToPublic":"Y","locationType":"micro","locationTypeDisplay":"Micro Brewery","countryIsoCode":"DE","status":"verified","statusDisplay":"Verified","createDate":"2012-08-12 23:59:54","updateDate":"2014-07-23 19:11:34","country":{"isoCode":"DE","name":"GERMANY","displayName":"Germany","isoThree":"DEU","numberCode":276,"createDate":"2012-01-03 02:41:33"}},{"id":"dimtrs","name":"Main Brewery","streetAddress":"Belchenstraße 5","locality":"Lörrach","region":"Baden-Württemberg","postalCode":"79539","latitude":33.36681,"longitude":-99.864139,"isPrimary":"N","inPlanning":"N","isClosed":"N","openToPublic":"Y","locationType":"micro","locationTypeDisplay":"Micro Brewery","countryIsoCode":"DE","status":"verified","statusDisplay":"Verified","createDate":"2012-08-12 14:45:51","updateDate":"2014-07-23 19:11:34","country":{"isoCode":"DE","name":"GERMANY","displayName":"Germany","isoThree":"DEU","numberCode":276,"createDate":"2012-01-03 02:41:33"}},{"id":"9LfmKk","name":"Main Brewery","locality":"Tampa","region":"Florida","latitude":27.94653,"longitude":-82.459269,"isPrimary":"Y","inPlanning":"N","isClosed":"Y","openToPublic":"Y","locationType":"micro","locationTypeDisplay":"Micro Brewery","countryIsoCode":"US","status":"verified","statusDisplay":"Verified","createDate":"2012-01-03 02:42:09","updateDate":"2014-07-23 19:11:34","country":{"isoCode":"US","name":"UNITED STATES","displayName":"United States","isoThree":"USA","numberCode":840,"createDate":"2012-01-03 02:41:33"}}]