[{"id":"ZApGug","name":"Main Brewery","streetAddress":"One Busch Place","locality":"Saint Louis","region":"Missouri","postalCode":"63118","phone":"(314) 577-2626","website":"http://www.anheuser-busch.com/","hoursOfOperation":"Mon:  10:00am - 4:00pm, 9:00am - 5:00pm\nTue:  10:00am - 4:00pm, 9:00am - 5:00pm\nWed:  10:00am - 4:00pm, 9:00am - 5:00pm\nThu:  10:00am - 4:00pm, 9:00am - 5:00pm\nFri:  10:00am - 4:00pm, 9:00am - 5:00pm\nSat:  10:00am - 4:00pm, 9:00am - 5:00pm\nSun:  11:30am - 4:00pm, 11:30am - 5:00pm\n\nSeptember though May\r\nMon-Sat: 10 a.m. - 4 p.m.\r\nSun: 11:30 a.m. - 4 p.m.\r\n\r\nJune though August\r\nMon-Sat: 9 a.m. - 5 p.m.\r\nSun: 11:30 a.m. - 5 p.m.","latitude":38.5985037,"longitude":-90.2093428,"isPrimary":"Y","inPlanning":"N","isClosed":"N","openToPublic":"Y","locationType":"macro","locationTypeDisplay":"Macro Brewery","countryIsoCode":"US","yearOpened":"1852","status":"verified","statusDisplay":"Verified","createDate":"2012-01-03 02:41:44","updateDate":"2014-08-25 19:12:48","country":{"isoCode":"US","name":"UNITED STATES","displayName":"United States","isoThree":"USA","numberCode":840,"createDate":"2012-01-03 02:41:33"}},{"id":"doVlXA","name":"Fort Collins","streetAddress":"2351 Busch Dr","locality":"Fort Collins","region":"Colorado","postalCode":"80524","phone":"(970) 490-4500","website":"http://anheuser-busch.com/","latitude":40.6169416,"longitude":-105.0018273,"isPrimary":"N","inPlanning":"N","isClosed":"N","openToPublic":"N","locationType":"production","locationTypeDisplay":"Production Facility","countryIsoCode":"US","status":"verified","statusDisplay":"Verified","createDate":"2013-07-13 23:02:01","updateDate":"2014-07-23 19:11:34","country":{"isoCode":"US","name":"UNITED STATES","displayName":"United States","isoThree":"USA","numberCode":840,"createDate":"2012-01-03 02:41:33"}},{"id":"G8EZgb","name":"Los Angeles","streetAddress":"15800 Roscoe Blvd","locality":"Van Nuys","region":"California","postalCode":"91406","phone":"(818) 989-5300","website":"http://anheuser-busch.com/","latitude":34.2210112,"longitude":-118.4768522,"isPrimary":"N","inPlanning":"N","isClosed":"N","openToPublic":"N","locationType":"production","locationTypeDisplay":"Production Facility","countryIsoCode":"US","status":"verified","statusDisplay":"Verified","createDate":"2013-07-13 23:02:44","updateDate":"2014-07-23 19:11:34","country":{"isoCode":"US","name":"UNITED STATES","displayName":"United States","isoThree":"USA","numberCode":840,"createDate":"2012-01-03 02:41:33"}},{"id":"sRxNq2","name":"Baldwinsville","streetAddress":"2885 Belgium Rd","locality":"Baldwinsville","region":"New York","postalCode":"13027","phone":"(315) 635-4000","website":"http://anheuser-busch.com/","latitude":43.1624453,"longitude":-76.3096615,"isPrimary":"N","inPlanning":"N","isClosed":"N","openToPublic":"N","locationType":"production","locationTypeDisplay":"Production Facility","countryIsoCode":"US","status":"verified","statusDisplay":"Verified","createDate":"2013-07-13 23:03:49","updateDate":"2014-07-23 19:11:34","country":{"isoCode":"US","name":"UNITED STATES","displayName":"United States","isoThree":"USA","numberCode":840,"createDate":"2012-01-03 02:41:33"}},{"id":"UlgBzT","name":"Cartersville","streetAddress":"100 Busch Dr NE","locality":"Cartersville","region":"Georgia","postalCode":"30121","phone":"(770) 386-2000","website":"http://anheuser-busch.com/","latitude":34.2558728,"longitude":-84.7831874,"isPrimary":"N","inPlanning":"N","isClosed":"N","openToPublic":"N","locationType":"production","locationTypeDisplay":"Production Facility","countryIsoCode":"US","status":"verified","statusDisplay":"Verified","createDate":"2013-07-13 23:04:45","updateDate":"2014-07-23 19:11:34","country":{"isoCode":"US","name":"UNITED STATES","displayName":"United States","isoThree":"USA","numberCode":840,"createDate":"2012-01-03 02:41:33"}},{"id":"75P08u","name":"Columbus","streetAddress":"700 Schrock Rd","locality":"Columbus","region":"Ohio","postalCode":"43229","phone":"(614) 888-6644","website":"http://anheuser-busch.com/","latitude":40.102482,"longitude":-82.9933123,"isPrimary":"N","inPlanning":"N","isClosed":"N","openToPublic":"N","locationType":"production","locationTypeDisplay":"Production Facility","countryIsoCode":"US","status":"verified","statusDisplay":"Verified","createDate":"2013-07-13 23:05:39","updateDate":"2014-07-23 19:11:34","country":{"isoCode":"US","name":"UNITED STATES","displayName":"United States","isoThree":"USA","numberCode":840,"createDate":"2012-01-03 02:41:33"}},{"id":"jP7oIL","name":"Fairfield","streetAddress":"3101 Busch Dr","locality":"Fairfield","region":"California","postalCode":"94534","phone":"(707) 429-2000","website":"http://anheuser-busch.com/","latitude":38.236362,"longitude":-122.091866,"isPrimary":"N","inPlanning":"N","isClosed":"N","openToPublic":"N","locationType":"production","locationTypeDisplay":"Production Facility","countryIsoCode":"US","status":"verified","statusDisplay":"Verified","createDate":"2013-07-13 23:06:25","updateDate":"2014-07-23 19:11:34","country":{"isoCode":"US","name":"UNITED STATES","displayName":"United States","isoThree":"USA","numberCode":840,"createDate":"2012-01-03 02:41:33"}},{"id":"LiqcRm","name":"Houston","streetAddress":"775 Gellhorn Dr","locality":"Houston","region":"Texas","postalCode":"77029","phone":"(713) 675-2311","website":"http://anheuser-busch.com/","latitude":29.773088,"longitude":-95.269255,"isPrimary":"N","inPlanning":"N","isClosed":"N","openToPublic":"N","locationType":"production","locationTypeDisplay":"Production Facility","countryIsoCode":"US","status":"verified","statusDisplay":"Verified","createDate":"2013-07-13 23:07:07","updateDate":"2014-07-23 19:11:34","country":{"isoCode":"US","name":"UNITED STATES","displayName":"United States","isoThree":"USA","numberCode":840,"createDate":"2012-01-03 02:41:33"}},{"id":"y2ZQbD","name":"Jacksonville","streetAddress":"111 Busch Dr","locality":"Jacksonville","region":"Florida","postalCode":"32218","phone":"(904) 751-0700","website":"http://anheuser-busch.com/","latitude":30.433924,"longitude":-81.650619,"isPrimary":"N","inPlanning":"N","isClosed":"N","openToPublic":"N","locationType":"production","locationTypeDisplay":"Production Facility","countryIsoCode":"US","status":"verified","statusDisplay":"Verified","createDate":"2013-07-13 23:07:42","updateDate":"2014-07-23 19:11:34","country":{"isoCode":"US","name":"UNITED STATES","displayName":"United States","isoThree":"USA","numberCode":840,"createDate":"2012-01-03 02:41:33"}},{"id":"aMIEke","name":"Merrimack","streetAddress":"221 Daniel Webster Hwy","locality":"Merrimack","region":"New Hampshire","postalCode":"03054","phone":"(603) 595-1202","website":"http://anheuser-busch.com/","hoursOfOperation":"Mon:  10:00am - 4:00pm\nThu:  10:00am - 4:00pm\nFri:  10:00am - 4:00pm\nSat:  10:00am - 4:00pm\nSun:  10:00am - 4:00pm\n\nMon: 10:00 am - 4:00 pm\r\nThu - Sun: 10:00 am - 4:00 pm","latitude":42.8260322,"longitude":-71.4871372,"isPrimary":"N","inPlanning":"N","isClosed":"N","openToPublic":"Y","locationType":"production","locationTypeDisplay":"Production Facility","countryIsoCode":"US","yearOpened":"1970","status":"verified","statusDisplay":"Verified","createDate":"2013-07-13 23:08:31","updateDate":"2014-08-25 19:12:49","country":{"isoCode":"US","name":"UNITED STATES","displayName":"United States","isoThree":"USA","numberCode":840,"createDate":"2012-01-03 02:41:33"}},{"id":"Cg12u5","name":"Newark","streetAddress":"200 US Highway 1","locality":"Newark","region":"New Jersey","postalCode":"07114","phone":"(973) 645-7700","website":"http://anheuser-busch.com/","latitude":40.7067437,"longitude":-74.1736086,"isPrimary":"N","inPlanning":"N","isClosed":"N","openToPublic":"N","locationType":"production","locationTypeDisplay":"Production Facility","countryIsoCode":"US","status":"verified","statusDisplay":"Verified","createDate":"2013-07-13 23:09:14","updateDate":"2014-07-23 19:11:34","country":{"isoCode":"US","name":"UNITED STATES","displayName":"United States","isoThree":"USA","numberCode":840,"createDate":"2012-01-03 02:41:33"}},{"id":"ozjr3W","name":"Williamsburg","streetAddress":"7801 Pocahontas Trail","locality":"Williamsburg","region":"Virginia","postalCode":"23185","phone":"(757) 253-3600","website":"http://anheuser-busch.com/","latitude":37.2381215,"longitude":-76.652522,"isPrimary":"N","inPlanning":"N","isClosed":"N","openToPublic":"N","locationType":"production","locationTypeDisplay":"Production Facility","countryIsoCode":"US","status":"verified","statusDisplay":"Verified","createDate":"2013-07-13 23:09:54","updateDate":"2014-07-23 19:11:34","country":{"isoCode":"US","name":"UNITED STATES","displayName":"United States","isoThree":"USA","numberCode":840,"createDate":"2012-01-03 02:41:33"}},{"id":"MWi5Kp","name":"Main Brewery","streetAddress":"2109 Hickory Street","locality":"Cross Plains","region":"Wisconsin","postalCode":"53528","phone":"1-608-798-3911","latitude":43.114731,"longitude":-89.653129,"isPrimary":"Y","inPlanning":"N","isClosed":"N","openToPublic":"Y","locationType":"micro","locationTypeDisplay":"Micro Brewery","countryIsoCode":"US","status":"verified","statusDisplay":"Verified","createDate":"2012-01-03 02:41:52","updateDate":"2014-07-23 19:11:34","country":{"isoCode":"US","name":"UNITED STATES","displayName":"United States","isoThree":"USA","numberCode":840,"createDate":"2012-01-03 02:41:33"}},{"id":"FxyfOU","name":"Main Brewery","streetAddress":"Brauereistra√üe 2","locality":"Hamminkeln","postalCode":"46499","phone":"028 52 / 9 13 2","latitude":51.72886,"longitude":6.590165,"isPrimary":"Y","inPlanning":"N","isClosed":"N","openToPublic":"Y","locationType":"micro","locationTypeDisplay":"Micro Brewery","countryIsoCode":"DE","status":"verified","statusDisplay":"Verified","createDate":"2012-08-16 12:43:58","updateDate":"2014-07-23 19:11:34","country":{"isoCode":"DE","name":"GERMANY","displayName":"Germany","isoThree":"DEU","numberCode":276,"createDate":"2012-01-03 02:41:33"}},{"id":"HeStKS","name":"Main Brewery","streetAddress":"209 South Main Street","extendedAddress":"Box 177","locality":"Potosi","region":"Wisconsin","postalCode":"53820","phone":"608-763-4002","website":"http://www.potosibrewery.com/","latitude":42.6716654,"longitude":-90.7271709,"isPrimary":"Y","inPlanning":"N","isClosed":"N","openToPublic":"Y","locationType":"micro","locationTypeDisplay":"Micro Brewery","countryIsoCode":"US","yearOpened":"1852","status":"verified","statusDisplay":"Verified","createDate":"2012-01-03 02:42:06","updateDate":"2014-07-23 19:11:34","country":{"isoCode":"US","name":"UNITED STATES","displayName":"United States","isoThree":"USA","numberCode":840,"createDate":"2012-01-03 02:41:33"}}]