[{"id":"qo6LCf","name":"Main Brewery, General Offices and Taproom","streetAddress":"1621 Moore St.","locality":"Cincinnati","region":"Ohio","postalCode":"45202","phone":"513-827-6025","website":"http://www.christianmoerlein.com/","hoursOfOperation":"Wed:  4:00pm - 10:00pm\nThu:  4:00pm - 10:00pm\nFri:  4:00pm - 12:00am\nSat:  12:00pm - 12:00am\nSun:  12:00pm - 7:00pm\n\n","latitude":39.1137948,"longitude":-84.5150108,"isPrimary":"Y","inPlanning":"N","isClosed":"N","openToPublic":"Y","locationType":"production","locationTypeDisplay":"Production Facility","countryIsoCode":"US","yearOpened":"1853","status":"verified","statusDisplay":"Verified","createDate":"2012-01-03 02:41:50","updateDate":"2014-07-27 12:11:20","country":{"isoCode":"US","name":"UNITED STATES","displayName":"United States","isoThree":"USA","numberCode":840,"createDate":"2012-01-03 02:41:33"}},{"id":"X0HMO8","name":"Christian Moerlein Lager House","streetAddress":"115 Joe Nuxhall Way","locality":"Cincinnati","region":"Ohio","postalCode":"45202","phone":"513-421-2337","website":"http://www.moerleinlagerhouse.com/","hoursOfOperation":"Mon:  1:00pm - 8:00pm\nTue:  1:00pm - 8:00pm\nWed:  1:00pm - 8:00pm\nThu:  1:00pm - 8:00pm\nFri:  11:00am - 10:00pm\nSat:  11:00am - 10:00pm\nSun:  12:00pm - 6:00pm\n\n","latitude":39.0963619,"longitude":-84.5087017,"isPrimary":"N","inPlanning":"N","isClosed":"N","openToPublic":"Y","locationType":"restaurant","locationTypeDisplay":"Restaurant/Ale House","countryIsoCode":"US","yearOpened":"2012","status":"verified","statusDisplay":"Verified","createDate":"2012-08-02 18:10:31","updateDate":"2014-07-27 12:10:27","country":{"isoCode":"US","name":"UNITED STATES","displayName":"United States","isoThree":"USA","numberCode":840,"createDate":"2012-01-03 02:41:33"}}]