[{"id":"NlWGl9","name":"Brauerei Allersheim","website":"http://www.brauerei-allersheim.de/","established":"1854","isOrganic":"N","status":"verified","statusDisplay":"Verified","createDate":"2012-08-07 10:18:25","updateDate":"2012-08-13 01:23:14","locations":[{"id":"OhUFOQ","name":"Main Brewery","streetAddress":"Allersheim 6","locality":"Holzminden","region":"Lower Saxony","postalCode":"37603","latitude":51.843343,"longitude":9.477087,"isPrimary":"Y","inPlanning":"N","isClosed":"N","openToPublic":"Y","locationType":"micro","locationTypeDisplay":"Micro Brewery","countryIsoCode":"DE","status":"verified","statusDisplay":"Verified","createDate":"2012-08-13 01:23:40","updateDate":"2014-07-23 19:11:34","country":{"isoCode":"DE","name":"GERMANY","displayName":"Germany","isoThree":"DEU","numberCode":276,"createDate":"2012-01-03 02:41:33"}}]},{"id":"t3PXt5","name":"Brauerei Moninger","established":"1854","isOrganic":"N","status":"verified","statusDisplay":"Verified","createDate":"2012-08-07 10:16:41","updateDate":"2012-08-13 14:30:15","locations":[{"id":"SLdIGE","name":"Main Brewery","streetAddress":"Durmersheimer Straße 59","locality":"Karlsruhe","region":"Baden-Württemberg","postalCode":"D-76185","latitude":49.018225,"longitude":8.414965,"isPrimary":"N","inPlanning":"N","isClosed":"N","openToPublic":"Y","locationType":"micro","locationTypeDisplay":"Micro Brewery","countryIsoCode":"DE","status":"verified","statusDisplay":"Verified","createDate":"2012-08-12 14:47:15","updateDate":"2014-07-23 19:11:34","country":{"isoCode":"DE","name":"GERMANY","displayName":"Germany","isoThree":"DEU","numberCode":276,"createDate":"2012-01-03 02:41:33"}}]},{"id":"32D643","name":"Hövels Hausbrauerei GmbH","established":"1854","isOrganic":"N","status":"verified","statusDisplay":"Verified","createDate":"2012-08-07 10:18:46","updateDate":"2012-08-13 14:34:58","locations":[{"id":"ZZOLN1","name":"Main Brewery","streetAddress":"Hoher Wall 5-7","locality":"Dortmund","region":"Nordrhein-Westfalen","postalCode":"D-44137","latitude":51.511758,"longitude":7.459287,"isPrimary":"N","inPlanning":"N","isClosed":"N","openToPublic":"Y","locationType":"micro","locationTypeDisplay":"Micro Brewery","countryIsoCode":"DE","status":"verified","statusDisplay":"Verified","createDate":"2012-08-12 14:47:59","updateDate":"2014-07-23 19:11:34","country":{"isoCode":"DE","name":"GERMANY","displayName":"Germany","isoThree":"DEU","numberCode":276,"createDate":"2012-01-03 02:41:33"}}]},{"id":"x8H3l7","name":"Licher Privatbrauerei","website":"http://www.licher.de/","established":"1854","isOrganic":"N","status":"verified","statusDisplay":"Verified","createDate":"2012-08-07 10:18:06","updateDate":"2012-08-16 13:54:53","locations":[{"id":"PpNk6z","name":"Main Brewery","streetAddress":"In den Hardtberggärten","locality":"Lich","postalCode":"35423","latitude":50.521267,"longitude":8.823549,"isPrimary":"Y","inPlanning":"N","isClosed":"N","openToPublic":"Y","locationType":"micro","locationTypeDisplay":"Micro Brewery","countryIsoCode":"DE","status":"verified","statusDisplay":"Verified","createDate":"2012-08-16 13:55:22","updateDate":"2014-07-23 19:11:34","country":{"isoCode":"DE","name":"GERMANY","displayName":"Germany","isoThree":"DEU","numberCode":276,"createDate":"2012-01-03 02:41:33"}}]}]