[{"id":"fu2qgB","name":"Main Brewery","streetAddress":"598 86","locality":"Vimmerby","phone":"0492-165 00","latitude":57.668705,"longitude":15.901955,"isPrimary":"Y","inPlanning":"N","isClosed":"N","openToPublic":"Y","locationType":"micro","locationTypeDisplay":"Micro Brewery","countryIsoCode":"SE","yearOpened":"1856","status":"verified","statusDisplay":"Verified","createDate":"2012-10-21 16:31:57","updateDate":"2014-07-23 19:11:34","country":{"isoCode":"SE","name":"SWEDEN","displayName":"Sweden","isoThree":"SWE","numberCode":752,"createDate":"2012-01-03 02:41:33"}},{"id":"bGabak","name":"Main Brewery","streetAddress":"Strandveien 71","region":"Trondheim","postalCode":"7042","phone":"+47 73 58 15 00","website":"http://ringnes.no/","latitude":63.440875,"longitude":10.4270105,"isPrimary":"Y","inPlanning":"N","isClosed":"N","openToPublic":"Y","locationType":"micro","locationTypeDisplay":"Micro Brewery","countryIsoCode":"NO","status":"verified","statusDisplay":"Verified","createDate":"2014-09-02 11:51:24","updateDate":"2014-09-02 11:51:24","country":{"isoCode":"NO","name":"NORWAY","displayName":"Norway","isoThree":"NOR","numberCode":578,"createDate":"2012-01-03 02:41:33"}},{"id":"szMI0y","name":"Main Brewery","streetAddress":"7281 E 30th Street","locality":"Yuma","region":"Arizona","postalCode":"85365","phone":"928-783-8800","website":"http://www.henryweinhards.com/","latitude":32.673008,"longitude":-114.508172,"isPrimary":"Y","inPlanning":"N","isClosed":"N","openToPublic":"Y","locationType":"micro","locationTypeDisplay":"Micro Brewery","countryIsoCode":"US","yearOpened":"1856","status":"verified","statusDisplay":"Verified","createDate":"2012-01-03 02:41:57","updateDate":"2014-07-23 19:11:34","country":{"isoCode":"US","name":"UNITED STATES","displayName":"United States","isoThree":"USA","numberCode":840,"createDate":"2012-01-03 02:41:33"}},{"id":"omcVvl","name":"Main Brewery","streetAddress":"Leitrim Street","region":"Cork","phone":"+353(0)21-4503371","website":"http://www.murphys.com/","latitude":51.902157,"longitude":-8.471406,"isPrimary":"Y","inPlanning":"N","isClosed":"N","openToPublic":"Y","locationType":"micro","locationTypeDisplay":"Micro Brewery","countryIsoCode":"IE","status":"verified","statusDisplay":"Verified","createDate":"2012-06-11 13:48:27","updateDate":"2014-07-23 19:11:34","country":{"isoCode":"IE","name":"IRELAND","displayName":"Ireland","isoThree":"IRL","numberCode":372,"createDate":"2012-01-03 02:41:33"}},{"id":"cJio9R","name":"Main Brewery","streetAddress":"ul. Browarna 88","locality":"Zywiec","postalCode":"34-300","phone":"48-0-33-614-614","website":"http://www.zywiec.com.pl/","latitude":49.6622397,"longitude":19.1742148,"isPrimary":"Y","inPlanning":"N","isClosed":"N","openToPublic":"Y","locationType":"micro","locationTypeDisplay":"Micro Brewery","countryIsoCode":"PL","yearOpened":"1856","status":"verified","statusDisplay":"Verified","createDate":"2012-01-03 02:41:43","updateDate":"2014-07-23 19:11:34","country":{"isoCode":"PL","name":"POLAND","displayName":"Poland","isoThree":"POL","numberCode":616,"createDate":"2012-01-03 02:41:33"}}]