[{"id":"AnN3Lm","name":"Main Brewery","streetAddress":"Via Val Venosta, 8","locality":"Lagundo / Algund","phone":"39-0473-260111","website":"http://www.forst.it/","latitude":46.6804881,"longitude":11.1332369,"isPrimary":"Y","inPlanning":"N","isClosed":"N","openToPublic":"Y","locationType":"micro","locationTypeDisplay":"Micro Brewery","countryIsoCode":"IT","status":"verified","statusDisplay":"Verified","createDate":"2012-01-03 02:41:46","updateDate":"2014-07-23 19:11:34","country":{"isoCode":"IT","name":"ITALY","displayName":"Italy","isoThree":"ITA","numberCode":380,"createDate":"2012-01-03 02:41:33"}},{"id":"z0gnmN","name":"Main Brewery","streetAddress":"700 North Pennsylvania Blvd.","locality":"Wilkes Barre","region":"Pennsylvania","postalCode":"18705","phone":"800-233-8327","website":"http://www.lionbrewery.com/","latitude":41.2556575,"longitude":-75.858261,"isPrimary":"Y","inPlanning":"N","isClosed":"N","openToPublic":"Y","locationType":"micro","locationTypeDisplay":"Micro Brewery","countryIsoCode":"US","yearOpened":"1857","status":"verified","statusDisplay":"Verified","createDate":"2012-01-03 02:42:00","updateDate":"2014-07-23 19:11:34","country":{"isoCode":"US","name":"UNITED STATES","displayName":"United States","isoThree":"USA","numberCode":840,"createDate":"2012-01-03 02:41:33"}},{"id":"54skNQ","name":"Main Brewery","streetAddress":"2617 Water Street","locality":"Stevens Point","region":"Wisconsin","postalCode":"54481","phone":"715-344-9310","website":"http://www.pointbeer.com/","latitude":44.5104,"longitude":-89.5734,"isPrimary":"Y","inPlanning":"N","isClosed":"N","openToPublic":"Y","locationType":"micro","locationTypeDisplay":"Micro Brewery","countryIsoCode":"US","yearOpened":"1857","status":"verified","statusDisplay":"Verified","createDate":"2012-01-03 02:42:09","updateDate":"2014-07-23 19:11:34","country":{"isoCode":"US","name":"UNITED STATES","displayName":"United States","isoThree":"USA","numberCode":840,"createDate":"2012-01-03 02:41:33"}}]