[{"id":"6iVXTk","name":"Main Brewery","streetAddress":"1860 Schell Road","locality":"New Ulm","region":"Minnesota","postalCode":"56073","phone":"800-770-5020","website":"http://www.schellsbrewery.com/","hoursOfOperation":"Brewery Gift Shop\r\nOpen daily 11am - 5pm.\r\n\r\nBrewery Tours:\r\nSeptember - May\r\nFriday 3:00 pm\r\nSaturday: Noon, 1:00, 2:00, 3:00, and 4:00\r\nSunday (Sept. - Dec.): 1:00, 2:00, 3:00, and 4:00\r\nSunday (Jan. - May): 1:00\r\n\r\nSummer Schedule\r\nTours run daily Memorial Day through Labor Day\r\nMonday through Friday:  1:00, 2:30 and 4:00\r\nSaturday:  Noon, 1:00, 2:00, 3:00 and 4:00\r\nSunday:  1:00, 2:00, 3:00 and 4:00","latitude":44.2896306,"longitude":-94.4489735,"isPrimary":"Y","inPlanning":"N","isClosed":"N","openToPublic":"Y","locationType":"micro","locationTypeDisplay":"Micro Brewery","countryIsoCode":"US","yearOpened":"1860","status":"verified","statusDisplay":"Verified","createDate":"2012-01-03 02:41:44","updateDate":"2014-09-29 20:33:35","country":{"isoCode":"US","name":"UNITED STATES","displayName":"United States","isoThree":"USA","numberCode":840,"createDate":"2012-01-03 02:41:33"}},{"id":"aEBj0Q","name":"Main Brewery","streetAddress":"Denterhoutembaan 2","locality":"Ninove","region":"Oost-Vlaanderen","postalCode":"9400","phone":"32-054-33-18-31","website":"http://www.witkap.be/","latitude":50.841297,"longitude":4.0214546,"isPrimary":"Y","inPlanning":"N","isClosed":"N","openToPublic":"Y","locationType":"micro","locationTypeDisplay":"Micro Brewery","countryIsoCode":"BE","yearOpened":"1860","status":"verified","statusDisplay":"Verified","createDate":"2012-01-03 02:41:49","updateDate":"2014-07-23 19:11:34","country":{"isoCode":"BE","name":"BELGIUM","displayName":"Belgium","isoThree":"BEL","numberCode":56,"createDate":"2012-01-03 02:41:33"}},{"id":"Q1JGCH","name":"Main Brewery","streetAddress":"Grosswaldstra√üe 132","locality":"Heusweiler-Eiweiler","region":"Saarland","postalCode":"66265","latitude":49.337755,"longitude":6.92892,"isPrimary":"Y","inPlanning":"N","isClosed":"N","openToPublic":"Y","locationType":"micro","locationTypeDisplay":"Micro Brewery","countryIsoCode":"DE","status":"verified","statusDisplay":"Verified","createDate":"2012-08-13 00:16:39","updateDate":"2014-07-23 19:11:34","country":{"isoCode":"DE","name":"GERMANY","displayName":"Germany","isoThree":"DEU","numberCode":276,"createDate":"2012-01-03 02:41:33"}},{"id":"z7bUU8","name":"Main Brewery","locality":"Stillwater","region":"Minnesota","postalCode":"55082","latitude":45.0567,"longitude":-92.810574,"isPrimary":"Y","inPlanning":"N","isClosed":"N","openToPublic":"N","locationType":"micro","locationTypeDisplay":"Micro Brewery","countryIsoCode":"US","status":"verified","statusDisplay":"Verified","createDate":"2012-11-19 18:57:45","updateDate":"2014-07-23 19:11:34","country":{"isoCode":"US","name":"UNITED STATES","displayName":"United States","isoThree":"USA","numberCode":840,"createDate":"2012-01-03 02:41:33"}},{"id":"hcuih5","name":"Main Brewery","streetAddress":"National Park Road","extendedAddress":"PO Box No. 13","region":"Rawalpindi","postalCode":"46000","phone":"(+92) 051-5567041-7","website":"http://www.murreebrewery.com","isPrimary":"Y","inPlanning":"N","isClosed":"N","openToPublic":"Y","locationType":"micro","locationTypeDisplay":"Micro Brewery","countryIsoCode":"PK","status":"verified","statusDisplay":"Verified","createDate":"2014-03-09 22:15:21","updateDate":"2014-07-23 19:11:34","country":{"isoCode":"PK","name":"PAKISTAN","displayName":"Pakistan","isoThree":"PAK","numberCode":586,"createDate":"2012-01-03 02:41:33"}}]