[{"id":"4M26ru","name":"Main Brewery","streetAddress":"Kapellenstraße 36","locality":"Rastatt","region":"Baden-Württemberg","postalCode":"76437","latitude":48.857571,"longitude":8.206857,"isPrimary":"N","inPlanning":"N","isClosed":"N","openToPublic":"Y","locationType":"micro","locationTypeDisplay":"Micro Brewery","countryIsoCode":"DE","status":"verified","statusDisplay":"Verified","createDate":"2012-08-12 14:46:19","updateDate":"2014-07-23 19:11:34","country":{"isoCode":"DE","name":"GERMANY","displayName":"Germany","isoThree":"DEU","numberCode":276,"createDate":"2012-01-03 02:41:33"}},{"id":"FLKgIy","name":"Main Brewery","streetAddress":"Palaisstraße 1-13","locality":"Detmold","region":"Nordrhein-Westfalen","postalCode":"D-32756","latitude":51.93491,"longitude":8.879305,"isPrimary":"N","inPlanning":"N","isClosed":"N","openToPublic":"Y","locationType":"micro","locationTypeDisplay":"Micro Brewery","countryIsoCode":"DE","status":"verified","statusDisplay":"Verified","createDate":"2012-08-12 14:47:55","updateDate":"2014-07-23 19:11:34","country":{"isoCode":"DE","name":"GERMANY","displayName":"Germany","isoThree":"DEU","numberCode":276,"createDate":"2012-01-03 02:41:33"}},{"id":"IkCzV8","name":"Main Brewery","streetAddress":"3214 Preston Highway","locality":"Louisville","region":"Kentucky","postalCode":"40213","website":"http://www.sterlingbeer.com/","latitude":38.20188,"longitude":-85.734649,"isPrimary":"Y","inPlanning":"N","isClosed":"N","openToPublic":"Y","locationType":"micro","locationTypeDisplay":"Micro Brewery","countryIsoCode":"US","status":"verified","statusDisplay":"Verified","createDate":"2014-06-18 01:31:46","updateDate":"2014-07-23 19:11:34","country":{"isoCode":"US","name":"UNITED STATES","displayName":"United States","isoThree":"USA","numberCode":840,"createDate":"2012-01-03 02:41:33"}}]