[{"id":"Ac9ZYF","name":"Main Brewery","streetAddress":"220002 ul. Kiseleva, 30","locality":"Minsk","region":"Minsk","phone":"(+375 17) 239-58-01","website":"http://www.alivaria.by/","latitude":53.9,"longitude":27.5666667,"isPrimary":"Y","inPlanning":"N","isClosed":"N","openToPublic":"Y","locationType":"micro","locationTypeDisplay":"Micro Brewery","countryIsoCode":"BY","status":"verified","statusDisplay":"Verified","createDate":"2013-01-17 20:38:11","updateDate":"2014-07-23 19:11:34","country":{"isoCode":"BY","name":"BELARUS","displayName":"Belarus","isoThree":"BLR","numberCode":112,"createDate":"2012-01-03 02:41:33"}},{"id":"U3JLEf","name":"Main Brewery","streetAddress":"Kingsdown Brewery","region":"Swindon","postalCode":"SN2 7RU","phone":"(01793) 823026","website":"http://www.arkells.com/","latitude":51.5933,"longitude":-1.759518,"isPrimary":"Y","inPlanning":"N","isClosed":"N","openToPublic":"Y","locationType":"micro","locationTypeDisplay":"Micro Brewery","countryIsoCode":"GB","status":"verified","statusDisplay":"Verified","createDate":"2012-07-12 13:15:10","updateDate":"2014-07-23 19:11:34","country":{"isoCode":"GB","name":"UNITED KINGDOM","displayName":"United Kingdom","isoThree":"GBR","numberCode":826,"createDate":"2012-01-03 02:41:33"}},{"id":"GmYAZI","name":"Main Brewery","streetAddress":"Wilhelmstra√üe 162","locality":"Aalen","postalCode":"73433","latitude":48.86511,"longitude":10.103065,"isPrimary":"Y","inPlanning":"N","isClosed":"N","openToPublic":"Y","locationType":"micro","locationTypeDisplay":"Micro Brewery","countryIsoCode":"DE","status":"verified","statusDisplay":"Verified","createDate":"2012-08-16 14:02:00","updateDate":"2014-07-23 19:11:34","country":{"isoCode":"DE","name":"GERMANY","displayName":"Germany","isoThree":"DEU","numberCode":276,"createDate":"2012-01-03 02:41:33"}},{"id":"8YI6CP","name":"Main Brewery","streetAddress":"Saarwiesenring 6","locality":"Merzig","postalCode":"66663","latitude":49.443078,"longitude":6.6278,"isPrimary":"Y","inPlanning":"N","isClosed":"N","openToPublic":"Y","locationType":"micro","locationTypeDisplay":"Micro Brewery","countryIsoCode":"DE","status":"verified","statusDisplay":"Verified","createDate":"2012-08-16 15:01:18","updateDate":"2014-07-23 19:11:34","country":{"isoCode":"DE","name":"GERMANY","displayName":"Germany","isoThree":"DEU","numberCode":276,"createDate":"2012-01-03 02:41:33"}},{"id":"VajTuz","name":"Main Brewery","streetAddress":"Franjevacka 15","locality":"Sarajevo","postalCode":"71 000","phone":"+387 33 491 107","website":"http://www.sarajevska-pivara.ba/","latitude":43.852579,"longitude":18.37507,"isPrimary":"Y","inPlanning":"N","isClosed":"N","openToPublic":"Y","locationType":"micro","locationTypeDisplay":"Micro Brewery","countryIsoCode":"BA","yearOpened":"1864","status":"verified","statusDisplay":"Verified","createDate":"2012-01-03 02:42:07","updateDate":"2014-07-23 19:11:34","country":{"isoCode":"BA","name":"BOSNIA AND HERZEGOVINA","displayName":"Bosnia and Herzegovina","isoThree":"BIH","numberCode":70,"createDate":"2012-01-03 02:41:33"}},{"id":"u3QmOT","name":"Main Office","locality":"Norwalk","region":"Connecticut","website":"http://www.smirnoff.com/","latitude":41.117744,"longitude":-73.4081575,"isPrimary":"Y","inPlanning":"N","isClosed":"N","openToPublic":"N","locationType":"office","locationTypeDisplay":"Office","countryIsoCode":"US","status":"verified","statusDisplay":"Verified","createDate":"2014-07-19 10:37:36","updateDate":"2014-07-23 19:11:34","country":{"isoCode":"US","name":"UNITED STATES","displayName":"United States","isoThree":"USA","numberCode":840,"createDate":"2012-01-03 02:41:33"}},{"id":"TNnvJV","name":"Main Brewery","locality":"Denver","region":"Colorado","phone":"(303) 582-6039","website":"http://tivolibrewingco.com/","latitude":39.74001,"longitude":-104.992259,"isPrimary":"Y","inPlanning":"N","isClosed":"Y","openToPublic":"Y","locationType":"micro","locationTypeDisplay":"Micro Brewery","countryIsoCode":"US","status":"verified","statusDisplay":"Verified","createDate":"2012-01-03 02:42:10","updateDate":"2014-07-23 19:11:34","country":{"isoCode":"US","name":"UNITED STATES","displayName":"United States","isoThree":"USA","numberCode":840,"createDate":"2012-01-03 02:41:33"}}]