[{"id":"zUkUMx","name":"Main Brewery","streetAddress":"Tvaika iela 44","locality":"Rga","phone":"371-70-23-200","website":"http://www.aldaris.lv/","latitude":57.0063532,"longitude":24.1205866,"isPrimary":"Y","inPlanning":"N","isClosed":"N","openToPublic":"Y","locationType":"micro","locationTypeDisplay":"Micro Brewery","countryIsoCode":"LV","yearOpened":"1865","status":"verified","statusDisplay":"Verified","createDate":"2012-01-03 02:41:43","updateDate":"2014-07-23 19:11:34","country":{"isoCode":"LV","name":"LATVIA","displayName":"Latvia","isoThree":"LVA","numberCode":428,"createDate":"2012-01-03 02:41:33"}},{"id":"WQUo8G","name":"Main Brewery","streetAddress":"Schwarzwaldstrasse 43","locality":"Freiburg","region":"Baden-Württemberg","postalCode":"79117","latitude":47.989117,"longitude":7.859933,"isPrimary":"Y","inPlanning":"N","isClosed":"N","openToPublic":"Y","locationType":"micro","locationTypeDisplay":"Micro Brewery","countryIsoCode":"DE","status":"verified","statusDisplay":"Verified","createDate":"2012-08-13 10:56:38","updateDate":"2014-07-23 19:11:34","country":{"isoCode":"DE","name":"GERMANY","displayName":"Germany","isoThree":"DEU","numberCode":276,"createDate":"2012-01-03 02:41:33"}},{"id":"ahHq5a","name":"Main Brewery","streetAddress":"Karl-Silbernagel-Straße 20","region":"Bellheim","postalCode":"76756","latitude":49.189414,"longitude":8.278914,"isPrimary":"Y","inPlanning":"N","isClosed":"N","openToPublic":"Y","locationType":"micro","locationTypeDisplay":"Micro Brewery","countryIsoCode":"DE","status":"verified","statusDisplay":"Verified","createDate":"2012-08-15 16:12:07","updateDate":"2014-07-23 19:11:34","country":{"isoCode":"DE","name":"GERMANY","displayName":"Germany","isoThree":"DEU","numberCode":276,"createDate":"2012-01-03 02:41:33"}}]