[{"id":"6PtaDk","name":"Main Brewery","streetAddress":"Postfach 1102","locality":"Linz am Rhein","postalCode":"53542","latitude":50.568221,"longitude":7.279943,"isPrimary":"Y","inPlanning":"N","isClosed":"N","openToPublic":"Y","locationType":"micro","locationTypeDisplay":"Micro Brewery","countryIsoCode":"DE","status":"verified","statusDisplay":"Verified","createDate":"2012-08-16 14:29:19","updateDate":"2014-07-23 19:11:34","country":{"isoCode":"DE","name":"GERMANY","displayName":"Germany","isoThree":"DEU","numberCode":276,"createDate":"2012-01-03 02:41:33"}},{"id":"dWrNma","name":"Main Brewery","streetAddress":"An den Hopfengärten 6","locality":"Winnweiler","region":"Rheinland-Pfalz","postalCode":"D-67722","latitude":49.572184,"longitude":7.858143,"isPrimary":"N","inPlanning":"N","isClosed":"N","openToPublic":"Y","locationType":"micro","locationTypeDisplay":"Micro Brewery","countryIsoCode":"DE","status":"verified","statusDisplay":"Verified","createDate":"2012-08-12 14:47:20","updateDate":"2014-07-23 19:11:34","country":{"isoCode":"DE","name":"GERMANY","displayName":"Germany","isoThree":"DEU","numberCode":276,"createDate":"2012-01-03 02:41:33"}},{"id":"Ig9jd1","name":"Main Brewery","streetAddress":"Dr.-Wilhelm-Külz-Straße 41","locality":"Pößneck","region":"Thüringen","postalCode":"D-07381","latitude":50.693233,"longitude":11.590653,"isPrimary":"N","inPlanning":"N","isClosed":"N","openToPublic":"Y","locationType":"micro","locationTypeDisplay":"Micro Brewery","countryIsoCode":"DE","status":"verified","statusDisplay":"Verified","createDate":"2012-08-12 14:45:26","updateDate":"2014-07-23 19:11:34","country":{"isoCode":"DE","name":"GERMANY","displayName":"Germany","isoThree":"DEU","numberCode":276,"createDate":"2012-01-03 02:41:33"}}]