[{"id":"TmqmWY","name":"Main Brewery","streetAddress":"Westerheimerstr. 4","region":"Wiesensteig","postalCode":"73349","latitude":48.561655,"longitude":9.625371,"isPrimary":"Y","inPlanning":"N","isClosed":"N","openToPublic":"Y","locationType":"micro","locationTypeDisplay":"Micro Brewery","countryIsoCode":"DE","status":"verified","statusDisplay":"Verified","createDate":"2012-08-16 11:46:56","updateDate":"2014-07-23 19:11:34","country":{"isoCode":"DE","name":"GERMANY","displayName":"Germany","isoThree":"DEU","numberCode":276,"createDate":"2012-01-03 02:41:33"}},{"id":"FXGCOG","name":"Main Brewery","streetAddress":"Neunspringer Straße 4","locality":"Worbis","region":"Thüringen","postalCode":"37339","latitude":51.425331,"longitude":10.352495,"isPrimary":"N","inPlanning":"N","isClosed":"N","openToPublic":"Y","locationType":"micro","locationTypeDisplay":"Micro Brewery","countryIsoCode":"DE","status":"verified","statusDisplay":"Verified","createDate":"2012-08-12 14:46:26","updateDate":"2014-07-23 19:11:34","country":{"isoCode":"DE","name":"GERMANY","displayName":"Germany","isoThree":"DEU","numberCode":276,"createDate":"2012-01-03 02:41:33"}},{"id":"hcCgPK","name":"Main Brewery","streetAddress":"124 East Elm St.","locality":"Chippewa Falls","region":"Wisconsin","postalCode":"54729","phone":"715-723-5557","website":"http://www.leinie.com/","latitude":44.943321,"longitude":-91.3953049,"isPrimary":"Y","inPlanning":"N","isClosed":"N","openToPublic":"Y","locationType":"micro","locationTypeDisplay":"Micro Brewery","countryIsoCode":"US","yearOpened":"1867","status":"verified","statusDisplay":"Verified","createDate":"2012-01-03 02:41:58","updateDate":"2014-07-23 19:11:34","country":{"isoCode":"US","name":"UNITED STATES","displayName":"United States","isoThree":"USA","numberCode":840,"createDate":"2012-01-03 02:41:33"}},{"id":"yCpKtK","name":"Tenth Street Brewery","streetAddress":"1515 North 10th Street","locality":"Milwaukee","region":"Wisconsin","postalCode":"53205","website":"http://www.leinie.com/","latitude":43.050315,"longitude":-87.924579,"isPrimary":"N","inPlanning":"N","isClosed":"N","openToPublic":"N","locationType":"production","locationTypeDisplay":"Production Facility","countryIsoCode":"US","yearOpened":"1995","status":"verified","statusDisplay":"Verified","createDate":"2014-04-18 13:58:40","updateDate":"2014-07-23 19:11:34","country":{"isoCode":"US","name":"UNITED STATES","displayName":"United States","isoThree":"USA","numberCode":840,"createDate":"2012-01-03 02:41:33"}},{"id":"F5LuLZ","name":"Main Brewery","streetAddress":"89 Main Street West","locality":"Saint John","region":"New Brunswick","phone":"1-506-635-7000","latitude":45.2567058,"longitude":-66.0959739,"isPrimary":"Y","inPlanning":"N","isClosed":"N","openToPublic":"Y","locationType":"micro","locationTypeDisplay":"Micro Brewery","countryIsoCode":"CA","status":"verified","statusDisplay":"Verified","createDate":"2012-01-03 02:42:02","updateDate":"2014-07-23 19:11:34","country":{"isoCode":"CA","name":"CANADA","displayName":"Canada","isoThree":"CAN","numberCode":124,"createDate":"2012-01-03 02:41:33"}},{"id":"ZgmopU","name":"Main Brewery","streetAddress":"Stauderstraße 88","locality":"Essen","postalCode":"45326","latitude":51.47875,"longitude":7.0025,"isPrimary":"Y","inPlanning":"N","isClosed":"N","openToPublic":"Y","locationType":"micro","locationTypeDisplay":"Micro Brewery","countryIsoCode":"DE","status":"verified","statusDisplay":"Verified","createDate":"2012-08-16 14:35:00","updateDate":"2014-07-23 19:11:34","country":{"isoCode":"DE","name":"GERMANY","displayName":"Germany","isoThree":"DEU","numberCode":276,"createDate":"2012-01-03 02:41:33"}}]