[{"id":"aNU3n7","name":"Tap Room","streetAddress":"105 Navarino St","locality":"Algoma","region":"Wisconsin","postalCode":"54201","phone":"(920) 785-0822","website":"http://vonstiehl.com/","hoursOfOperation":"Wed:  12:00pm - 9:00pm\nThu:  12:00pm - 9:00pm\nFri:  12:00pm - 10:00pm\nSat:  12:00pm - 10:00pm\nSun:  12:00pm - 5:00pm\n\n","latitude":44.608969,"longitude":-87.435164,"isPrimary":"Y","inPlanning":"N","isClosed":"N","openToPublic":"Y","locationType":"tasting","locationTypeDisplay":"Tasting Room","countryIsoCode":"US","status":"verified","statusDisplay":"Verified","createDate":"2014-11-10 02:11:11","updateDate":"2014-11-13 18:17:38","country":{"isoCode":"US","name":"UNITED STATES","displayName":"United States","isoThree":"USA","numberCode":840,"createDate":"2012-01-03 02:41:33"}},{"id":"cpgM4F","name":"Main Brewery","streetAddress":"Am Feldschlößchen 18","region":"Chemnitz","postalCode":"D-09116","latitude":50.798324,"longitude":12.862028,"isPrimary":"Y","inPlanning":"N","isClosed":"N","openToPublic":"Y","locationType":"micro","locationTypeDisplay":"Micro Brewery","countryIsoCode":"DE","status":"verified","statusDisplay":"Verified","createDate":"2012-08-16 01:41:15","updateDate":"2014-07-23 19:11:34","country":{"isoCode":"DE","name":"GERMANY","displayName":"Germany","isoThree":"DEU","numberCode":276,"createDate":"2012-01-03 02:41:33"}},{"id":"KElhLo","name":"Main Brewery","streetAddress":"Goethestraße 21","locality":"Waldkirch","postalCode":"79183","latitude":48.093616,"longitude":7.960497,"isPrimary":"Y","inPlanning":"N","isClosed":"N","openToPublic":"Y","locationType":"micro","locationTypeDisplay":"Micro Brewery","countryIsoCode":"DE","status":"verified","statusDisplay":"Verified","createDate":"2012-08-16 13:42:36","updateDate":"2014-07-23 19:11:34","country":{"isoCode":"DE","name":"GERMANY","displayName":"Germany","isoThree":"DEU","numberCode":276,"createDate":"2012-01-03 02:41:33"}},{"id":"IXZR85","name":"Main Brewery","streetAddress":"Cnr Turumaha & Herbert Streets","locality":"Greymouth","region":"West Coast","phone":"+64 (0)3 768 4149","website":"http://www.monteiths.com/nz/","latitude":-42.4531426,"longitude":171.2069836,"isPrimary":"Y","inPlanning":"N","isClosed":"N","openToPublic":"Y","locationType":"micro","locationTypeDisplay":"Micro Brewery","countryIsoCode":"NZ","status":"verified","statusDisplay":"Verified","createDate":"2012-01-03 02:42:02","updateDate":"2014-07-23 19:11:34","country":{"isoCode":"NZ","name":"NEW ZEALAND","displayName":"New Zealand","isoThree":"NZL","numberCode":554,"createDate":"2012-01-03 02:41:33"}},{"id":"jciwAo","name":"Main Brewery","streetAddress":"Rosenstraße 10","locality":"Uslar","region":"Lower Saxony","postalCode":"37170","latitude":51.659635,"longitude":9.63485,"isPrimary":"N","inPlanning":"N","isClosed":"N","openToPublic":"Y","locationType":"micro","locationTypeDisplay":"Micro Brewery","countryIsoCode":"DE","status":"verified","statusDisplay":"Verified","createDate":"2012-08-12 14:46:50","updateDate":"2014-07-23 19:11:34","country":{"isoCode":"DE","name":"GERMANY","displayName":"Germany","isoThree":"DEU","numberCode":276,"createDate":"2012-01-03 02:41:33"}},{"id":"5bK52w","name":"Main Brewery","streetAddress":"Herrenhäuser Str. 83-99","locality":"Hannover","postalCode":"30419","latitude":52.394212,"longitude":9.681442,"isPrimary":"Y","inPlanning":"N","isClosed":"N","openToPublic":"Y","locationType":"micro","locationTypeDisplay":"Micro Brewery","countryIsoCode":"DE","status":"verified","statusDisplay":"Verified","createDate":"2012-08-16 13:37:35","updateDate":"2014-07-23 19:11:34","country":{"isoCode":"DE","name":"GERMANY","displayName":"Germany","isoThree":"DEU","numberCode":276,"createDate":"2012-01-03 02:41:33"}}]