[{"id":"IOz8d9","name":"Main Brewery","streetAddress":"Antwoordnummer 7181","locality":"Amsterdam","region":"Amsterdam","phone":"800-022-9885","website":"http://www.amstel.com/","latitude":52.373095,"longitude":4.893305,"isPrimary":"Y","inPlanning":"N","isClosed":"N","openToPublic":"Y","locationType":"micro","locationTypeDisplay":"Micro Brewery","countryIsoCode":"NL","yearOpened":"1870","status":"verified","statusDisplay":"Verified","createDate":"2012-01-03 02:41:44","updateDate":"2014-07-23 19:11:34","country":{"isoCode":"NL","name":"NETHERLANDS","displayName":"Netherlands","isoThree":"NLD","numberCode":528,"createDate":"2012-01-03 02:41:33"}},{"id":"lfsNEt","name":"Main Brewery","streetAddress":"336 South Anaheim Boulevard","locality":"Anaheim","region":"California","postalCode":"92805","phone":"714-780-1888","website":"http://www.anaheimbrew.com/","hoursOfOperation":"Fri:  4:00pm - 9:00pm\nSat:  11:00am - 9:00pm\nSun:  11:00am - 6:00pm\n\nFriday 4 pm – 9 pm\r\nSaturday 11 am – 9 pm \r\nSunday 11 am – 6 pm","latitude":33.8327369,"longitude":-117.9124534,"isPrimary":"Y","inPlanning":"N","isClosed":"N","openToPublic":"Y","locationType":"micro","locationTypeDisplay":"Micro Brewery","countryIsoCode":"US","yearOpened":"1870","status":"verified","statusDisplay":"Verified","createDate":"2012-01-03 02:41:44","updateDate":"2014-08-25 19:12:43","country":{"isoCode":"US","name":"UNITED STATES","displayName":"United States","isoThree":"USA","numberCode":840,"createDate":"2012-01-03 02:41:33"}},{"id":"gTpOw3","name":"Main Brewery","streetAddress":"Darmstädter Landstrasse 185","locality":"Frankfurt","region":"Hesse","postalCode":"60598","latitude":50.094631,"longitude":8.69086,"isPrimary":"N","inPlanning":"N","isClosed":"N","openToPublic":"Y","locationType":"micro","locationTypeDisplay":"Micro Brewery","countryIsoCode":"DE","status":"verified","statusDisplay":"Verified","createDate":"2012-08-12 14:47:49","updateDate":"2014-07-23 19:11:34","country":{"isoCode":"DE","name":"GERMANY","displayName":"Germany","isoThree":"DEU","numberCode":276,"createDate":"2012-01-03 02:41:33"}},{"id":"f2bufj","name":"Main Brewery","streetAddress":"Bachstraße 10","locality":"Ummendorf","region":"Baden-Württemberg","postalCode":"D-88444","latitude":48.063309,"longitude":9.83244,"isPrimary":"N","inPlanning":"N","isClosed":"N","openToPublic":"Y","locationType":"micro","locationTypeDisplay":"Micro Brewery","countryIsoCode":"DE","status":"verified","statusDisplay":"Verified","createDate":"2012-08-12 14:45:38","updateDate":"2014-07-23 19:11:34","country":{"isoCode":"DE","name":"GERMANY","displayName":"Germany","isoThree":"DEU","numberCode":276,"createDate":"2012-01-03 02:41:33"}},{"id":"ylQ46j","name":"Main Brewery","streetAddress":"Brauereistr. 5","locality":"Malsfeld","region":"Hessen","postalCode":"34321","latitude":51.07987,"longitude":9.504105,"isPrimary":"N","inPlanning":"N","isClosed":"N","openToPublic":"Y","locationType":"micro","locationTypeDisplay":"Micro Brewery","countryIsoCode":"DE","status":"verified","statusDisplay":"Verified","createDate":"2012-08-12 14:46:16","updateDate":"2014-07-23 19:11:34","country":{"isoCode":"DE","name":"GERMANY","displayName":"Germany","isoThree":"DEU","numberCode":276,"createDate":"2012-01-03 02:41:33"}},{"id":"wYyIFx","name":"Main Brewery","streetAddress":"Augsburgerstrae 41","locality":"Frstenfeldbruck","region":"Bayern","phone":"49-(0)8141-/-2430","latitude":48.18261,"longitude":11.25224,"isPrimary":"Y","inPlanning":"N","isClosed":"N","openToPublic":"Y","locationType":"micro","locationTypeDisplay":"Micro Brewery","countryIsoCode":"DE","status":"verified","statusDisplay":"Verified","createDate":"2012-01-03 02:41:59","updateDate":"2014-07-23 19:11:34","country":{"isoCode":"DE","name":"GERMANY","displayName":"Germany","isoThree":"DEU","numberCode":276,"createDate":"2012-01-03 02:41:33"}},{"id":"JIniiX","name":"Main Brewery","streetAddress":"Hauptstr. 1","locality":"Neustetten","region":"Baden-Württemberg","postalCode":"72149","latitude":35.247379,"longitude":-91.726887,"isPrimary":"N","inPlanning":"N","isClosed":"N","openToPublic":"Y","locationType":"micro","locationTypeDisplay":"Micro Brewery","countryIsoCode":"DE","status":"verified","statusDisplay":"Verified","createDate":"2012-08-12 14:47:16","updateDate":"2014-07-23 19:11:34","country":{"isoCode":"DE","name":"GERMANY","displayName":"Germany","isoThree":"DEU","numberCode":276,"createDate":"2012-01-03 02:41:33"}}]