[{"id":"UI6I9b","name":"Altenburger Brauerei","website":"http://www.brauerei-altenburg.de/","established":"1871","isOrganic":"N","status":"verified","statusDisplay":"Verified","createDate":"2012-08-07 10:20:29","updateDate":"2012-08-12 23:39:50","locations":[{"id":"9FT7uk","name":"Main Brewery","streetAddress":"Brauereistra√üe 20","locality":"Altenburg","region":"Thuringia","postalCode":"04600","latitude":50.98357,"longitude":12.43639,"isPrimary":"Y","inPlanning":"N","isClosed":"N","openToPublic":"Y","locationType":"micro","locationTypeDisplay":"Micro Brewery","countryIsoCode":"DE","status":"verified","statusDisplay":"Verified","createDate":"2012-08-12 23:40:45","updateDate":"2014-07-23 19:11:34","country":{"isoCode":"DE","name":"GERMANY","displayName":"Germany","isoThree":"DEU","numberCode":276,"createDate":"2012-01-03 02:41:33"}}]},{"id":"KSqbyz","name":"Duvel Moortgat","website":"http://www.duvelmoortgat.be/","established":"1871","isOrganic":"N","status":"verified","statusDisplay":"Verified","createDate":"2012-01-03 02:41:53","updateDate":"2012-03-21 19:06:06","locations":[{"id":"zyKOCp","name":"Main Brewery","streetAddress":"Breendonkdorp 58","locality":"Breendonk","region":"Antwerpen","phone":"32-038-86-71-21","website":"http://www.duvelmoortgat.be/","latitude":51.0429432,"longitude":4.3260369,"isPrimary":"Y","inPlanning":"N","isClosed":"N","openToPublic":"Y","locationType":"micro","locationTypeDisplay":"Micro Brewery","countryIsoCode":"BE","yearOpened":"1871","status":"verified","statusDisplay":"Verified","createDate":"2012-01-03 02:41:53","updateDate":"2014-07-23 19:11:34","country":{"isoCode":"BE","name":"BELGIUM","displayName":"Belgium","isoThree":"BEL","numberCode":56,"createDate":"2012-01-03 02:41:33"}}]}]