[{"id":"xMLyOI","name":"Main Brewery","streetAddress":"East Green","locality":"Southwold","region":"Suffolk","postalCode":"IP18 6JW","phone":"44-(01502)-727200","website":"http://www.adnams.co.uk/","latitude":52.327314,"longitude":1.680109,"isPrimary":"Y","inPlanning":"N","isClosed":"N","openToPublic":"Y","locationType":"micro","locationTypeDisplay":"Micro Brewery","countryIsoCode":"GB","yearOpened":"1872","status":"verified","statusDisplay":"Verified","createDate":"2012-01-03 02:41:43","updateDate":"2014-07-23 19:11:34","country":{"isoCode":"GB","name":"UNITED KINGDOM","displayName":"United Kingdom","isoThree":"GBR","numberCode":826,"createDate":"2012-01-03 02:41:33"}},{"id":"0CdYN3","name":"Main Brewery","streetAddress":"Brauereistrasse 1","locality":"Colbitz","region":"Saxony-Anhalt","postalCode":"39326","latitude":52.316857,"longitude":11.609866,"isPrimary":"Y","inPlanning":"N","isClosed":"N","openToPublic":"Y","locationType":"micro","locationTypeDisplay":"Micro Brewery","countryIsoCode":"DE","status":"verified","statusDisplay":"Verified","createDate":"2012-08-12 23:46:55","updateDate":"2014-07-23 19:11:34","country":{"isoCode":"DE","name":"GERMANY","displayName":"Germany","isoThree":"DEU","numberCode":276,"createDate":"2012-01-03 02:41:33"}},{"id":"I6NBN9","name":"Main Brewery","streetAddress":"Auerhahnring 1","locality":"Wernigerode","postalCode":"38855","phone":"49-(0)3943-/-9360","latitude":51.845715,"longitude":10.755037,"isPrimary":"Y","inPlanning":"N","isClosed":"N","openToPublic":"Y","locationType":"micro","locationTypeDisplay":"Micro Brewery","countryIsoCode":"DE","status":"verified","statusDisplay":"Verified","createDate":"2012-08-16 13:07:07","updateDate":"2014-07-23 19:11:34","country":{"isoCode":"DE","name":"GERMANY","displayName":"Germany","isoThree":"DEU","numberCode":276,"createDate":"2012-01-03 02:41:33"}},{"id":"e1d6ev","name":"Eurolink, Ltd.","streetAddress":"23534 Califa Street","locality":"Woodland Hills","region":"California","postalCode":"91367","phone":"818-992-5622","website":"http://www.novopackepivo.cz","latitude":34.176834,"longitude":-118.6398,"isPrimary":"N","inPlanning":"N","isClosed":"N","openToPublic":"N","locationType":"office","locationTypeDisplay":"Office","countryIsoCode":"US","status":"verified","statusDisplay":"Verified","createDate":"2014-10-06 18:26:42","updateDate":"2014-10-06 18:26:42","country":{"isoCode":"US","name":"UNITED STATES","displayName":"United States","isoThree":"USA","numberCode":840,"createDate":"2012-01-03 02:41:33"}},{"id":"GLLuoM","name":"Main Brewery - Pivovarska 400","streetAddress":"509 01","locality":"Nova Paka","website":"http://www.novopackepivo.cz/","latitude":50.494493,"longitude":15.5150382,"isPrimary":"Y","inPlanning":"N","isClosed":"N","openToPublic":"Y","locationType":"macro","locationTypeDisplay":"Macro Brewery","countryIsoCode":"CZ","status":"verified","statusDisplay":"Verified","createDate":"2014-10-06 18:46:34","updateDate":"2014-10-06 19:07:24","country":{"isoCode":"CZ","name":"CZECH REPUBLIC","displayName":"Czech Republic","isoThree":"CZE","numberCode":203,"createDate":"2012-01-03 02:41:33"}},{"id":"JmrPJ7","name":"Main Brewery","streetAddress":"Emil-Ott-Strasse 1-5","locality":"Kelheim","postalCode":"93309","phone":"0 94 41 / 7 05 - 0","website":"http://www.schneider-weisse.de","latitude":48.91755,"longitude":11.87451,"isPrimary":"Y","inPlanning":"N","isClosed":"N","openToPublic":"Y","locationType":"micro","locationTypeDisplay":"Micro Brewery","countryIsoCode":"DE","status":"verified","statusDisplay":"Verified","createDate":"2012-01-03 02:42:06","updateDate":"2014-07-23 19:11:34","country":{"isoCode":"DE","name":"GERMANY","displayName":"Germany","isoThree":"DEU","numberCode":276,"createDate":"2012-01-03 02:41:33"}},{"id":"JjWBil","name":"Main Brewery","streetAddress":"Lindenstra√üe 60","locality":"Greiz","postalCode":"07973","latitude":50.65424,"longitude":12.20062,"isPrimary":"Y","inPlanning":"N","isClosed":"N","openToPublic":"Y","locationType":"micro","locationTypeDisplay":"Micro Brewery","countryIsoCode":"DE","status":"verified","statusDisplay":"Verified","createDate":"2012-08-16 15:17:38","updateDate":"2014-07-23 19:11:34","country":{"isoCode":"DE","name":"GERMANY","displayName":"Germany","isoThree":"DEU","numberCode":276,"createDate":"2012-01-03 02:41:33"}}]