[{"id":"BNrdtP","name":"Main Brewery","streetAddress":"Zwickauer Stra√üe 478","locality":"Chemnitz","region":"Saxony","postalCode":"09117","latitude":50.814198,"longitude":12.835512,"isPrimary":"Y","inPlanning":"N","isClosed":"N","openToPublic":"Y","locationType":"micro","locationTypeDisplay":"Micro Brewery","countryIsoCode":"DE","status":"verified","statusDisplay":"Verified","createDate":"2012-08-13 00:08:21","updateDate":"2014-07-23 19:11:34","country":{"isoCode":"DE","name":"GERMANY","displayName":"Germany","isoThree":"DEU","numberCode":276,"createDate":"2012-01-03 02:41:33"}},{"id":"czEE4b","name":"Main Brewery","streetAddress":"219 Red River Avenue North","locality":"Cold Spring","region":"Minnesota","postalCode":"56320","phone":"320-685-8686","website":"http://www.coldspringbrewery.com/","latitude":45.4582465,"longitude":-94.4290551,"isPrimary":"Y","inPlanning":"N","isClosed":"N","openToPublic":"Y","locationType":"micro","locationTypeDisplay":"Micro Brewery","countryIsoCode":"US","status":"verified","statusDisplay":"Verified","createDate":"2012-01-03 02:41:51","updateDate":"2014-07-23 19:11:34","country":{"isoCode":"US","name":"UNITED STATES","displayName":"United States","isoThree":"USA","numberCode":840,"createDate":"2012-01-03 02:41:33"}}]