[{"id":"6N29O6","name":"Main Brewery","streetAddress":"Brewery Road","locality":"Wolverhampton","region":"West Midlands","postalCode":"WV14JT","phone":"01902 329653","website":"http://www.banksbeer.co.uk/","hoursOfOperation":"Mon-Fri 10.00am-5.00pm\r\nSat 9.30am-12noon","latitude":52.58521,"longitude":-2.136549,"isPrimary":"Y","inPlanning":"N","isClosed":"N","openToPublic":"Y","locationType":"micro","locationTypeDisplay":"Micro Brewery","countryIsoCode":"GB","status":"verified","statusDisplay":"Verified","createDate":"2012-07-12 13:24:04","updateDate":"2014-07-23 19:11:34","country":{"isoCode":"GB","name":"UNITED KINGDOM","displayName":"United Kingdom","isoThree":"GBR","numberCode":826,"createDate":"2012-01-03 02:41:33"}},{"id":"BhBdRA","name":"Main Brewery","streetAddress":"Karlstraße 66","region":"Gaildorf","postalCode":"74405","phone":"07971 62 50","latitude":49.000815,"longitude":9.76995,"isPrimary":"Y","inPlanning":"N","isClosed":"N","openToPublic":"Y","locationType":"micro","locationTypeDisplay":"Micro Brewery","countryIsoCode":"DE","status":"verified","statusDisplay":"Verified","createDate":"2012-08-16 11:59:38","updateDate":"2014-07-23 19:11:34","country":{"isoCode":"DE","name":"GERMANY","displayName":"Germany","isoThree":"DEU","numberCode":276,"createDate":"2012-01-03 02:41:33"}},{"id":"j7TQXl","name":"Main Brewery","streetAddress":"Steigerstraße 20","locality":"Dortmund","region":"Nordrhein-Westfalen","postalCode":"D-44145","latitude":51.52641,"longitude":7.46402,"isPrimary":"N","inPlanning":"N","isClosed":"N","openToPublic":"Y","locationType":"micro","locationTypeDisplay":"Micro Brewery","countryIsoCode":"DE","status":"verified","statusDisplay":"Verified","createDate":"2012-08-12 14:47:24","updateDate":"2014-07-23 19:11:34","country":{"isoCode":"DE","name":"GERMANY","displayName":"Germany","isoThree":"DEU","numberCode":276,"createDate":"2012-01-03 02:41:33"}},{"id":"fHOraf","name":"Main Brewery","streetAddress":"Fuldaer Straße 6","locality":"Kaltennordheim","region":"Thuringia","postalCode":"36452","latitude":50.653592,"longitude":10.141879,"isPrimary":"Y","inPlanning":"N","isClosed":"N","openToPublic":"Y","locationType":"micro","locationTypeDisplay":"Micro Brewery","countryIsoCode":"DE","status":"verified","statusDisplay":"Verified","createDate":"2012-08-16 14:56:43","updateDate":"2014-07-23 19:11:34","country":{"isoCode":"DE","name":"GERMANY","displayName":"Germany","isoThree":"DEU","numberCode":276,"createDate":"2012-01-03 02:41:33"}}]