[{"id":"RNHfY1","name":"Main Brewery","streetAddress":"Chemin du Croly 52","locality":"Quenast","region":"Brabant Wallon","phone":"32-067-67-07-66","latitude":50.67427,"longitude":4.1523972,"isPrimary":"Y","inPlanning":"N","isClosed":"N","openToPublic":"Y","locationType":"micro","locationTypeDisplay":"Micro Brewery","countryIsoCode":"BE","status":"verified","statusDisplay":"Verified","createDate":"2012-01-03 02:41:47","updateDate":"2014-07-23 19:11:34","country":{"isoCode":"BE","name":"BELGIUM","displayName":"Belgium","isoThree":"BEL","numberCode":56,"createDate":"2012-01-03 02:41:33"}},{"id":"JQCCB0","name":"Main Brewery","streetAddress":"Grünsfelder Straße 3","locality":"Tauberbischofsheim","postalCode":"97941","latitude":49.623524,"longitude":9.665531,"isPrimary":"Y","inPlanning":"N","isClosed":"N","openToPublic":"Y","locationType":"micro","locationTypeDisplay":"Micro Brewery","countryIsoCode":"DE","status":"verified","statusDisplay":"Verified","createDate":"2012-08-16 12:30:33","updateDate":"2014-07-23 19:11:34","country":{"isoCode":"DE","name":"GERMANY","displayName":"Germany","isoThree":"DEU","numberCode":276,"createDate":"2012-01-03 02:41:33"}},{"id":"ZC15x9","name":"Main Brewery","streetAddress":"Lida st. Mickiewicz, 32, Republic Belarus","locality":"Mickiewicz","postalCode":"32","phone":"375 154 52-52-38","website":"http://lidskoe.by/","latitude":53.711056,"longitude":27.97375,"isPrimary":"Y","inPlanning":"N","isClosed":"N","openToPublic":"Y","locationType":"micro","locationTypeDisplay":"Micro Brewery","countryIsoCode":"BY","yearOpened":"1876","status":"verified","statusDisplay":"Verified","createDate":"2012-01-03 02:42:00","updateDate":"2014-07-23 19:11:34","country":{"isoCode":"BY","name":"BELARUS","displayName":"Belarus","isoThree":"BLR","numberCode":112,"createDate":"2012-01-03 02:41:33"}},{"id":"CXQkP9","name":"Chuo","streetAddress":"10-1 Ginza 7-chome, Chuo-ku","locality":"Tokyo","region":"Kanto","phone":"81-(03)-3572-6111","latitude":35.668455,"longitude":139.763405,"isPrimary":"Y","inPlanning":"N","isClosed":"N","openToPublic":"N","locationType":"micro","locationTypeDisplay":"Micro Brewery","countryIsoCode":"JP","status":"verified","statusDisplay":"Verified","createDate":"2012-01-03 02:42:15","updateDate":"2014-07-23 19:11:34","country":{"isoCode":"JP","name":"JAPAN","displayName":"Japan","isoThree":"JPN","numberCode":392,"createDate":"2012-01-03 02:41:33"}}]