[{"id":"PJQCCB","name":"Main Brewery","streetAddress":"Marktplatz 1","locality":"Alpirsbach","region":"Baden-Wrttemberg","phone":"49-(0)7444-/-67-0","website":"http://www.alpirsbacher.de/","latitude":48.34566,"longitude":8.40305,"isPrimary":"Y","inPlanning":"N","isClosed":"N","openToPublic":"Y","locationType":"micro","locationTypeDisplay":"Micro Brewery","countryIsoCode":"DE","yearOpened":"1877","status":"verified","statusDisplay":"Verified","createDate":"2012-01-03 02:41:44","updateDate":"2014-07-23 19:11:34","country":{"isoCode":"DE","name":"GERMANY","displayName":"Germany","isoThree":"DEU","numberCode":276,"createDate":"2012-01-03 02:41:33"}},{"id":"MFljs0","name":"Main Brewery","streetAddress":"Jahnstraße 10","locality":"Pforzheim","region":"Baden-Württemberg","postalCode":"D-75173","latitude":48.761009,"longitude":8.23147,"isPrimary":"N","inPlanning":"N","isClosed":"N","openToPublic":"Y","locationType":"micro","locationTypeDisplay":"Micro Brewery","countryIsoCode":"DE","status":"verified","statusDisplay":"Verified","createDate":"2012-08-12 14:47:45","updateDate":"2014-07-23 19:11:34","country":{"isoCode":"DE","name":"GERMANY","displayName":"Germany","isoThree":"DEU","numberCode":276,"createDate":"2012-01-03 02:41:33"}},{"id":"vjv0KR","name":"Main Brewery","streetAddress":"Sutelstraße 5","locality":"Hanover","postalCode":"30659","latitude":52.419822,"longitude":9.798216,"isPrimary":"Y","inPlanning":"N","isClosed":"N","openToPublic":"Y","locationType":"micro","locationTypeDisplay":"Micro Brewery","countryIsoCode":"DE","status":"verified","statusDisplay":"Verified","createDate":"2012-08-16 12:31:08","updateDate":"2014-07-23 19:11:34","country":{"isoCode":"DE","name":"GERMANY","displayName":"Germany","isoThree":"DEU","numberCode":276,"createDate":"2012-01-03 02:41:33"}},{"id":"b0bpdL","name":"Main Brewery","streetAddress":"Eisenbeissstraße 1","locality":"Lübz","postalCode":"19386","latitude":53.461838,"longitude":12.019509,"isPrimary":"Y","inPlanning":"N","isClosed":"N","openToPublic":"Y","locationType":"micro","locationTypeDisplay":"Micro Brewery","countryIsoCode":"DE","status":"verified","statusDisplay":"Verified","createDate":"2012-08-16 14:09:29","updateDate":"2014-07-23 19:11:34","country":{"isoCode":"DE","name":"GERMANY","displayName":"Germany","isoThree":"DEU","numberCode":276,"createDate":"2012-01-03 02:41:33"}},{"id":"aZtMd7","name":"Main Brewery","streetAddress":"Braugasse 5","locality":"Hagen-Dahl","region":"North Rhine-Westphalia","postalCode":"58091","latitude":51.303634,"longitude":7.531274,"isPrimary":"N","inPlanning":"N","isClosed":"N","openToPublic":"Y","locationType":"micro","locationTypeDisplay":"Micro Brewery","countryIsoCode":"DE","status":"verified","statusDisplay":"Verified","createDate":"2012-08-12 14:46:51","updateDate":"2014-07-23 19:11:34","country":{"isoCode":"DE","name":"GERMANY","displayName":"Germany","isoThree":"DEU","numberCode":276,"createDate":"2012-01-03 02:41:33"}}]