[{"id":"rBxNNF","name":"Main Brewery","streetAddress":"Münchner Straße 21","locality":"Aying","postalCode":"85653","phone":"49-(0)8095-/-9065-0","website":"http://en.ayinger-bier.de/","latitude":47.970655,"longitude":11.779446,"isPrimary":"Y","inPlanning":"N","isClosed":"N","openToPublic":"Y","locationType":"micro","locationTypeDisplay":"Micro Brewery","countryIsoCode":"DE","status":"verified","statusDisplay":"Verified","createDate":"2012-01-03 02:41:48","updateDate":"2014-07-23 19:11:34","country":{"isoCode":"DE","name":"GERMANY","displayName":"Germany","isoThree":"DEU","numberCode":276,"createDate":"2012-01-03 02:41:33"}},{"id":"XQzpOM","name":"Main Brewery","streetAddress":"Von-Speth-Str. 19","locality":"Zwiefaltendorf","region":"Baden-Württemberg","postalCode":"88499","latitude":48.215107,"longitude":9.516896,"isPrimary":"N","inPlanning":"N","isClosed":"N","openToPublic":"Y","locationType":"micro","locationTypeDisplay":"Micro Brewery","countryIsoCode":"DE","status":"verified","statusDisplay":"Verified","createDate":"2012-08-12 14:47:51","updateDate":"2014-07-23 19:11:34","country":{"isoCode":"DE","name":"GERMANY","displayName":"Germany","isoThree":"DEU","numberCode":276,"createDate":"2012-01-03 02:41:33"}},{"id":"rpJOkW","name":"Main Brewery","streetAddress":"11 Finchley Street","locality":"Milton Brisbane","region":"Queensland","postalCode":"4064","phone":"+61 7 3361 7597","website":"http://www.xxxx.com.au/","hoursOfOperation":"Mon:  10:00am - 6:30pm\nTue:  10:00am - 6:30pm\nWed:  10:00am - 9:30pm\nThu:  10:00am - 6:30pm\nFri:  10:00am - 6:30pm\nSat:  10:00am - 4:30pm\nSun:  10:00am - 3:30pm\n\nMon - Tue: 10:00 am - 6:30 pm\r\nWed: 10:00 am - 9:30 pm\r\nThu - Fri: 10:00 am - 6:30 pm\r\nSat: 10:00 am - 4:30 pm\r\nSun: 10:00 am - 3:30 pm","latitude":-27.465653,"longitude":153.005228,"isPrimary":"Y","inPlanning":"N","isClosed":"N","openToPublic":"Y","locationType":"micro","locationTypeDisplay":"Micro Brewery","countryIsoCode":"AU","status":"verified","statusDisplay":"Verified","createDate":"2013-05-10 17:56:58","updateDate":"2014-09-29 20:12:11","country":{"isoCode":"AU","name":"AUSTRALIA","displayName":"Australia","isoThree":"AUS","numberCode":36,"createDate":"2012-01-03 02:41:33"}},{"id":"CalxzV","name":"Main Brewery","streetAddress":"445 Saint Paul Street","locality":"Rochester","region":"New York","postalCode":"14605","phone":"585-546-1030","website":"http://www.geneseebeer.com/","latitude":43.164588,"longitude":-77.615456,"isPrimary":"Y","inPlanning":"N","isClosed":"N","openToPublic":"Y","locationType":"micro","locationTypeDisplay":"Micro Brewery","countryIsoCode":"US","yearOpened":"1878","status":"verified","statusDisplay":"Verified","createDate":"2012-01-03 02:41:55","updateDate":"2014-07-23 19:11:34","country":{"isoCode":"US","name":"UNITED STATES","displayName":"United States","isoThree":"USA","numberCode":840,"createDate":"2012-01-03 02:41:33"}},{"id":"VOKB4z","name":"Brew House","streetAddress":"25 Cataract St.","locality":"Rochester","region":"New York","postalCode":"14605","phone":"585-263-9200","website":"http://www.geneseebeer.com/brew-house","hoursOfOperation":"Mon-Wed\r\n11am - 9pm\r\nThurs-Sat\r\n11am - 10pm\r\nSunday\r\nNoon - 9pm","latitude":43.163566,"longitude":-77.614944,"isPrimary":"N","inPlanning":"N","isClosed":"N","openToPublic":"Y","locationType":"brewpub","locationTypeDisplay":"Brewpub","countryIsoCode":"US","yearOpened":"2013","status":"verified","statusDisplay":"Verified","createDate":"2013-08-09 23:43:47","updateDate":"2014-07-23 19:11:34","country":{"isoCode":"US","name":"UNITED STATES","displayName":"United States","isoThree":"USA","numberCode":840,"createDate":"2012-01-03 02:41:33"}},{"id":"6nkcOK","name":"Main Brewery","streetAddress":"Doberaner Str. 27","locality":"Rostock","region":"Mecklenburg-Vorpommern","postalCode":"18057","latitude":54.08965,"longitude":12.119518,"isPrimary":"N","inPlanning":"N","isClosed":"N","openToPublic":"Y","locationType":"micro","locationTypeDisplay":"Micro Brewery","countryIsoCode":"DE","status":"verified","statusDisplay":"Verified","createDate":"2012-08-12 14:47:23","updateDate":"2014-07-23 19:11:34","country":{"isoCode":"DE","name":"GERMANY","displayName":"Germany","isoThree":"DEU","numberCode":276,"createDate":"2012-01-03 02:41:33"}},{"id":"AlDent","name":"Main Brewery","streetAddress":"Gebrüder-Uekermann-Straße 1","locality":"Hiddenhausen","region":"Nordrhein-Westfalen","postalCode":"D-32120","latitude":52.166078,"longitude":8.61374,"isPrimary":"N","inPlanning":"N","isClosed":"N","openToPublic":"Y","locationType":"micro","locationTypeDisplay":"Micro Brewery","countryIsoCode":"DE","status":"verified","statusDisplay":"Verified","createDate":"2012-08-12 14:46:44","updateDate":"2014-07-23 19:11:34","country":{"isoCode":"DE","name":"GERMANY","displayName":"Germany","isoThree":"DEU","numberCode":276,"createDate":"2012-01-03 02:41:33"}},{"id":"nhaS2q","name":"Main Brewery","streetAddress":"Karlsbergstraße 62","locality":"Homburg","region":"Saarland","postalCode":"66424","latitude":49.319652,"longitude":7.334932,"isPrimary":"Y","inPlanning":"N","isClosed":"N","openToPublic":"Y","locationType":"micro","locationTypeDisplay":"Micro Brewery","countryIsoCode":"DE","status":"verified","statusDisplay":"Verified","createDate":"2012-08-13 00:15:40","updateDate":"2014-07-23 19:11:34","country":{"isoCode":"DE","name":"GERMANY","displayName":"Germany","isoThree":"DEU","numberCode":276,"createDate":"2012-01-03 02:41:33"}},{"id":"8nYps3","name":"Main Brewery","streetAddress":"P.O. Box 16","locality":"Iisalmi","postalCode":"74101","phone":"358 290 00 1050","website":"http://www.olvi.fi/","latitude":63.55664,"longitude":27.19146,"isPrimary":"Y","inPlanning":"N","isClosed":"N","openToPublic":"Y","locationType":"micro","locationTypeDisplay":"Micro Brewery","countryIsoCode":"FI","yearOpened":"1878","status":"verified","statusDisplay":"Verified","createDate":"2012-01-03 02:42:04","updateDate":"2014-07-23 19:11:34","country":{"isoCode":"FI","name":"FINLAND","displayName":"Finland","isoThree":"FIN","numberCode":246,"createDate":"2012-01-03 02:41:33"}},{"id":"C0Vcyv","name":"Main Brewery","streetAddress":"Scharnhorststr. 21-25","locality":"Bochum","postalCode":"44787","latitude":51.480585,"longitude":7.228639,"isPrimary":"Y","inPlanning":"N","isClosed":"N","openToPublic":"Y","locationType":"micro","locationTypeDisplay":"Micro Brewery","countryIsoCode":"DE","status":"verified","statusDisplay":"Verified","createDate":"2012-08-16 14:40:06","updateDate":"2014-07-23 19:11:34","country":{"isoCode":"DE","name":"GERMANY","displayName":"Germany","isoThree":"DEU","numberCode":276,"createDate":"2012-01-03 02:41:33"}},{"id":"s9pDKk","name":"H Weston & Sons Ltd","streetAddress":"The Bounds Much Marcle","locality":"Ledbury","region":"Herefordshire","postalCode":"HR82NQ","phone":"4401531660233","latitude":51.992504,"longitude":-2.51915,"isPrimary":"Y","inPlanning":"Y","isClosed":"N","openToPublic":"Y","locationType":"cidery","locationTypeDisplay":"Cidery","countryIsoCode":"GB","status":"verified","statusDisplay":"Verified","createDate":"2014-10-09 18:35:57","updateDate":"2014-10-09 18:36:39","country":{"isoCode":"GB","name":"UNITED KINGDOM","displayName":"United Kingdom","isoThree":"GBR","numberCode":826,"createDate":"2012-01-03 02:41:33"}}]