[{"id":"QpslN5","name":"Main Brewery","streetAddress":"Alte Marburger Stra√üe 4","locality":"Herborn","region":"Hesse","postalCode":"35745","latitude":50.689071,"longitude":8.308133,"isPrimary":"Y","inPlanning":"N","isClosed":"N","openToPublic":"Y","locationType":"micro","locationTypeDisplay":"Micro Brewery","countryIsoCode":"DE","status":"verified","statusDisplay":"Verified","createDate":"2012-08-13 01:39:58","updateDate":"2014-07-23 19:11:34","country":{"isoCode":"DE","name":"GERMANY","displayName":"Germany","isoThree":"DEU","numberCode":276,"createDate":"2012-01-03 02:41:33"}},{"id":"y9xu3g","name":"Brauerei Spalt","streetAddress":"Brauereigasse 3","locality":"Spalt","postalCode":"91174","phone":"+49 9175 7961-0","website":"http://www.spalter-bier.de/","latitude":49.17434,"longitude":10.92523,"isPrimary":"Y","inPlanning":"N","isClosed":"N","openToPublic":"Y","locationType":"micro","locationTypeDisplay":"Micro Brewery","countryIsoCode":"DE","status":"verified","statusDisplay":"Verified","createDate":"2013-08-30 08:38:25","updateDate":"2014-07-23 19:11:34","country":{"isoCode":"DE","name":"GERMANY","displayName":"Germany","isoThree":"DEU","numberCode":276,"createDate":"2012-01-03 02:41:33"}}]