[{"id":"VvFIVD","name":"Main Brewery","streetAddress":"Brauereiweg 1","locality":"Ilmtal","postalCode":"99326","latitude":50.724601,"longitude":11.057985,"isPrimary":"Y","inPlanning":"N","isClosed":"N","openToPublic":"Y","locationType":"micro","locationTypeDisplay":"Micro Brewery","countryIsoCode":"DE","status":"verified","statusDisplay":"Verified","createDate":"2012-08-16 12:07:50","updateDate":"2014-07-23 19:11:34","country":{"isoCode":"DE","name":"GERMANY","displayName":"Germany","isoThree":"DEU","numberCode":276,"createDate":"2012-01-03 02:41:33"}},{"id":"Z48pjy","name":"Main Brewery","streetAddress":"Einsiedler Hauptstraße 144","locality":"Chemnitz-Einsiedel","region":"Saxony","postalCode":"09123","latitude":50.76119,"longitude":12.91191,"isPrimary":"Y","inPlanning":"N","isClosed":"N","openToPublic":"Y","locationType":"micro","locationTypeDisplay":"Micro Brewery","countryIsoCode":"DE","status":"verified","statusDisplay":"Verified","createDate":"2012-08-13 00:05:07","updateDate":"2014-07-23 19:11:34","country":{"isoCode":"DE","name":"GERMANY","displayName":"Germany","isoThree":"DEU","numberCode":276,"createDate":"2012-01-03 02:41:33"}},{"id":"I9iOxV","name":"Main Brewery","streetAddress":"2423 Amber St","locality":"Philadelphia","region":"Pennsylvania","postalCode":"19125","phone":"215-427-BREW (2739)","website":"http://philadelphiabrewing.com/index.htm","latitude":39.982733,"longitude":-75.127469,"isPrimary":"Y","inPlanning":"N","isClosed":"N","openToPublic":"Y","locationType":"micro","locationTypeDisplay":"Micro Brewery","countryIsoCode":"US","status":"verified","statusDisplay":"Verified","createDate":"2012-01-03 02:42:05","updateDate":"2014-07-23 19:11:34","country":{"isoCode":"US","name":"UNITED STATES","displayName":"United States","isoThree":"USA","numberCode":840,"createDate":"2012-01-03 02:41:33"}},{"id":"SyHHLk","name":"Main Brewery","streetAddress":"Ortsstraße 1","locality":"Hundersingen","region":"Baden-Württemberg","postalCode":"88518","latitude":31.76301,"longitude":-106.4856,"isPrimary":"Y","inPlanning":"N","isClosed":"N","openToPublic":"Y","locationType":"micro","locationTypeDisplay":"Micro Brewery","countryIsoCode":"DE","status":"verified","statusDisplay":"Verified","createDate":"2012-08-13 11:25:18","updateDate":"2014-07-23 19:11:34","country":{"isoCode":"DE","name":"GERMANY","displayName":"Germany","isoThree":"DEU","numberCode":276,"createDate":"2012-01-03 02:41:33"}}]