[{"id":"bM5Diz","name":"Main Brewery","streetAddress":"3ra.Av.Norte Final, Finca El Zapote, Zona 2","locality":"Guatemala City","phone":"502-288-1555-/-289-1","latitude":14.62227,"longitude":-90.517094,"isPrimary":"Y","inPlanning":"N","isClosed":"N","openToPublic":"Y","locationType":"micro","locationTypeDisplay":"Micro Brewery","countryIsoCode":"GT","status":"verified","statusDisplay":"Verified","createDate":"2012-01-03 02:41:50","updateDate":"2014-07-23 19:11:34","country":{"isoCode":"GT","name":"GUATEMALA","displayName":"Guatemala","isoThree":"GTM","numberCode":320,"createDate":"2012-01-03 02:41:33"}},{"id":"Ee9ead","name":"Main Brewery","streetAddress":"Hauptstra√üe 66","locality":"Steinach","postalCode":"77790","latitude":48.305086,"longitude":8.058292,"isPrimary":"Y","inPlanning":"N","isClosed":"N","openToPublic":"Y","locationType":"micro","locationTypeDisplay":"Micro Brewery","countryIsoCode":"DE","status":"verified","statusDisplay":"Verified","createDate":"2012-08-16 13:34:33","updateDate":"2014-07-23 19:11:34","country":{"isoCode":"DE","name":"GERMANY","displayName":"Germany","isoThree":"DEU","numberCode":276,"createDate":"2012-01-03 02:41:33"}},{"id":"qVyAhN","name":"Main Brewery","streetAddress":"Franz-Brombach-Strae 1-20","locality":"Erding","region":"Bayern","phone":"49-(0)8122-/-4090","latitude":48.31532,"longitude":11.89111,"isPrimary":"Y","inPlanning":"N","isClosed":"N","openToPublic":"Y","locationType":"micro","locationTypeDisplay":"Micro Brewery","countryIsoCode":"DE","status":"verified","statusDisplay":"Verified","createDate":"2012-01-03 02:42:06","updateDate":"2014-07-23 19:11:34","country":{"isoCode":"DE","name":"GERMANY","displayName":"Germany","isoThree":"DEU","numberCode":276,"createDate":"2012-01-03 02:41:33"}}]