[{"id":"nUwtfn","name":"Main Brewery","streetAddress":"Hoogstraat 2A","locality":"Beersel","region":"Vlaams Brabant","phone":"32-02-/-306-71-03","website":"http://www.3fonteinen.be/index.htm","latitude":50.7666391,"longitude":4.3083771,"isPrimary":"Y","inPlanning":"N","isClosed":"N","openToPublic":"Y","locationType":"micro","locationTypeDisplay":"Micro Brewery","countryIsoCode":"BE","status":"verified","statusDisplay":"Verified","createDate":"2012-01-03 02:41:43","updateDate":"2014-07-23 19:11:34","country":{"isoCode":"BE","name":"BELGIUM","displayName":"Belgium","isoThree":"BEL","numberCode":56,"createDate":"2012-01-03 02:41:33"}},{"id":"kU9sBG","name":"Main Brewery","streetAddress":"3122 W. Woodfield Drive","locality":"Mequon","region":"Wisconsin","postalCode":"53092","phone":"(262) 238-1236","website":"http://berghoffbrewery.com/","latitude":43.241017,"longitude":-87.946315,"isPrimary":"Y","inPlanning":"N","isClosed":"N","openToPublic":"Y","locationType":"micro","locationTypeDisplay":"Micro Brewery","countryIsoCode":"US","status":"verified","statusDisplay":"Verified","createDate":"2012-11-16 18:24:44","updateDate":"2014-07-23 19:11:34","country":{"isoCode":"US","name":"UNITED STATES","displayName":"United States","isoThree":"USA","numberCode":840,"createDate":"2012-01-03 02:41:33"}},{"id":"6UQcqZ","name":"Main Brewery","streetAddress":"Bahnhofstraße 11","locality":"Großröhrsdorf","region":"Saxony","postalCode":"01900","latitude":51.14508,"longitude":14.02988,"isPrimary":"N","inPlanning":"N","isClosed":"N","openToPublic":"Y","locationType":"micro","locationTypeDisplay":"Micro Brewery","countryIsoCode":"DE","status":"verified","statusDisplay":"Verified","createDate":"2012-08-12 14:46:28","updateDate":"2014-07-23 19:11:34","country":{"isoCode":"DE","name":"GERMANY","displayName":"Germany","isoThree":"DEU","numberCode":276,"createDate":"2012-01-03 02:41:33"}},{"id":"OXi7r1","name":"Main Brewery","streetAddress":"Plough Lane","locality":"Hereford","postalCode":"HR4 0LE","phone":"01432 352000","website":"http://www.bulmers.com/","latitude":52.059034,"longitude":-2.728501,"isPrimary":"Y","inPlanning":"N","isClosed":"N","openToPublic":"Y","locationType":"micro","locationTypeDisplay":"Micro Brewery","countryIsoCode":"GB","yearOpened":"1887","status":"verified","statusDisplay":"Verified","createDate":"2012-01-03 02:41:49","updateDate":"2014-07-23 19:11:34","country":{"isoCode":"GB","name":"UNITED KINGDOM","displayName":"United Kingdom","isoThree":"GBR","numberCode":826,"createDate":"2012-01-03 02:41:33"}},{"id":"uQ5zWa","name":"Main Brewery","streetAddress":"Uhrenmachergasse 10","locality":"Ulm - Söflingen","region":"Baden-Württemberg","postalCode":"89077","latitude":36.151604,"longitude":-115.057701,"isPrimary":"Y","inPlanning":"N","isClosed":"N","openToPublic":"Y","locationType":"micro","locationTypeDisplay":"Micro Brewery","countryIsoCode":"DE","status":"verified","statusDisplay":"Verified","createDate":"2012-08-16 13:18:58","updateDate":"2014-07-23 19:11:34","country":{"isoCode":"DE","name":"GERMANY","displayName":"Germany","isoThree":"DEU","numberCode":276,"createDate":"2012-01-03 02:41:33"}},{"id":"tzNWWM","name":"Main Brewery","streetAddress":"Bahnhofstraße 15","locality":"Mittweida","region":"Sachsen","postalCode":"D-09648","latitude":51.042955,"longitude":13.017165,"isPrimary":"N","inPlanning":"N","isClosed":"Y","openToPublic":"Y","locationType":"micro","locationTypeDisplay":"Micro Brewery","countryIsoCode":"DE","status":"verified","statusDisplay":"Verified","createDate":"2012-08-12 14:46:35","updateDate":"2014-07-23 19:11:34","country":{"isoCode":"DE","name":"GERMANY","displayName":"Germany","isoThree":"DEU","numberCode":276,"createDate":"2012-01-03 02:41:33"}},{"id":"zGfZjm","name":"Main Brewery","streetAddress":"Topfmarkt 14 Apolda","region":"Thüringen","postalCode":"99510","phone":"(3644) 84840","website":"http://www.vereinsbrauerei-apolda.de/","latitude":51.022251,"longitude":11.512385,"isPrimary":"N","inPlanning":"N","isClosed":"N","openToPublic":"Y","locationType":"micro","locationTypeDisplay":"Micro Brewery","countryIsoCode":"DE","status":"verified","statusDisplay":"Verified","createDate":"2012-08-12 14:45:42","updateDate":"2014-07-23 19:11:34","country":{"isoCode":"DE","name":"GERMANY","displayName":"Germany","isoThree":"DEU","numberCode":276,"createDate":"2012-01-03 02:41:33"}}]