[{"id":"8okeuW","name":"Main Brewery","streetAddress":"Schillerstraße 7","locality":"Erfurt","region":"Thüringen","postalCode":"99096","latitude":50.969231,"longitude":11.03457,"isPrimary":"N","inPlanning":"N","isClosed":"N","openToPublic":"Y","locationType":"micro","locationTypeDisplay":"Micro Brewery","countryIsoCode":"DE","status":"verified","statusDisplay":"Verified","createDate":"2012-08-12 14:39:53","updateDate":"2014-07-23 19:11:34","country":{"isoCode":"DE","name":"GERMANY","displayName":"Germany","isoThree":"DEU","numberCode":276,"createDate":"2012-01-03 02:41:33"}},{"id":"7oFdeQ","name":"Main Brewery","streetAddress":"Eichener Straße 38-40 Eichen","locality":"Kreuztal","region":"Nordrhein-Westfalen","postalCode":"D-57223","latitude":50.974998,"longitude":7.976071,"isPrimary":"N","inPlanning":"N","isClosed":"N","openToPublic":"Y","locationType":"micro","locationTypeDisplay":"Micro Brewery","countryIsoCode":"DE","status":"verified","statusDisplay":"Verified","createDate":"2012-08-12 14:46:14","updateDate":"2014-07-23 19:11:34","country":{"isoCode":"DE","name":"GERMANY","displayName":"Germany","isoThree":"DEU","numberCode":276,"createDate":"2012-01-03 02:41:33"}},{"id":"RQ96Nf","name":"Main Brewery","streetAddress":"811 Edward Street","locality":"Utica","region":"New York","postalCode":"13502","phone":"800-690-3181-x222","website":"http://www.saranac.com/","latitude":43.104492,"longitude":-75.245249,"isPrimary":"Y","inPlanning":"N","isClosed":"N","openToPublic":"Y","locationType":"micro","locationTypeDisplay":"Micro Brewery","countryIsoCode":"US","yearOpened":"1888","status":"verified","statusDisplay":"Verified","createDate":"2012-01-03 02:41:54","updateDate":"2014-07-23 19:11:34","country":{"isoCode":"US","name":"UNITED STATES","displayName":"United States","isoThree":"USA","numberCode":840,"createDate":"2012-01-03 02:41:33"}},{"id":"8Qtcjw","name":"Main Brewery","streetAddress":"Jahnstrasse 10","locality":"Pforzheim","region":"Baden-Württemberg","postalCode":"75173","latitude":48.761009,"longitude":8.23147,"isPrimary":"N","inPlanning":"N","isClosed":"N","openToPublic":"Y","locationType":"micro","locationTypeDisplay":"Micro Brewery","countryIsoCode":"DE","status":"verified","statusDisplay":"Verified","createDate":"2012-08-12 14:48:05","updateDate":"2014-07-23 19:11:34","country":{"isoCode":"DE","name":"GERMANY","displayName":"Germany","isoThree":"DEU","numberCode":276,"createDate":"2012-01-03 02:41:33"}}]