[{"id":"lsVvbw","name":"Main Brewery","streetAddress":"St.Georgen Steige 12","region":"Pforzheim","postalCode":"75175","latitude":48.886764,"longitude":8.706501,"isPrimary":"Y","inPlanning":"N","isClosed":"N","openToPublic":"Y","locationType":"micro","locationTypeDisplay":"Micro Brewery","countryIsoCode":"DE","status":"verified","statusDisplay":"Verified","createDate":"2012-08-15 23:52:08","updateDate":"2014-07-23 19:11:34","country":{"isoCode":"DE","name":"GERMANY","displayName":"Germany","isoThree":"DEU","numberCode":276,"createDate":"2012-01-03 02:41:33"}},{"id":"itAGNX","name":"Main Brewery","streetAddress":"Regener Straße 9","locality":"Zwiesel","region":"Bavaria","postalCode":"94227","phone":"(9922) 84 66 0","website":"http://www.dampfbier.de/","latitude":49.00962,"longitude":13.22336,"isPrimary":"Y","inPlanning":"N","isClosed":"N","openToPublic":"Y","locationType":"micro","locationTypeDisplay":"Micro Brewery","countryIsoCode":"DE","yearOpened":"1889","status":"verified","statusDisplay":"Verified","createDate":"2012-01-03 02:41:52","updateDate":"2014-07-23 19:11:34","country":{"isoCode":"DE","name":"GERMANY","displayName":"Germany","isoThree":"DEU","numberCode":276,"createDate":"2012-01-03 02:41:33"}},{"id":"ChgehG","name":"Main Brewery","streetAddress":"Hirschberger Straße 1","locality":"Bad Lobenstein","region":"Thüringen","postalCode":"D-07356","latitude":50.451397,"longitude":11.643347,"isPrimary":"N","inPlanning":"N","isClosed":"Y","openToPublic":"N","locationType":"micro","locationTypeDisplay":"Micro Brewery","countryIsoCode":"DE","status":"verified","statusDisplay":"Verified","createDate":"2012-08-12 14:48:20","updateDate":"2014-07-23 19:11:34","country":{"isoCode":"DE","name":"GERMANY","displayName":"Germany","isoThree":"DEU","numberCode":276,"createDate":"2012-01-03 02:41:33"}}]