[{"id":"tpbOyx","name":"Main Brewery","streetAddress":"Rue de Panneries 17","locality":"Brunehaut","region":"Hainaut","postalCode":"7623","phone":"32-069-34-64-11","website":"http://www.brunehaut.com/","latitude":50.5111769,"longitude":3.3891665,"isPrimary":"Y","inPlanning":"N","isClosed":"N","openToPublic":"Y","locationType":"micro","locationTypeDisplay":"Micro Brewery","countryIsoCode":"BE","status":"verified","statusDisplay":"Verified","createDate":"2012-01-03 02:41:47","updateDate":"2014-07-23 19:11:34","country":{"isoCode":"BE","name":"BELGIUM","displayName":"Belgium","isoThree":"BEL","numberCode":56,"createDate":"2012-01-03 02:41:33"}},{"id":"kYguo5","name":"Main Brewery","streetAddress":"Queckgasse 17","locality":"JÃ¼chsen","postalCode":"98631","latitude":46.369545,"longitude":-124.050319,"isPrimary":"Y","inPlanning":"N","isClosed":"N","openToPublic":"Y","locationType":"micro","locationTypeDisplay":"Micro Brewery","countryIsoCode":"DE","status":"verified","statusDisplay":"Verified","createDate":"2012-08-16 12:09:40","updateDate":"2014-07-23 19:11:34","country":{"isoCode":"DE","name":"GERMANY","displayName":"Germany","isoThree":"DEU","numberCode":276,"createDate":"2012-01-03 02:41:33"}},{"id":"XtrgwT","name":"Main Brewery","locality":"Monterrey","phone":"1-800-237-8392","website":"http://www.cuamoc.com/","latitude":25.670975,"longitude":-100.309959,"isPrimary":"Y","inPlanning":"N","isClosed":"N","openToPublic":"Y","locationType":"micro","locationTypeDisplay":"Micro Brewery","countryIsoCode":"MX","yearOpened":"1890","status":"verified","statusDisplay":"Verified","createDate":"2012-01-03 02:41:50","updateDate":"2014-07-23 19:11:34","country":{"isoCode":"MX","name":"MEXICO","displayName":"Mexico","isoThree":"MEX","numberCode":484,"createDate":"2012-01-03 02:41:33"}},{"id":"CSthmK","name":"Main Brewery","streetAddress":"Tte. Gral. Juan D. Peron 667 103","region":"Buenos Aires","phone":"(11) 4321-2700","website":"http://www.quilmes.com.ar/","latitude":-34.608524,"longitude":-58.373544,"isPrimary":"Y","inPlanning":"N","isClosed":"N","openToPublic":"Y","locationType":"micro","locationTypeDisplay":"Micro Brewery","countryIsoCode":"AR","status":"verified","statusDisplay":"Verified","createDate":"2012-06-11 13:42:51","updateDate":"2014-07-23 19:11:34","country":{"isoCode":"AR","name":"ARGENTINA","displayName":"Argentina","isoThree":"ARG","numberCode":32,"createDate":"2012-01-03 02:41:33"}},{"id":"85u1P0","name":"Main Brewery","postalCode":"Madrid","website":"http://www.mahou.es/","latitude":40.4167754,"longitude":-3.7037902,"isPrimary":"Y","inPlanning":"N","isClosed":"N","openToPublic":"Y","locationType":"micro","locationTypeDisplay":"Micro Brewery","countryIsoCode":"ES","status":"verified","statusDisplay":"Verified","createDate":"2013-06-02 14:08:15","updateDate":"2014-07-23 19:11:34","country":{"isoCode":"ES","name":"SPAIN","displayName":"Spain","isoThree":"ESP","numberCode":724,"createDate":"2012-01-03 02:41:33"}},{"id":"lJDA6m","name":"Main Brewery","streetAddress":"60 Ship Street","locality":"Providence","region":"Rhode Island","postalCode":"02903","phone":"401-437-8970","website":"http://www.narragansettbeer.com/","latitude":41.8190249,"longitude":-71.4097368,"isPrimary":"Y","inPlanning":"N","isClosed":"N","openToPublic":"Y","locationType":"micro","locationTypeDisplay":"Micro Brewery","countryIsoCode":"US","yearOpened":"1890","status":"verified","statusDisplay":"Verified","createDate":"2012-01-03 02:42:03","updateDate":"2014-09-26 13:41:03","country":{"isoCode":"US","name":"UNITED STATES","displayName":"United States","isoThree":"USA","numberCode":840,"createDate":"2012-01-03 02:41:33"}},{"id":"N4LF2o","name":"Main Brewery","streetAddress":"Am Werderpark 5","locality":"Peine","region":"Niedersachsen","postalCode":"D-31224","latitude":52.320869,"longitude":10.231765,"isPrimary":"N","inPlanning":"N","isClosed":"N","openToPublic":"Y","locationType":"micro","locationTypeDisplay":"Micro Brewery","countryIsoCode":"DE","status":"verified","statusDisplay":"Verified","createDate":"2012-08-12 14:48:06","updateDate":"2014-07-23 19:11:34","country":{"isoCode":"DE","name":"GERMANY","displayName":"Germany","isoThree":"DEU","numberCode":276,"createDate":"2012-01-03 02:41:33"}},{"id":"cVAXU1","name":"Main Brewery","streetAddress":"40 San Miguel Avenue, Mandaluyong City","locality":"Metro Manila","postalCode":"1550","phone":"632-632-2000","website":"http://www.sanmiguelbeer.com.ph/","latitude":14.59566,"longitude":121.027813,"isPrimary":"Y","inPlanning":"N","isClosed":"N","openToPublic":"Y","locationType":"micro","locationTypeDisplay":"Micro Brewery","countryIsoCode":"PH","yearOpened":"1890","status":"verified","statusDisplay":"Verified","createDate":"2012-01-03 02:42:07","updateDate":"2014-07-23 19:11:34","country":{"isoCode":"PH","name":"PHILIPPINES","displayName":"Philippines","isoThree":"PHL","numberCode":608,"createDate":"2012-01-03 02:41:33"}},{"id":"81MymB","name":"Main Brewery","streetAddress":"525 Argyle Rd","locality":"Windsor","region":"Ontario","postalCode":"N8Y4Z8","phone":"519-254-6067","website":"http://www.walkervillebrewery.com/","hoursOfOperation":"Mon - Wed: 11:00 am - 6:00 pm\r\nThu - Sat: 11:00 am - 7:00 pm\r\nSun: 11:00 am - 6:00 pm","latitude":42.3237946,"longitude":-83.0113439,"isPrimary":"Y","inPlanning":"N","isClosed":"N","openToPublic":"Y","locationType":"micro","locationTypeDisplay":"Micro Brewery","countryIsoCode":"CA","yearOpened":"1890","status":"verified","statusDisplay":"Verified","createDate":"2013-09-15 19:03:38","updateDate":"2014-07-23 19:11:34","country":{"isoCode":"CA","name":"CANADA","displayName":"Canada","isoThree":"CAN","numberCode":124,"createDate":"2012-01-03 02:41:33"}}]