[{"id":"tKLtLu","name":"Main Brewery","streetAddress":"Emil-Hoffmann-Strae 4-10","locality":"Kln","region":"Nordrhein-Westfalen","phone":"49-(0)2236-/-9655-0","latitude":50.87533,"longitude":6.99444,"isPrimary":"Y","inPlanning":"N","isClosed":"N","openToPublic":"Y","locationType":"micro","locationTypeDisplay":"Micro Brewery","countryIsoCode":"DE","status":"verified","statusDisplay":"Verified","createDate":"2012-01-03 02:41:48","updateDate":"2014-07-23 19:11:34","country":{"isoCode":"DE","name":"GERMANY","displayName":"Germany","isoThree":"DEU","numberCode":276,"createDate":"2012-01-03 02:41:33"}},{"id":"YaYvu6","name":"De Brabandere","streetAddress":"Rijksweg 33","region":"Bavikhove","postalCode":"B-8531","phone":"32-56-71-13-79","website":"http://www.bavik.be/","latitude":50.86282,"longitude":3.299072,"isPrimary":"Y","inPlanning":"N","isClosed":"N","openToPublic":"N","locationType":"micro","locationTypeDisplay":"Micro Brewery","countryIsoCode":"BE","status":"verified","statusDisplay":"Verified","createDate":"2012-01-03 02:42:14","updateDate":"2014-07-23 19:11:34","country":{"isoCode":"BE","name":"BELGIUM","displayName":"Belgium","isoThree":"BEL","numberCode":56,"createDate":"2012-01-03 02:41:33"}},{"id":"Y3doTs","name":"Cologne","streetAddress":"Charlottenstraße 72","locality":"Köln","postalCode":"51149","latitude":50.904942,"longitude":7.029847,"isPrimary":"N","inPlanning":"N","isClosed":"N","openToPublic":"Y","locationType":"micro","locationTypeDisplay":"Micro Brewery","countryIsoCode":"DE","status":"verified","statusDisplay":"Verified","createDate":"2012-08-16 12:32:15","updateDate":"2014-07-23 19:11:34","country":{"isoCode":"DE","name":"GERMANY","displayName":"Germany","isoThree":"DEU","numberCode":276,"createDate":"2012-01-03 02:41:33"}},{"id":"ANMcdJ","name":"Frechen","streetAddress":"Gottlieb-Daimler-Straße 13","locality":"Frechen","postalCode":"50226","latitude":50.922393,"longitude":6.819725,"isPrimary":"Y","inPlanning":"N","isClosed":"N","openToPublic":"Y","locationType":"micro","locationTypeDisplay":"Micro Brewery","countryIsoCode":"DE","status":"verified","statusDisplay":"Verified","createDate":"2012-08-16 12:32:51","updateDate":"2014-07-23 19:11:34","country":{"isoCode":"DE","name":"GERMANY","displayName":"Germany","isoThree":"DEU","numberCode":276,"createDate":"2012-01-03 02:41:33"}},{"id":"Wjong1","name":"Main Brewery","streetAddress":"Bonfelder Str. 23","locality":"Heilbronn","postalCode":"74078","latitude":49.195368,"longitude":9.139941,"isPrimary":"Y","inPlanning":"N","isClosed":"N","openToPublic":"Y","locationType":"micro","locationTypeDisplay":"Micro Brewery","countryIsoCode":"DE","status":"verified","statusDisplay":"Verified","createDate":"2012-08-16 13:19:37","updateDate":"2014-07-23 19:11:34","country":{"isoCode":"DE","name":"GERMANY","displayName":"Germany","isoThree":"DEU","numberCode":276,"createDate":"2012-01-03 02:41:33"}}]