[{"id":"NzbBOK","name":"Main Brewery","streetAddress":"1705 Mariposa St","locality":"San Francisco","region":"California","postalCode":"94107","phone":"415-863-8350","website":"http://www.anchorbrewing.com/","hoursOfOperation":"Two tours are available each weekday by reservation only.  For tour reservations call: 415-863-8350","latitude":37.7634514,"longitude":-122.4007543,"isPrimary":"Y","inPlanning":"N","isClosed":"N","openToPublic":"Y","locationType":"micro","locationTypeDisplay":"Micro Brewery","countryIsoCode":"US","yearOpened":"1896","status":"verified","statusDisplay":"Verified","createDate":"2012-01-03 02:41:44","updateDate":"2014-09-29 20:33:27","country":{"isoCode":"US","name":"UNITED STATES","displayName":"United States","isoThree":"USA","numberCode":840,"createDate":"2012-01-03 02:41:33"}},{"id":"R1oHSN","name":"Main Brewery","streetAddress":"Sternstraße 12-14","locality":"Krefeld","region":"Nordrhein-Westfalen","postalCode":"47798","latitude":51.3339,"longitude":6.5623,"isPrimary":"N","inPlanning":"N","isClosed":"N","openToPublic":"Y","locationType":"micro","locationTypeDisplay":"Micro Brewery","countryIsoCode":"DE","status":"verified","statusDisplay":"Verified","createDate":"2012-08-12 14:47:28","updateDate":"2014-07-23 19:11:34","country":{"isoCode":"DE","name":"GERMANY","displayName":"Germany","isoThree":"DEU","numberCode":276,"createDate":"2012-01-03 02:41:33"}},{"id":"baONtD","name":"Main Brewery","streetAddress":"Waldstrasse 1","locality":"Naurath","region":"Rheinland-Pfalz","postalCode":"54340","latitude":49.808271,"longitude":6.764987,"isPrimary":"N","inPlanning":"N","isClosed":"N","openToPublic":"Y","locationType":"micro","locationTypeDisplay":"Micro Brewery","countryIsoCode":"DE","status":"verified","statusDisplay":"Verified","createDate":"2012-08-12 14:45:43","updateDate":"2014-07-23 19:11:34","country":{"isoCode":"DE","name":"GERMANY","displayName":"Germany","isoThree":"DEU","numberCode":276,"createDate":"2012-01-03 02:41:33"}},{"id":"gAVPOI","name":"Main Brewery","streetAddress":"Heidenheimer Straße 27","locality":"Söhnstetten","region":"Baden-Württemberg","postalCode":"89555","latitude":39.528486,"longitude":-119.804382,"isPrimary":"N","inPlanning":"N","isClosed":"N","openToPublic":"Y","locationType":"micro","locationTypeDisplay":"Micro Brewery","countryIsoCode":"DE","status":"verified","statusDisplay":"Verified","createDate":"2012-08-12 14:46:54","updateDate":"2014-07-29 11:29:33","country":{"isoCode":"DE","name":"GERMANY","displayName":"Germany","isoThree":"DEU","numberCode":276,"createDate":"2012-01-03 02:41:33"}}]