[{"id":"ZNSpHj","name":"Main Brewery","streetAddress":"Am Hopfengarten 5","region":"Leutkirch im Allgäu","postalCode":"88299","latitude":47.823551,"longitude":10.023662,"isPrimary":"Y","inPlanning":"N","isClosed":"N","openToPublic":"Y","locationType":"micro","locationTypeDisplay":"Micro Brewery","countryIsoCode":"DE","status":"verified","statusDisplay":"Verified","createDate":"2012-08-16 11:57:19","updateDate":"2014-07-23 19:11:34","country":{"isoCode":"DE","name":"GERMANY","displayName":"Germany","isoThree":"DEU","numberCode":276,"createDate":"2012-01-03 02:41:33"}},{"id":"mNHeUH","name":"Brauerei Gebrüder Jäcklein","isPrimary":"Y","inPlanning":"N","isClosed":"N","openToPublic":"Y","locationType":"micro","locationTypeDisplay":"Micro Brewery","countryIsoCode":"DE","yearOpened":"1897","status":"new_unverified","statusDisplay":"New, Unverified","createDate":"2014-11-21 21:33:43","updateDate":"2014-11-21 21:33:43","country":{"isoCode":"DE","name":"GERMANY","displayName":"Germany","isoThree":"DEU","numberCode":276,"createDate":"2012-01-03 02:41:33"}},{"id":"MvH9nA","name":"Main Brewery","streetAddress":"Dynamostrasse 8","region":"Baden","postalCode":"CH-5400","phone":"056 203 06 06","website":"http://www.brauerei-mueller.ch/","latitude":47.4776826,"longitude":8.3065255,"isPrimary":"Y","inPlanning":"N","isClosed":"N","openToPublic":"Y","locationType":"micro","locationTypeDisplay":"Micro Brewery","countryIsoCode":"CH","status":"verified","statusDisplay":"Verified","createDate":"2013-03-24 23:03:13","updateDate":"2014-07-23 19:11:34","country":{"isoCode":"CH","name":"SWITZERLAND","displayName":"Switzerland","isoThree":"CHE","numberCode":756,"createDate":"2012-01-03 02:41:33"}},{"id":"5TvbaT","name":"Main Brewpub","streetAddress":"Hauptstraße 15","locality":"Mannebach","region":"Rheinland-Palatinate","postalCode":"54441","latitude":44.640555,"longitude":-90.104709,"isPrimary":"N","inPlanning":"N","isClosed":"N","openToPublic":"Y","locationType":"brewpub","locationTypeDisplay":"Brewpub","countryIsoCode":"DE","status":"verified","statusDisplay":"Verified","createDate":"2012-08-12 14:47:36","updateDate":"2014-07-23 19:11:34","country":{"isoCode":"DE","name":"GERMANY","displayName":"Germany","isoThree":"DEU","numberCode":276,"createDate":"2012-01-03 02:41:33"}},{"id":"HGbr9s","name":"Main Brewery","streetAddress":"7th and Broadway","locality":"Skagway","region":"Alaska","postalCode":"99840","phone":"907-983-2739","website":"http://www.skagwaybrewing.com/","latitude":59.45648,"longitude":-135.313169,"isPrimary":"Y","inPlanning":"N","isClosed":"N","openToPublic":"Y","locationType":"brewpub","locationTypeDisplay":"Brewpub","countryIsoCode":"US","status":"verified","statusDisplay":"Verified","createDate":"2012-01-03 02:42:08","updateDate":"2014-07-23 19:11:34","country":{"isoCode":"US","name":"UNITED STATES","displayName":"United States","isoThree":"USA","numberCode":840,"createDate":"2012-01-03 02:41:33"}},{"id":"TpiDMC","name":"Main Brewery","streetAddress":"Vårby allé 39","region":"Vårby","postalCode":"143 40","phone":"08-672 77 00","website":"http://www.spendrups.se/","isPrimary":"Y","inPlanning":"N","isClosed":"N","openToPublic":"Y","locationType":"micro","locationTypeDisplay":"Micro Brewery","countryIsoCode":"SE","status":"verified","statusDisplay":"Verified","createDate":"2013-03-21 11:17:40","updateDate":"2014-07-23 19:11:34","country":{"isoCode":"SE","name":"SWEDEN","displayName":"Sweden","isoThree":"SWE","numberCode":752,"createDate":"2012-01-03 02:41:33"}}]