[{"id":"2gVSRM","name":"Main Brewery","streetAddress":"molenstraat 110","locality":"Gavere","postalCode":"9890","phone":"+32 9 384 27 06","website":"http://www.contreras.be/","latitude":50.9246056,"longitude":3.6721557,"isPrimary":"Y","inPlanning":"N","isClosed":"N","openToPublic":"Y","locationType":"micro","locationTypeDisplay":"Micro Brewery","countryIsoCode":"BE","yearOpened":"1898","status":"verified","statusDisplay":"Verified","createDate":"2012-01-03 02:41:49","updateDate":"2014-07-23 19:11:34","country":{"isoCode":"BE","name":"BELGIUM","displayName":"Belgium","isoThree":"BEL","numberCode":56,"createDate":"2012-01-03 02:41:33"}},{"id":"jfaN0S","name":"Main Brewery","streetAddress":"Provinciesteenweg 28","region":"Boortmeerbeek","postalCode":"3190","website":"http://www.haacht.com/","latitude":50.965154,"longitude":4.60969,"isPrimary":"Y","inPlanning":"N","isClosed":"N","openToPublic":"Y","locationType":"micro","locationTypeDisplay":"Micro Brewery","countryIsoCode":"BE","status":"verified","statusDisplay":"Verified","createDate":"2012-11-02 10:53:27","updateDate":"2014-07-23 19:11:34","country":{"isoCode":"BE","name":"BELGIUM","displayName":"Belgium","isoThree":"BEL","numberCode":56,"createDate":"2012-01-03 02:41:33"}},{"id":"gMQvTa","name":"Main Brewery","streetAddress":"Kötzschenbroder Straße 1","locality":"Dresden","region":"Sachsen","postalCode":"01139","latitude":51.080719,"longitude":13.68807,"isPrimary":"N","inPlanning":"N","isClosed":"N","openToPublic":"Y","locationType":"micro","locationTypeDisplay":"Micro Brewery","countryIsoCode":"DE","status":"verified","statusDisplay":"Verified","createDate":"2012-08-12 14:45:26","updateDate":"2014-07-23 19:11:34","country":{"isoCode":"DE","name":"GERMANY","displayName":"Germany","isoThree":"DEU","numberCode":276,"createDate":"2012-01-03 02:41:33"}}]