[{"id":"6v95qn","name":"Main Brewery","streetAddress":"Dahlenburger Landstraße 102","locality":"Lüneburg","postalCode":"21337","latitude":53.246189,"longitude":10.438684,"isPrimary":"Y","inPlanning":"N","isClosed":"N","openToPublic":"Y","locationType":"micro","locationTypeDisplay":"Micro Brewery","countryIsoCode":"DE","status":"verified","statusDisplay":"Verified","createDate":"2012-08-16 12:49:08","updateDate":"2014-07-23 19:11:34","country":{"isoCode":"DE","name":"GERMANY","displayName":"Germany","isoThree":"DEU","numberCode":276,"createDate":"2012-01-03 02:41:33"}},{"id":"jEru0E","name":"Main Brewery","streetAddress":"Rhinhöher Weg 1","locality":"Rheinsberg","postalCode":"16831","latitude":53.100285,"longitude":12.89132,"isPrimary":"Y","inPlanning":"N","isClosed":"N","openToPublic":"Y","locationType":"micro","locationTypeDisplay":"Micro Brewery","countryIsoCode":"DE","status":"verified","statusDisplay":"Verified","createDate":"2012-08-16 12:50:00","updateDate":"2014-07-23 19:11:34","country":{"isoCode":"DE","name":"GERMANY","displayName":"Germany","isoThree":"DEU","numberCode":276,"createDate":"2012-01-03 02:41:33"}},{"id":"enLB05","name":"Main Brewery","streetAddress":"Rúa José María Rivera Corral, 6","region":"A Coruña","postalCode":"15008","phone":"+34 981 90 19 06","website":"http://www.estrellagalicia.es","latitude":43.34079,"longitude":-8.434873,"isPrimary":"Y","inPlanning":"N","isClosed":"N","openToPublic":"Y","locationType":"micro","locationTypeDisplay":"Micro Brewery","countryIsoCode":"ES","status":"verified","statusDisplay":"Verified","createDate":"2014-05-12 12:17:09","updateDate":"2014-07-23 19:11:34","country":{"isoCode":"ES","name":"SPAIN","displayName":"Spain","isoThree":"ESP","numberCode":724,"createDate":"2012-01-03 02:41:33"}}]