[{"id":"KJIjyd","name":"Main Brewery","streetAddress":"Aegidiusstraße 56","locality":"Frechen-Hücheln","region":"Nordrhein-Westfalen","postalCode":"D-50226","latitude":50.91075,"longitude":6.8093,"isPrimary":"N","inPlanning":"N","isClosed":"N","openToPublic":"Y","locationType":"micro","locationTypeDisplay":"Micro Brewery","countryIsoCode":"DE","status":"verified","statusDisplay":"Verified","createDate":"2012-08-12 14:46:07","updateDate":"2014-07-23 19:11:34","country":{"isoCode":"DE","name":"GERMANY","displayName":"Germany","isoThree":"DEU","numberCode":276,"createDate":"2012-01-03 02:41:33"}},{"id":"zZzZHX","name":"Main Brewery","streetAddress":"Brauhausstraße 42","locality":"Drebkau","region":"Brandenburg","postalCode":"03116","latitude":51.66199,"longitude":14.22196,"isPrimary":"N","inPlanning":"N","isClosed":"N","openToPublic":"Y","locationType":"micro","locationTypeDisplay":"Micro Brewery","countryIsoCode":"DE","status":"verified","statusDisplay":"Verified","createDate":"2012-08-12 14:46:38","updateDate":"2014-07-23 19:11:34","country":{"isoCode":"DE","name":"GERMANY","displayName":"Germany","isoThree":"DEU","numberCode":276,"createDate":"2012-01-03 02:41:33"}}]