[{"id":"2RiVWQ","name":"Harrisburg","streetAddress":"50 N. Cameron St.","locality":"Harrisburg","region":"Pennsylvania","postalCode":"17110","phone":"717-221-1080","website":"http://www.abcbrew.com/harrisburg/index.htm","hoursOfOperation":"Sun:  11:00am - 11:00pm\nFri:  11:00am - 12:00am\nSat:  11:00am - 12:00am\n\nSunday - Thursday 11am - 11pm \r\nFriday & Saturday 11am - 12am","latitude":40.2657809,"longitude":-76.8755,"isPrimary":"Y","inPlanning":"N","isClosed":"N","openToPublic":"Y","locationType":"micro","locationTypeDisplay":"Micro Brewery","countryIsoCode":"US","yearOpened":"1997","status":"verified","statusDisplay":"Verified","createDate":"2012-01-03 02:41:44","updateDate":"2014-08-25 19:12:53","country":{"isoCode":"US","name":"UNITED STATES","displayName":"United States","isoThree":"USA","numberCode":840,"createDate":"2012-01-03 02:41:33"}},{"id":"8VQfMl","name":"Gettysburg","streetAddress":"401 Buford Ave","locality":"Gettysburg","region":"Pennsylvania","postalCode":"17325","phone":"717-334-2200","website":"http://www.abcbrew.com/gettysburg/","hoursOfOperation":"Thu:  11:30am - 10:00pm\nSun:  11:30am - 10:00pm\nFri:  11:30am - 11:00pm\nSat:  11:30am - 11:00pm\n\nSunday thru Thursday 11:30am – 10:00pm\r\n Friday & Saturday 11:30am – 11:00pm","latitude":39.835312,"longitude":-77.245052,"isPrimary":"N","inPlanning":"N","isClosed":"N","openToPublic":"Y","locationType":"brewpub","locationTypeDisplay":"Brewpub","countryIsoCode":"US","status":"verified","statusDisplay":"Verified","createDate":"2012-07-17 21:12:35","updateDate":"2014-08-25 19:12:54","country":{"isoCode":"US","name":"UNITED STATES","displayName":"United States","isoThree":"USA","numberCode":840,"createDate":"2012-01-03 02:41:33"}},{"id":"kp9TWC","name":"Camp Hill","streetAddress":"3721 Market St","locality":"Camp Hill","region":"Pennsylvania","postalCode":"17011","phone":"717-920-2739","website":"http://www.abcbrew.com/camphill/","hoursOfOperation":"Mon:  11:30am - 11:00pm\nTue:  11:30am - 11:00pm\nWed:  11:30am - 11:00pm\nThu:  11:30am - 11:00pm\nFri:  11:30am - 12:00am\nSat:  11:30am - 12:00am\nSun:  11:30am - 10:00pm\n\nMonday through Thursday 11:30am - 11pm\r\nFriday & Saturday 11:30am - 12am\r\nSunday 11:30am - 10pm","latitude":40.238345,"longitude":-76.946072,"isPrimary":"N","inPlanning":"N","isClosed":"N","openToPublic":"Y","locationType":"brewpub","locationTypeDisplay":"Brewpub","countryIsoCode":"US","status":"verified","statusDisplay":"Verified","createDate":"2012-07-17 21:13:45","updateDate":"2014-08-25 19:12:55","country":{"isoCode":"US","name":"UNITED STATES","displayName":"United States","isoThree":"USA","numberCode":840,"createDate":"2012-01-03 02:41:33"}},{"id":"N8sHfd","name":"Collegeville","streetAddress":"50 West 3rd Avenue","locality":"Collegeville","region":"Pennsylvania","postalCode":"19426","phone":"484-973-6064","website":"http://www.abcbrew.com/collegeville/","hoursOfOperation":"Sun:  11:00am - 10:00pm\nFri:  11:00am - 12:00am\nSat:  11:00am - 12:00am\n\nSunday through Thursday 11:00am - 10pm\r\nFriday & Saturday 11:00am - 12am","latitude":40.1945395,"longitude":-75.4730908,"isPrimary":"N","inPlanning":"N","isClosed":"N","openToPublic":"Y","locationType":"brewpub","locationTypeDisplay":"Brewpub","countryIsoCode":"US","status":"verified","statusDisplay":"Verified","createDate":"2012-07-17 21:15:15","updateDate":"2014-08-25 19:12:56","country":{"isoCode":"US","name":"UNITED STATES","displayName":"United States","isoThree":"USA","numberCode":840,"createDate":"2012-01-03 02:41:33"}},{"id":"zSb5p4","name":"Lititz","streetAddress":"55 N. Water Street","locality":"Lititz","region":"Pennsylvania","postalCode":"17543","phone":"717-625-0300","website":"http://www.abcbrew.com/Lititz/","hoursOfOperation":"Sun:  11:00am - 11:00pm\nFri:  11:00am - 12:00am\nSat:  11:00am - 12:00am\n\nSunday - Thursday 11am – 11pm\r\nFriday & Saturday 11am – Midnight","latitude":40.157852,"longitude":-76.30072,"isPrimary":"N","inPlanning":"N","isClosed":"N","openToPublic":"Y","locationType":"brewpub","locationTypeDisplay":"Brewpub","countryIsoCode":"US","status":"verified","statusDisplay":"Verified","createDate":"2012-07-17 21:46:37","updateDate":"2014-08-25 19:12:57","country":{"isoCode":"US","name":"UNITED STATES","displayName":"United States","isoThree":"USA","numberCode":840,"createDate":"2012-01-03 02:41:33"}}]