[{"id":"MAWexQ","name":"Main Brewery","streetAddress":"Wildey","locality":"Bridgetown","phone":"246- 227-6750","website":"http://www.banksbeer.com/","latitude":39.15771,"longitude":-84.629159,"isPrimary":"Y","inPlanning":"N","isClosed":"N","openToPublic":"Y","locationType":"micro","locationTypeDisplay":"Micro Brewery","countryIsoCode":"BB","yearOpened":"1961","status":"verified","statusDisplay":"Verified","createDate":"2012-01-03 02:41:45","updateDate":"2014-07-23 19:11:34","country":{"isoCode":"BB","name":"BARBADOS","displayName":"Barbados","isoThree":"BRB","numberCode":52,"createDate":"2012-01-03 02:41:33"}},{"id":"q1uU6n","name":"Main Brewery","streetAddress":"Kölner Straße 69","locality":"Schleiden (Gemünd)","region":"Nordrhein-Westfalen","postalCode":"D-53937","latitude":50.52935,"longitude":6.476885,"isPrimary":"N","inPlanning":"N","isClosed":"N","openToPublic":"Y","locationType":"micro","locationTypeDisplay":"Micro Brewery","countryIsoCode":"DE","status":"verified","statusDisplay":"Verified","createDate":"2012-08-12 14:47:14","updateDate":"2014-07-23 19:11:34","country":{"isoCode":"DE","name":"GERMANY","displayName":"Germany","isoThree":"DEU","numberCode":276,"createDate":"2012-01-03 02:41:33"}},{"id":"3wzFer","name":"Main Brewery","streetAddress":"PO Box 721","locality":"Freetown","region":"Sierra Leone","phone":"+232 (22) 26 31 18","website":"http://www.slbrewery.com/","latitude":8.48591,"longitude":-13.23806,"isPrimary":"Y","inPlanning":"N","isClosed":"N","openToPublic":"Y","locationType":"micro","locationTypeDisplay":"Micro Brewery","countryIsoCode":"SL","status":"verified","statusDisplay":"Verified","createDate":"2012-01-03 02:42:08","updateDate":"2014-07-23 19:11:34","country":{"isoCode":"SL","name":"SIERRA LEONE","displayName":"Sierra Leone","isoThree":"SLE","numberCode":694,"createDate":"2012-01-03 02:41:33"}}]