[{"id":"QKdFk2","name":"Main Brewery","streetAddress":"Balinger Strasse 7","region":"Rosenfeld","postalCode":"72348","phone":"07428-945 160","latitude":48.286399,"longitude":8.72358,"isPrimary":"Y","inPlanning":"N","isClosed":"N","openToPublic":"Y","locationType":"micro","locationTypeDisplay":"Micro Brewery","countryIsoCode":"DE","status":"verified","statusDisplay":"Verified","createDate":"2012-08-16 12:02:08","updateDate":"2014-07-23 19:11:34","country":{"isoCode":"DE","name":"GERMANY","displayName":"Germany","isoThree":"DEU","numberCode":276,"createDate":"2012-01-03 02:41:33"}},{"id":"gdNGwP","name":"Main Brewery","streetAddress":"4700 Cherry Creek Drive South","locality":"Denver","region":"Colorado","postalCode":"80246","phone":"1-303-759-0333","website":"http://www.bullandbush.com/","latitude":39.7050131,"longitude":-104.9364223,"isPrimary":"Y","inPlanning":"N","isClosed":"N","openToPublic":"Y","locationType":"micro","locationTypeDisplay":"Micro Brewery","countryIsoCode":"US","yearOpened":"1971","status":"verified","statusDisplay":"Verified","createDate":"2012-01-03 02:41:49","updateDate":"2014-07-23 19:11:34","country":{"isoCode":"US","name":"UNITED STATES","displayName":"United States","isoThree":"USA","numberCode":840,"createDate":"2012-01-03 02:41:33"}},{"id":"Qg6dpg","name":"Main Brewery","streetAddress":"1650 Dell Range Boulevard","locality":"Cheyenne","region":"Wyoming","postalCode":"82001","phone":"307-632-8636","website":"http://www.cbpotts.com/","latitude":41.160727,"longitude":-104.801787,"isPrimary":"N","inPlanning":"N","isClosed":"Y","openToPublic":"Y","locationType":"micro","locationTypeDisplay":"Micro Brewery","countryIsoCode":"US","yearOpened":"1971","yearClosed":"2013","status":"verified","statusDisplay":"Verified","createDate":"2012-01-03 02:41:49","updateDate":"2014-07-23 19:11:34","country":{"isoCode":"US","name":"UNITED STATES","displayName":"United States","isoThree":"USA","numberCode":840,"createDate":"2012-01-03 02:41:33"}},{"id":"nTzKAN","name":"Highlands Ranch","streetAddress":"43 W Centennial Blvd","locality":"Highlands Ranch","region":"Colorado","postalCode":"80126","phone":"720-344-1200","website":"http://www.cbpotts.com","hoursOfOperation":"Monday - Thursday | 11am - Midnight\r\nFriday - Saturday | 11am - 1am\r\nSunday | 11am - 11pm","latitude":39.5626596,"longitude":-104.988452,"isPrimary":"N","inPlanning":"N","isClosed":"N","openToPublic":"Y","locationType":"brewpub","locationTypeDisplay":"Brewpub","countryIsoCode":"US","yearOpened":"1999","status":"verified","statusDisplay":"Verified","createDate":"2013-08-09 15:17:53","updateDate":"2014-07-23 19:11:34","country":{"isoCode":"US","name":"UNITED STATES","displayName":"United States","isoThree":"USA","numberCode":840,"createDate":"2012-01-03 02:41:33"}},{"id":"8KgyJw","name":"Denver Tech Center","streetAddress":"6575 South Greenwood Plaza Blvd","locality":"Englewood","region":"Colorado","postalCode":"80111","phone":"303-770-1982","website":"http://www.cbpotts.com/colorado/denvertech.html","hoursOfOperation":"Sunday - Thursday | 11am - Midnight\r\nFriday and Saturday | 11am - 2am\r\nFootball Season | Open at 10am (Saturday and Sunday)","latitude":39.5973169,"longitude":-104.8957649,"isPrimary":"N","inPlanning":"N","isClosed":"N","openToPublic":"Y","locationType":"brewpub","locationTypeDisplay":"Brewpub","countryIsoCode":"US","status":"verified","statusDisplay":"Verified","createDate":"2013-11-08 23:45:27","updateDate":"2014-07-23 19:11:34","country":{"isoCode":"US","name":"UNITED STATES","displayName":"United States","isoThree":"USA","numberCode":840,"createDate":"2012-01-03 02:41:33"}},{"id":"kePmTN","name":"Flatiron","streetAddress":"555 Zang Street","locality":"Broomfield","region":"Colorado","postalCode":"80020","phone":"720-887-3383","website":"http://www.cbpotts.com/colorado/flatirons.html","hoursOfOperation":"Monday - Sunday | 11am - 2am","latitude":39.928237,"longitude":-105.133962,"isPrimary":"N","inPlanning":"N","isClosed":"N","openToPublic":"Y","locationType":"brewpub","locationTypeDisplay":"Brewpub","countryIsoCode":"US","status":"verified","statusDisplay":"Verified","createDate":"2013-11-08 23:46:04","updateDate":"2014-07-23 19:11:34","country":{"isoCode":"US","name":"UNITED STATES","displayName":"United States","isoThree":"USA","numberCode":840,"createDate":"2012-01-03 02:41:33"}},{"id":"My8aco","name":"Fort Collins Campus West","streetAddress":"1415 West Elizabeth","locality":"Fort Collins","region":"Colorado","postalCode":"80521","phone":"970-221-1139","website":"http://www.cbpotts.com/colorado/fortcollins.html","hoursOfOperation":"Monday - Sunday | 11am - 2am","latitude":40.5742005,"longitude":-105.1024049,"isPrimary":"N","inPlanning":"N","isClosed":"N","openToPublic":"Y","locationType":"brewpub","locationTypeDisplay":"Brewpub","countryIsoCode":"US","status":"verified","statusDisplay":"Verified","createDate":"2013-11-08 23:46:46","updateDate":"2014-07-23 19:11:34","country":{"isoCode":"US","name":"UNITED STATES","displayName":"United States","isoThree":"USA","numberCode":840,"createDate":"2012-01-03 02:41:33"}},{"id":"zHrOmF","name":"Westminster","streetAddress":"1257 West 120th Avenue","locality":"Westminster","region":"Colorado","postalCode":"80234","phone":"303-451-5767","website":"http://www.cbpotts.com/colorado/westminster.html","hoursOfOperation":"Sunday - Thursday | 11am - Midnight\r\nFriday - Saturday | 11am to 2am \r\nFootball Season | Open at 10am","latitude":39.9149286,"longitude":-105.0007694,"isPrimary":"Y","inPlanning":"N","isClosed":"N","openToPublic":"Y","locationType":"brewpub","locationTypeDisplay":"Brewpub","countryIsoCode":"US","status":"verified","statusDisplay":"Verified","createDate":"2013-11-08 23:47:41","updateDate":"2014-07-23 19:11:34","country":{"isoCode":"US","name":"UNITED STATES","displayName":"United States","isoThree":"USA","numberCode":840,"createDate":"2012-01-03 02:41:33"}},{"id":"bbaCvg","name":"Collindale","streetAddress":"1441 East Horsetooth Road |","locality":"Fort Collins","region":"Colorado","postalCode":"80525","phone":"970-226-0148","website":"http://www.cbpotts.com/colorado/collindale.html","hoursOfOperation":"Sunday - Wednesday | 8am to 10pm\r\nThursday - Saturday | 8am to 12am","latitude":40.5375425,"longitude":-105.0509252,"isPrimary":"N","inPlanning":"N","isClosed":"N","openToPublic":"Y","locationType":"brewpub","locationTypeDisplay":"Brewpub","countryIsoCode":"US","status":"verified","statusDisplay":"Verified","createDate":"2013-11-08 23:48:21","updateDate":"2014-07-23 19:11:34","country":{"isoCode":"US","name":"UNITED STATES","displayName":"United States","isoThree":"USA","numberCode":840,"createDate":"2012-01-03 02:41:33"}},{"id":"REDaIN","name":"Main Brewery","streetAddress":"865 E. University Blvd.","locality":"Tucson","region":"Arizona","postalCode":"85719","phone":"520-624-4177","website":"http://gentlebens.com/","hoursOfOperation":"Mon - Tue: 11:00 am - 10:00 pm\r\nWed - Sat: 11:00 am - 2:00 am\r\nSun: 12:00 pm - 10:00 pm","latitude":32.231673,"longitude":-110.95831,"isPrimary":"Y","inPlanning":"N","isClosed":"N","openToPublic":"Y","locationType":"brewpub","locationTypeDisplay":"Brewpub","countryIsoCode":"US","yearOpened":"1971","status":"verified","statusDisplay":"Verified","createDate":"2012-01-03 02:41:55","updateDate":"2014-07-23 19:11:34","country":{"isoCode":"US","name":"UNITED STATES","displayName":"United States","isoThree":"USA","numberCode":840,"createDate":"2012-01-03 02:41:33"}},{"id":"vlac7c","name":"Boise","streetAddress":"709 E Park Blvd.","locality":"Boise","region":"Idaho","postalCode":"83712","phone":"208-345-2929","website":"http://www.theram.com/idaho/boise.html","hoursOfOperation":"Monday - Sunday | 11am - Close","latitude":43.604452,"longitude":-116.192374,"isPrimary":"Y","inPlanning":"N","isClosed":"N","openToPublic":"Y","locationType":"brewpub","locationTypeDisplay":"Brewpub","countryIsoCode":"US","yearOpened":"1971","status":"verified","statusDisplay":"Verified","createDate":"2012-01-03 02:42:15","updateDate":"2014-07-23 19:11:34","country":{"isoCode":"US","name":"UNITED STATES","displayName":"United States","isoThree":"USA","numberCode":840,"createDate":"2012-01-03 02:41:33"}},{"id":"Y5JQH3","name":"Lakewood","streetAddress":"10019 59th Avenue","locality":"Lakewood","region":"Washington","postalCode":"98499","phone":"253-584-3191","website":"http://www.theram.com/washington/lakewood.html","hoursOfOperation":"Monday - Sunday | 11am - Close","latitude":47.166029,"longitude":-122.515203,"isPrimary":"N","inPlanning":"N","isClosed":"N","openToPublic":"Y","locationType":"brewpub","locationTypeDisplay":"Brewpub","countryIsoCode":"US","yearOpened":"1971","status":"verified","statusDisplay":"Verified","createDate":"2012-01-03 02:42:15","updateDate":"2014-07-23 19:11:34","country":{"isoCode":"US","name":"UNITED STATES","displayName":"United States","isoThree":"USA","numberCode":840,"createDate":"2012-01-03 02:41:33"}},{"id":"AP2EQU","name":"Wheeling","streetAddress":"700 N Milwaukee Avenue","locality":"Wheeling","region":"Illinois","postalCode":"60090","phone":"847-520-1222","website":"http://www.theram.com/illinois/wheeling.shtml","hoursOfOperation":"Monday - Sunday | 11am - Close","latitude":42.151116,"longitude":-87.914409,"isPrimary":"N","inPlanning":"N","isClosed":"N","openToPublic":"Y","locationType":"brewpub","locationTypeDisplay":"Brewpub","countryIsoCode":"US","yearOpened":"1971","status":"verified","statusDisplay":"Verified","createDate":"2012-01-03 02:42:15","updateDate":"2014-07-23 19:11:34","country":{"isoCode":"US","name":"UNITED STATES","displayName":"United States","isoThree":"USA","numberCode":840,"createDate":"2012-01-03 02:41:33"}},{"id":"xKCZqP","name":"Indianapolis","streetAddress":"140 South Illinois St.","locality":"Indianapolis","region":"Indiana","postalCode":"46225","phone":"317-955-9900","website":"http://www.theram.com/indiana/indianapolis.html","hoursOfOperation":"Monday - Sunday | 11am - Close","latitude":39.765097,"longitude":-86.159994,"isPrimary":"N","inPlanning":"N","isClosed":"N","openToPublic":"Y","locationType":"brewpub","locationTypeDisplay":"Brewpub","countryIsoCode":"US","status":"verified","statusDisplay":"Verified","createDate":"2012-07-13 00:48:54","updateDate":"2014-07-23 19:11:34","country":{"isoCode":"US","name":"UNITED STATES","displayName":"United States","isoThree":"USA","numberCode":840,"createDate":"2012-01-03 02:41:33"}},{"id":"ZdvNzq","name":"Fishers","streetAddress":"12750 Parkside Drive","locality":"Fishers","region":"Indiana","postalCode":"46038","phone":"317-596-0079","website":"http://www.theram.com/indiana/fishers.html","hoursOfOperation":"Monday - Sunday | 11am - Close","latitude":39.973182,"longitude":-86.002454,"isPrimary":"N","inPlanning":"N","isClosed":"N","openToPublic":"Y","locationType":"brewpub","locationTypeDisplay":"Brewpub","countryIsoCode":"US","status":"verified","statusDisplay":"Verified","createDate":"2012-07-13 00:51:04","updateDate":"2014-07-23 19:11:34","country":{"isoCode":"US","name":"UNITED STATES","displayName":"United States","isoThree":"USA","numberCode":840,"createDate":"2012-01-03 02:41:33"}},{"id":"tPayGU","name":"Meridian","streetAddress":"3272 East Pine","locality":"Meridian","region":"Idaho","postalCode":"83642","phone":"208.888.0314","hoursOfOperation":"Monday - Sunday | 11am - Close","latitude":43.612226,"longitude":-116.353408,"isPrimary":"N","inPlanning":"N","isClosed":"N","openToPublic":"Y","locationType":"brewpub","locationTypeDisplay":"Brewpub","countryIsoCode":"US","status":"verified","statusDisplay":"Verified","createDate":"2012-09-12 11:42:49","updateDate":"2014-07-23 19:11:34","country":{"isoCode":"US","name":"UNITED STATES","displayName":"United States","isoThree":"USA","numberCode":840,"createDate":"2012-01-03 02:41:33"}},{"id":"VjJmPv","name":"Rosemont","streetAddress":"9520 Higgins Road","locality":"Rosemont","region":"Illinois","postalCode":"60018","phone":"847.692.4426","hoursOfOperation":"Monday - Sunday | 11am - Close","latitude":41.992585,"longitude":-87.863458,"isPrimary":"N","inPlanning":"N","isClosed":"N","openToPublic":"Y","locationType":"brewpub","locationTypeDisplay":"Brewpub","countryIsoCode":"US","status":"verified","statusDisplay":"Verified","createDate":"2012-09-12 11:44:11","updateDate":"2014-07-23 19:11:34","country":{"isoCode":"US","name":"UNITED STATES","displayName":"United States","isoThree":"USA","numberCode":840,"createDate":"2012-01-03 02:41:33"}},{"id":"832aZM","name":"Schaumburg","streetAddress":"1901 McConnor Parkway","locality":"Schaumburg","region":"Illinois","postalCode":"60173","phone":"847.517.8791","hoursOfOperation":"Monday - Sunday | 11am - Close","latitude":42.05505,"longitude":-88.035622,"isPrimary":"N","inPlanning":"N","isClosed":"N","openToPublic":"Y","locationType":"brewpub","locationTypeDisplay":"Brewpub","countryIsoCode":"US","status":"verified","statusDisplay":"Verified","createDate":"2012-09-12 11:46:58","updateDate":"2014-07-23 19:11:34","country":{"isoCode":"US","name":"UNITED STATES","displayName":"United States","isoThree":"USA","numberCode":840,"createDate":"2012-01-03 02:41:33"}},{"id":"kMlOin","name":"Salem","streetAddress":"515 12th Street","locality":"Salem","region":"Oregon","postalCode":"97301","phone":"503.363.1904","hoursOfOperation":"Monday - Sunday | 11am - Close","latitude":44.941547,"longitude":-123.024971,"isPrimary":"N","inPlanning":"N","isClosed":"N","openToPublic":"Y","locationType":"brewpub","locationTypeDisplay":"Brewpub","countryIsoCode":"US","status":"verified","statusDisplay":"Verified","createDate":"2012-09-12 11:47:45","updateDate":"2014-07-23 19:11:34","country":{"isoCode":"US","name":"UNITED STATES","displayName":"United States","isoThree":"USA","numberCode":840,"createDate":"2012-01-03 02:41:33"}},{"id":"MgUCsE","name":"Clackamas","streetAddress":"11860 SE 82nd Avenue #3050","locality":"Happy Valley","region":"Oregon","postalCode":"97086","phone":"503.659.1282","hoursOfOperation":"Monday - Sunday | 11am - Close","latitude":45.437476,"longitude":-122.579031,"isPrimary":"N","inPlanning":"N","isClosed":"N","openToPublic":"Y","locationType":"brewpub","locationTypeDisplay":"Brewpub","countryIsoCode":"US","status":"verified","statusDisplay":"Verified","createDate":"2012-09-12 11:48:33","updateDate":"2014-07-23 19:11:34","country":{"isoCode":"US","name":"UNITED STATES","displayName":"United States","isoThree":"USA","numberCode":840,"createDate":"2012-01-03 02:41:33"}},{"id":"z0D11f","name":"Wilsonville","streetAddress":"29800 Southwest Boones Ferry Road","locality":"Wilsonville","region":"Oregon","postalCode":"97070","phone":"503.570.0200","hoursOfOperation":"Monday - Sunday | 11am - Close","latitude":45.305111,"longitude":-122.770222,"isPrimary":"N","inPlanning":"N","isClosed":"N","openToPublic":"Y","locationType":"brewpub","locationTypeDisplay":"Brewpub","countryIsoCode":"US","status":"verified","statusDisplay":"Verified","createDate":"2012-09-12 11:49:12","updateDate":"2014-07-23 19:11:34","country":{"isoCode":"US","name":"UNITED STATES","displayName":"United States","isoThree":"USA","numberCode":840,"createDate":"2012-01-03 02:41:33"}},{"id":"bJvpB6","name":"Kent","streetAddress":"512 Ramsay Way, Suite 4-103","locality":"Kent","region":"Washington","postalCode":"98032","phone":"253.520.3881","hoursOfOperation":"Monday - Sunday | 11am - Close","latitude":47.385061,"longitude":-122.235354,"isPrimary":"N","inPlanning":"N","isClosed":"N","openToPublic":"Y","locationType":"brewpub","locationTypeDisplay":"Brewpub","countryIsoCode":"US","status":"verified","statusDisplay":"Verified","createDate":"2012-09-12 11:49:59","updateDate":"2014-07-23 19:11:34","country":{"isoCode":"US","name":"UNITED STATES","displayName":"United States","isoThree":"USA","numberCode":840,"createDate":"2012-01-03 02:41:33"}},{"id":"DdedKX","name":"Lacey","streetAddress":"8100 Freedom Lane NE Suite C","locality":"Lacey","region":"Washington","postalCode":"98516","phone":"360.923.5900","hoursOfOperation":"Monday - Sunday | 11am - Close","latitude":47.061632,"longitude":-122.768961,"isPrimary":"N","inPlanning":"N","isClosed":"N","openToPublic":"Y","locationType":"brewpub","locationTypeDisplay":"Brewpub","countryIsoCode":"US","status":"verified","statusDisplay":"Verified","createDate":"2012-09-12 11:50:47","updateDate":"2014-07-23 19:11:34","country":{"isoCode":"US","name":"UNITED STATES","displayName":"United States","isoThree":"USA","numberCode":840,"createDate":"2012-01-03 02:41:33"}},{"id":"pxNRTy","name":"Puyallup - South Hill","streetAddress":"103 35th Avenue SE","locality":"Puyallup","region":"Washington","postalCode":"98374","phone":"253.841.3317","hoursOfOperation":"Monday - Sunday | 11am - Close","latitude":47.158502,"longitude":-122.291866,"isPrimary":"N","inPlanning":"N","isClosed":"N","openToPublic":"Y","locationType":"brewpub","locationTypeDisplay":"Brewpub","countryIsoCode":"US","status":"verified","statusDisplay":"Verified","createDate":"2012-09-12 11:51:32","updateDate":"2014-07-23 19:11:34","country":{"isoCode":"US","name":"UNITED STATES","displayName":"United States","isoThree":"USA","numberCode":840,"createDate":"2012-01-03 02:41:33"}},{"id":"SH6FdP","name":"Puyallup - Sunrise Village","streetAddress":"10403 156th Street E #101","locality":"Puyallup","region":"Washington","postalCode":"98374","phone":"253.445.1005","hoursOfOperation":"Sunday - Thursday 11am - 11pm\r\nFriday - Saturday 11am - 12am","latitude":47.114917,"longitude":-122.29067,"isPrimary":"N","inPlanning":"N","isClosed":"N","openToPublic":"Y","locationType":"brewpub","locationTypeDisplay":"Brewpub","countryIsoCode":"US","status":"verified","statusDisplay":"Verified","createDate":"2012-09-12 11:52:19","updateDate":"2014-07-23 19:11:34","country":{"isoCode":"US","name":"UNITED STATES","displayName":"United States","isoThree":"USA","numberCode":840,"createDate":"2012-01-03 02:41:33"}},{"id":"4ap3mq","name":"Seattle - Northgate","streetAddress":"401 NE Northgate Way, Suite 1102","locality":"Seattle","region":"Washington","postalCode":"98125","phone":"206.364.8000","hoursOfOperation":"Monday - Sunday 11am - Close","latitude":47.708592,"longitude":-122.324664,"isPrimary":"N","inPlanning":"N","isClosed":"N","openToPublic":"Y","locationType":"brewpub","locationTypeDisplay":"Brewpub","countryIsoCode":"US","status":"verified","statusDisplay":"Verified","createDate":"2012-09-12 11:53:03","updateDate":"2014-07-23 19:11:34","country":{"isoCode":"US","name":"UNITED STATES","displayName":"United States","isoThree":"USA","numberCode":840,"createDate":"2012-01-03 02:41:33"}},{"id":"guXrwH","name":"Seattle - University Village","streetAddress":"2650 University Village","locality":"Seattle","region":"Washington","postalCode":"98105","phone":"206.525.3565","hoursOfOperation":"Monday - Sunday 11am - 2am","latitude":47.663305,"longitude":-122.299371,"isPrimary":"N","inPlanning":"N","isClosed":"N","openToPublic":"Y","locationType":"brewpub","locationTypeDisplay":"Brewpub","countryIsoCode":"US","status":"verified","statusDisplay":"Verified","createDate":"2012-09-12 11:53:49","updateDate":"2014-07-23 19:11:34","country":{"isoCode":"US","name":"UNITED STATES","displayName":"United States","isoThree":"USA","numberCode":840,"createDate":"2012-01-03 02:41:33"}},{"id":"JEGg5i","name":"Tacoma","streetAddress":"3001 Ruston Way","locality":"Tacoma","region":"Washington","postalCode":"98402","phone":"253.756.7886","hoursOfOperation":"Monday - Sunday | 11am - Close","latitude":47.279686,"longitude":-122.47599,"isPrimary":"N","inPlanning":"N","isClosed":"N","openToPublic":"Y","locationType":"brewpub","locationTypeDisplay":"Brewpub","countryIsoCode":"US","status":"verified","statusDisplay":"Verified","createDate":"2012-09-12 11:55:26","updateDate":"2014-07-23 19:11:34","country":{"isoCode":"US","name":"UNITED STATES","displayName":"United States","isoThree":"USA","numberCode":840,"createDate":"2012-01-03 02:41:33"}},{"id":"vXzUF9","name":"Federal Way","streetAddress":"31920 Gateway Center Blvd South","locality":"Federal Way","region":"Washington","postalCode":"98003","phone":"206-878-6694","latitude":47.316183,"longitude":-122.299927,"isPrimary":"N","inPlanning":"N","isClosed":"N","openToPublic":"Y","locationType":"brewpub","locationTypeDisplay":"Brewpub","countryIsoCode":"US","status":"verified","statusDisplay":"Verified","createDate":"2012-09-12 11:56:31","updateDate":"2014-07-23 19:11:34","country":{"isoCode":"US","name":"UNITED STATES","displayName":"United States","isoThree":"USA","numberCode":840,"createDate":"2012-01-03 02:41:33"}}]