[{"id":"zo4Tui","name":"Irvine","streetAddress":"14450 Culver Dr","extendedAddress":"Ste E","locality":"Irvine","region":"California","postalCode":"92604","phone":"(949) 857-0160","website":"http://www.lamppostpizza.com/backstreet/","latitude":33.7080461,"longitude":-117.784273,"isPrimary":"Y","inPlanning":"N","isClosed":"N","openToPublic":"Y","locationType":"micro","locationTypeDisplay":"Micro Brewery","countryIsoCode":"US","yearOpened":"1976","status":"verified","statusDisplay":"Verified","createDate":"2012-01-03 02:41:44","updateDate":"2014-07-23 19:11:34","country":{"isoCode":"US","name":"UNITED STATES","displayName":"United States","isoThree":"USA","numberCode":840,"createDate":"2012-01-03 02:41:33"}},{"id":"GUQ040","name":"Corona","streetAddress":"300 N. Main Street","locality":"Corona","region":"California","postalCode":"91720","phone":"(951) 371-1471","website":"http://www.lamppostpizza.com/backstreet/","latitude":33.8505321,"longitude":-117.5702496,"isPrimary":"N","inPlanning":"N","isClosed":"N","openToPublic":"Y","locationType":"micro","locationTypeDisplay":"Micro Brewery","countryIsoCode":"US","status":"verified","statusDisplay":"Verified","createDate":"2014-03-12 13:59:15","updateDate":"2014-07-23 19:11:34","country":{"isoCode":"US","name":"UNITED STATES","displayName":"United States","isoThree":"USA","numberCode":840,"createDate":"2012-01-03 02:41:33"}},{"id":"so8oDR","name":"Huntington Beach","streetAddress":"10084 Adams Avenue","locality":"Huntington Beach","region":"California","postalCode":"92646","phone":"(714) 963-9757","website":"http://www.lamppostpizza.com/backstreet/","latitude":33.6700327,"longitude":-117.9525661,"isPrimary":"N","inPlanning":"N","isClosed":"N","openToPublic":"Y","locationType":"restaurant","locationTypeDisplay":"Restaurant/Ale House","countryIsoCode":"US","status":"verified","statusDisplay":"Verified","createDate":"2014-03-12 13:59:46","updateDate":"2014-07-23 19:11:34","country":{"isoCode":"US","name":"UNITED STATES","displayName":"United States","isoThree":"USA","numberCode":840,"createDate":"2012-01-03 02:41:33"}},{"id":"V7rcMs","name":"Huntington Beach","streetAddress":"7071 Warner Ave.","extendedAddress":"Suite A","locality":"Huntington Beach","region":"California","postalCode":"92647","phone":"(714) 841-5552","website":"http://www.lamppostpizza.com/backstreet/","latitude":33.716754,"longitude":-118.005652,"isPrimary":"N","inPlanning":"N","isClosed":"N","openToPublic":"Y","locationType":"restaurant","locationTypeDisplay":"Restaurant/Ale House","countryIsoCode":"US","status":"verified","statusDisplay":"Verified","createDate":"2014-03-12 14:00:18","updateDate":"2014-07-23 19:11:34","country":{"isoCode":"US","name":"UNITED STATES","displayName":"United States","isoThree":"USA","numberCode":840,"createDate":"2012-01-03 02:41:33"}},{"id":"7RaQWJ","name":"Ladera Ranch","streetAddress":"27702 Crown Valley Parkway","locality":"Ladera Ranch","region":"California","postalCode":"92694","phone":"(949) 388-7260","website":"http://www.lamppostpizza.com/backstreet/","latitude":33.5624789,"longitude":-117.6461952,"isPrimary":"N","inPlanning":"N","isClosed":"N","openToPublic":"Y","locationType":"micro","locationTypeDisplay":"Micro Brewery","countryIsoCode":"US","status":"verified","statusDisplay":"Verified","createDate":"2014-03-12 14:01:25","updateDate":"2014-07-23 19:11:34","country":{"isoCode":"US","name":"UNITED STATES","displayName":"United States","isoThree":"USA","numberCode":840,"createDate":"2012-01-03 02:41:33"}},{"id":"jlJEfk","name":"La Quinta","streetAddress":"78-772 Highway 111","locality":"La Quinta","region":"California","postalCode":"92253","phone":"(760) 564-4568","website":"http://www.lamppostpizza.com/backstreet/","latitude":33.7104183,"longitude":-116.2900669,"isPrimary":"N","inPlanning":"N","isClosed":"N","openToPublic":"Y","locationType":"micro","locationTypeDisplay":"Micro Brewery","countryIsoCode":"US","status":"verified","statusDisplay":"Verified","createDate":"2014-03-12 14:01:57","updateDate":"2014-07-23 19:11:34","country":{"isoCode":"US","name":"UNITED STATES","displayName":"United States","isoThree":"USA","numberCode":840,"createDate":"2012-01-03 02:41:33"}},{"id":"M522pB","name":"Orange","streetAddress":"1829 E. Chapman Avenue","locality":"Orange","region":"California","postalCode":"92867","phone":"(714) 744-5992","website":"http://www.lamppostpizza.com/backstreet/","latitude":33.7878404,"longitude":-117.8339288,"isPrimary":"N","inPlanning":"N","isClosed":"N","openToPublic":"Y","locationType":"restaurant","locationTypeDisplay":"Restaurant/Ale House","countryIsoCode":"US","status":"verified","statusDisplay":"Verified","createDate":"2014-03-12 14:02:28","updateDate":"2014-07-23 19:11:34","country":{"isoCode":"US","name":"UNITED STATES","displayName":"United States","isoThree":"USA","numberCode":840,"createDate":"2012-01-03 02:41:33"}},{"id":"yOkqyc","name":"Vista","streetAddress":"15 Main Street","extendedAddress":"Suite #100","locality":"Vista","region":"California","postalCode":"92084","phone":"(760) 407-7600","website":"http://www.lamppostpizza.com/backstreet/","latitude":33.1999917,"longitude":-117.244877,"isPrimary":"N","inPlanning":"N","isClosed":"N","openToPublic":"Y","locationType":"micro","locationTypeDisplay":"Micro Brewery","countryIsoCode":"US","status":"verified","statusDisplay":"Verified","createDate":"2014-03-12 14:03:01","updateDate":"2014-07-23 19:11:34","country":{"isoCode":"US","name":"UNITED STATES","displayName":"United States","isoThree":"USA","numberCode":840,"createDate":"2012-01-03 02:41:33"}},{"id":"aiTf83","name":"Yorba Linda","streetAddress":"17568 Yorba Linda Blvd.","locality":"Yorba Linda","region":"California","postalCode":"92686","phone":"(714) 993-9930","website":"http://www.lamppostpizza.com/backstreet/","latitude":33.8883685,"longitude":-117.8269025,"isPrimary":"N","inPlanning":"N","isClosed":"N","openToPublic":"Y","locationType":"restaurant","locationTypeDisplay":"Restaurant/Ale House","countryIsoCode":"US","status":"verified","statusDisplay":"Verified","createDate":"2014-03-12 14:03:30","updateDate":"2014-07-23 19:11:34","country":{"isoCode":"US","name":"UNITED STATES","displayName":"United States","isoThree":"USA","numberCode":840,"createDate":"2012-01-03 02:41:33"}},{"id":"D2CTHU","name":"Yorba Linda","streetAddress":"21480 Yorba Linda Blvd.","locality":"Yorba Linda","region":"California","postalCode":"92686","phone":"(714) 693-9190","website":"http://www.lamppostpizza.com/backstreet/","latitude":33.8773182,"longitude":-117.7533149,"isPrimary":"N","inPlanning":"N","isClosed":"N","openToPublic":"Y","locationType":"restaurant","locationTypeDisplay":"Restaurant/Ale House","countryIsoCode":"US","status":"verified","statusDisplay":"Verified","createDate":"2014-03-12 14:04:02","updateDate":"2014-07-23 19:11:34","country":{"isoCode":"US","name":"UNITED STATES","displayName":"United States","isoThree":"USA","numberCode":840,"createDate":"2012-01-03 02:41:33"}},{"id":"pLvHQv","name":"Corporate Office","streetAddress":"3002 Dow Avenue","extendedAddress":"Suite 414","locality":"Tustin","region":"California","postalCode":"92780","phone":"(714) 731-6171","website":"http://www.lamppost-backstreet.com/","latitude":33.7082181,"longitude":-117.8041595,"isPrimary":"N","inPlanning":"N","isClosed":"N","openToPublic":"N","locationType":"office","locationTypeDisplay":"Office","countryIsoCode":"US","status":"verified","statusDisplay":"Verified","createDate":"2014-03-12 14:07:33","updateDate":"2014-07-23 19:11:34","country":{"isoCode":"US","name":"UNITED STATES","displayName":"United States","isoThree":"USA","numberCode":840,"createDate":"2012-01-03 02:41:33"}},{"id":"fO5IlN","name":"Main Brewery","streetAddress":"5580 152nd St","locality":"Surrey","region":"British Columbia","postalCode":"V3S 5J9","phone":"1-604-574-2739","website":"http://www.drinkfreshbeer.com/","latitude":49.1041652,"longitude":-122.8008912,"isPrimary":"Y","inPlanning":"N","isClosed":"N","openToPublic":"Y","locationType":"micro","locationTypeDisplay":"Micro Brewery","countryIsoCode":"CA","yearOpened":"1976","status":"verified","statusDisplay":"Verified","createDate":"2012-01-03 02:41:46","updateDate":"2014-07-23 19:11:34","country":{"isoCode":"CA","name":"CANADA","displayName":"Canada","isoThree":"CAN","numberCode":124,"createDate":"2012-01-03 02:41:33"}},{"id":"KRB0Bo","name":"Addison","streetAddress":"3820 Belt Line Rd","locality":"Addison","region":"Texas","postalCode":"75001","phone":"972-484-3051","website":"http://www.humperdinks.com/","hoursOfOperation":"Monday through Saturday 11am-2am\r\nSunday 11am - Midnight","latitude":32.953047,"longitude":-96.850904,"isPrimary":"N","inPlanning":"N","isClosed":"N","openToPublic":"Y","locationType":"brewpub","locationTypeDisplay":"Brewpub","countryIsoCode":"US","yearOpened":"1976","status":"verified","statusDisplay":"Verified","createDate":"2012-01-03 02:41:58","updateDate":"2014-07-23 19:11:34","country":{"isoCode":"US","name":"UNITED STATES","displayName":"United States","isoThree":"USA","numberCode":840,"createDate":"2012-01-03 02:41:33"}},{"id":"7grABx","name":"Arlington","streetAddress":"700 Six Flags Drive","locality":"Arlington","region":"Texas","postalCode":"76011","phone":"817-640-8553","website":"http://www.humperdinks.com/","hoursOfOperation":"Monday through Saturday 11am-2am\r\nSunday 11am - Midnight","latitude":32.753121,"longitude":-97.067563,"isPrimary":"N","inPlanning":"N","isClosed":"N","openToPublic":"Y","locationType":"brewpub","locationTypeDisplay":"Brewpub","countryIsoCode":"US","status":"verified","statusDisplay":"Verified","createDate":"2012-06-27 14:55:21","updateDate":"2014-07-23 19:11:34","country":{"isoCode":"US","name":"UNITED STATES","displayName":"United States","isoThree":"USA","numberCode":840,"createDate":"2012-01-03 02:41:33"}},{"id":"k0ZyLO","name":"Dallas (NW Highway)","streetAddress":"2208 W Northwest Hwy","locality":"Dallas","region":"Texas","postalCode":"75220","phone":"214-358-4159","website":"http://www.humperdinks.com/","hoursOfOperation":"Monday through Saturday 11am-2am\r\nSunday 11am - Midnight","latitude":32.864007,"longitude":-96.898684,"isPrimary":"N","inPlanning":"N","isClosed":"N","openToPublic":"Y","locationType":"brewpub","locationTypeDisplay":"Brewpub","countryIsoCode":"US","status":"verified","statusDisplay":"Verified","createDate":"2012-06-27 14:56:16","updateDate":"2014-07-23 19:11:34","country":{"isoCode":"US","name":"UNITED STATES","displayName":"United States","isoThree":"USA","numberCode":840,"createDate":"2012-01-03 02:41:33"}},{"id":"MKImUp","name":"Dallas (Greenville)","streetAddress":"6050 Greenville Ave","locality":"Dallas","region":"Texas","postalCode":"75206","phone":"214-368-1203","website":"http://www.humperdinks.com/","hoursOfOperation":"Monday through Saturday 11am-2am\r\nSunday 11am - Midnight","latitude":32.859006,"longitude":-96.768137,"isPrimary":"N","inPlanning":"N","isClosed":"N","openToPublic":"Y","locationType":"micro","locationTypeDisplay":"Micro Brewery","countryIsoCode":"US","status":"verified","statusDisplay":"Verified","createDate":"2012-06-27 14:57:06","updateDate":"2014-07-23 19:11:34","country":{"isoCode":"US","name":"UNITED STATES","displayName":"United States","isoThree":"USA","numberCode":840,"createDate":"2012-01-03 02:41:33"}},{"id":"ye1aeG","name":"Richardson","streetAddress":"1601 N Central Expy","locality":"Richardson","region":"Texas","postalCode":"75080","phone":"972-690-4867","website":"http://www.humperdinks.com/","hoursOfOperation":"Monday through Saturday 11am-2am\r\nSunday 11am - Midnight","latitude":32.969406,"longitude":-96.720379,"isPrimary":"Y","inPlanning":"N","isClosed":"N","openToPublic":"Y","locationType":"brewpub","locationTypeDisplay":"Brewpub","countryIsoCode":"US","status":"verified","statusDisplay":"Verified","createDate":"2012-06-27 14:57:51","updateDate":"2014-07-23 19:11:34","country":{"isoCode":"US","name":"UNITED STATES","displayName":"United States","isoThree":"USA","numberCode":840,"createDate":"2012-01-03 02:41:33"}}]