[{"id":"vGL6UZ","name":"Spokane","streetAddress":"332 N Spokane Falls Ct","locality":"Spokane","region":"Washington","postalCode":"99201","phone":"509-455-6690","website":"http://www.shenanigansspokane.com/","latitude":47.6616799,"longitude":-117.412189,"isPrimary":"Y","inPlanning":"N","isClosed":"Y","openToPublic":"Y","locationType":"brewpub","locationTypeDisplay":"Brewpub","countryIsoCode":"US","yearOpened":"1980","status":"verified","statusDisplay":"Verified","createDate":"2012-01-04 19:24:58","updateDate":"2014-07-23 19:11:34","country":{"isoCode":"US","name":"UNITED STATES","displayName":"United States","isoThree":"USA","numberCode":840,"createDate":"2012-01-03 02:41:33"}},{"id":"wgMliQ","name":"Main Brewery","streetAddress":"660 Main Road","locality":"Stoke","region":"Nelson","postalCode":"7011","phone":"+64 03 547 5357","website":"http://www.mccashins.co.nz/","latitude":-41.318855,"longitude":173.225838,"isPrimary":"Y","inPlanning":"N","isClosed":"N","openToPublic":"Y","locationType":"micro","locationTypeDisplay":"Micro Brewery","countryIsoCode":"NZ","yearOpened":"1980","status":"verified","statusDisplay":"Verified","createDate":"2012-01-03 02:42:01","updateDate":"2014-07-23 19:11:34","country":{"isoCode":"NZ","name":"NEW ZEALAND","displayName":"New Zealand","isoThree":"NZL","numberCode":554,"createDate":"2012-01-03 02:41:33"}},{"id":"TWs0Z9","name":"Main Brewery","streetAddress":"3 Bogatyrska Street","locality":"Kyiv","postalCode":"04655","phone":"+38(044) 412-84-10","website":"http://obolon.ua/","latitude":44.678833,"longitude":-67.404638,"isPrimary":"Y","inPlanning":"N","isClosed":"N","openToPublic":"Y","locationType":"micro","locationTypeDisplay":"Micro Brewery","countryIsoCode":"UA","yearOpened":"1980","status":"verified","statusDisplay":"Verified","createDate":"2012-01-03 02:42:04","updateDate":"2014-07-23 19:11:34","country":{"isoCode":"UA","name":"UKRAINE","displayName":"Ukraine","isoThree":"UKR","numberCode":804,"createDate":"2012-01-03 02:41:33"}},{"id":"IaQrxj","name":"Main Brewery","streetAddress":"1075 East 20th St","locality":"Chico","region":"California","postalCode":"95928","phone":"530-893-3520","website":"http://www.sierranevada.com/","latitude":39.7246028,"longitude":-121.8157154,"isPrimary":"Y","inPlanning":"N","isClosed":"N","openToPublic":"Y","locationType":"micro","locationTypeDisplay":"Micro Brewery","countryIsoCode":"US","yearOpened":"1980","status":"verified","statusDisplay":"Verified","createDate":"2012-01-03 02:42:08","updateDate":"2014-07-23 19:11:34","country":{"isoCode":"US","name":"UNITED STATES","displayName":"United States","isoThree":"USA","numberCode":840,"createDate":"2012-01-03 02:41:33"}},{"id":"aqLvLE","name":"Asheville","locality":"Mills River","region":"North Carolina","postalCode":"28759","latitude":35.390645,"longitude":-82.567939,"isPrimary":"N","inPlanning":"Y","isClosed":"N","openToPublic":"N","locationType":"micro","locationTypeDisplay":"Micro Brewery","countryIsoCode":"US","status":"verified","statusDisplay":"Verified","createDate":"2012-03-29 20:56:05","updateDate":"2014-07-23 19:11:34","country":{"isoCode":"US","name":"UNITED STATES","displayName":"United States","isoThree":"USA","numberCode":840,"createDate":"2012-01-03 02:41:33"}},{"id":"IyzwQ4","name":"Rochester","streetAddress":"1142 Mt. Hope Avenue","locality":"Rochester","region":"New York","postalCode":"14620","phone":"(585) 271-4105","website":"http://www.thedistillery.com/","hoursOfOperation":"Mon:  11:00am - 2:00am\nTue:  11:00am - 2:00am\nWed:  11:00am - 2:00am\nThu:  11:00am - 2:00am\nFri:  11:00am - 2:00am\nSat:  11:00am - 2:00am\nSun:  12:00pm - 1:00am\n\n","latitude":43.127617,"longitude":-77.615601,"isPrimary":"Y","inPlanning":"N","isClosed":"N","openToPublic":"Y","locationType":"brewpub","locationTypeDisplay":"Brewpub","countryIsoCode":"US","status":"verified","statusDisplay":"Verified","createDate":"2014-10-01 14:06:18","updateDate":"2014-10-01 14:11:53","country":{"isoCode":"US","name":"UNITED STATES","displayName":"United States","isoThree":"USA","numberCode":840,"createDate":"2012-01-03 02:41:33"}},{"id":"9wAMsN","name":"Greece","streetAddress":"300 Paddy Creek Circle","locality":"Greece","region":"New York","postalCode":"14615","phone":"(585) 621-1620","website":"http://www.thedistillery.com/","hoursOfOperation":"Mon:  11:00am - 2:00am\nTue:  11:00am - 2:00am\nWed:  11:00am - 2:00am\nThu:  11:00am - 2:00am\nFri:  11:00am - 2:00am\nSat:  11:00am - 2:00am\nSun:  12:00pm - 1:00am\n\nBar\r\nMon-Sat: 11am - 2am\r\nSunday: 12 Noon - 1am\r\nKitchen\r\nMon-Sat: 11am - 1am\r\nSunday: 12 Noon - 12 Midnight","latitude":43.205644,"longitude":-77.674382,"isPrimary":"N","inPlanning":"N","isClosed":"N","openToPublic":"Y","locationType":"restaurant","locationTypeDisplay":"Restaurant/Ale House","countryIsoCode":"US","status":"verified","statusDisplay":"Verified","createDate":"2014-10-01 14:11:24","updateDate":"2014-10-01 14:11:24","country":{"isoCode":"US","name":"UNITED STATES","displayName":"United States","isoThree":"USA","numberCode":840,"createDate":"2012-01-03 02:41:33"}},{"id":"OZbzBF","name":"Henrietta","streetAddress":"3010 Winton Road South","locality":"Henrietta","region":"New York","postalCode":"14623","phone":"(585) 339-3010","website":"http://www.thedistillery.com/","hoursOfOperation":"Mon:  11:00am - 2:00am\nTue:  11:00am - 2:00am\nWed:  11:00am - 2:00am\nThu:  11:00am - 2:00am\nFri:  11:00am - 2:00am\nSat:  11:00am - 2:00am\nSun:  12:00pm - 1:00am\n\nBar\r\nMon-Sat: 11am - 2am\r\nSunday: 12 Noon - 1am\r\nKitchen\r\nMon-Sat: 11am - 1am\r\nSunday: 12 Noon- 12 Midnight","latitude":43.0948916,"longitude":-77.5819648,"isPrimary":"N","inPlanning":"N","isClosed":"N","openToPublic":"Y","locationType":"restaurant","locationTypeDisplay":"Restaurant/Ale House","countryIsoCode":"US","status":"verified","statusDisplay":"Verified","createDate":"2014-10-01 14:14:37","updateDate":"2014-10-01 14:14:37","country":{"isoCode":"US","name":"UNITED STATES","displayName":"United States","isoThree":"USA","numberCode":840,"createDate":"2012-01-03 02:41:33"}},{"id":"dD3bU7","name":"Victor","streetAddress":"10 Square Drive","locality":"Victor","region":"New York","postalCode":"14564","phone":"(585) 924- 2337","website":"http://www.thedistillery.com/","hoursOfOperation":"Wed:  11:00am - 1:00am\nThu:  11:00am - 1:00am\nFri:  11:00am - 1:00am\nSat:  11:00am - 1:00am\nMon:  11:00am - 12:00am\nTue:  11:00am - 12:00am\nSun:  12:00pm - 12:00am\n\nMon, Tue: 11am - 12 Midnight\r\nWed - Sat: 11am - 1am\r\nSunday: 12 Noon - 12 Midnight\r\nKitchen\r\nMon, Tue: 11am - 11pm\r\nWed - Sat: 11am - 12 Midnight\r\nSunday: 12 Noon - 11pm","latitude":43.0336828,"longitude":-77.439787,"isPrimary":"N","inPlanning":"N","isClosed":"N","openToPublic":"Y","locationType":"restaurant","locationTypeDisplay":"Restaurant/Ale House","countryIsoCode":"US","status":"verified","statusDisplay":"Verified","createDate":"2014-10-01 14:20:26","updateDate":"2014-10-01 14:20:26","country":{"isoCode":"US","name":"UNITED STATES","displayName":"United States","isoThree":"USA","numberCode":840,"createDate":"2012-01-03 02:41:33"}},{"id":"FWmPdY","name":"Syracuse","streetAddress":"3112 Erie Blvd.","locality":"East Syracuse","region":"New York","postalCode":"13057","website":"http://www.thedistillery.com/","latitude":43.053377,"longitude":-76.0749169,"isPrimary":"N","inPlanning":"Y","isClosed":"N","openToPublic":"Y","locationType":"restaurant","locationTypeDisplay":"Restaurant/Ale House","countryIsoCode":"US","status":"verified","statusDisplay":"Verified","createDate":"2014-10-01 14:22:34","updateDate":"2014-10-01 14:22:34","country":{"isoCode":"US","name":"UNITED STATES","displayName":"United States","isoThree":"USA","numberCode":840,"createDate":"2012-01-03 02:41:33"}}]