[{"id":"YKa9wh","name":"Redhook Ale Brewery","description":"In 1981, Gordon Bowker and Paul Shipman started Redhook Ale Brewery in an old transmission shop in Seattle. Early missteps led to a cult following and eventually led to widespread acclaim that inspired countless craft brewers. Still, more than 25 years later, no brewery has been able to achieve the pure, unqualified Liquid Goodness of Redhook.","website":"http://www.redhook.com/","established":"1981","isOrganic":"N","images":{"icon":"https://s3.amazonaws.com/brewerydbapi/brewery/YKa9wh/upload_igTi74-icon.png","medium":"https://s3.amazonaws.com/brewerydbapi/brewery/YKa9wh/upload_igTi74-medium.png","large":"https://s3.amazonaws.com/brewerydbapi/brewery/YKa9wh/upload_igTi74-large.png"},"status":"verified","statusDisplay":"Verified","createDate":"2012-01-03 02:42:06","updateDate":"2014-04-09 11:20:01","locations":[{"id":"4eAHNC","name":"Main Brewery","streetAddress":"14300 Northeast 145th Street","locality":"Woodinville","region":"Washington","postalCode":"98072","phone":"425-483-3232","website":"http://www.redhook.com/","latitude":47.7348275,"longitude":-122.1488713,"isPrimary":"Y","inPlanning":"N","isClosed":"N","openToPublic":"Y","locationType":"brewpub","locationTypeDisplay":"Brewpub","countryIsoCode":"US","yearOpened":"1982","status":"verified","statusDisplay":"Verified","createDate":"2012-01-03 02:42:06","updateDate":"2014-07-23 19:11:34","country":{"isoCode":"US","name":"UNITED STATES","displayName":"United States","isoThree":"USA","numberCode":840,"createDate":"2012-01-03 02:41:33"}},{"id":"mil2Zv","name":"Portsmouth","streetAddress":"1 Redhook Way","extendedAddress":"Pease International Tradeport","locality":"Portsmouth","region":"New Hampshire","postalCode":"03801","phone":"603-430-8600","website":"http://www.redhook.com/","latitude":43.0717552,"longitude":-70.7625532,"isPrimary":"N","inPlanning":"N","isClosed":"N","openToPublic":"Y","locationType":"brewpub","locationTypeDisplay":"Brewpub","countryIsoCode":"US","yearOpened":"1995","status":"verified","statusDisplay":"Verified","createDate":"2012-01-03 02:42:15","updateDate":"2014-07-23 19:11:34","country":{"isoCode":"US","name":"UNITED STATES","displayName":"United States","isoThree":"USA","numberCode":840,"createDate":"2012-01-03 02:41:33"}}]}]