[{"id":"QYiAND","name":"Main Brewery","streetAddress":"Achouffe 32","region":"Houffalize","postalCode":"6666","phone":"32-061-28-81-47","website":"http://www.achouffe.be/","latitude":50.16569,"longitude":5.720881,"isPrimary":"Y","inPlanning":"N","isClosed":"N","openToPublic":"Y","locationType":"micro","locationTypeDisplay":"Micro Brewery","countryIsoCode":"BE","status":"verified","statusDisplay":"Verified","createDate":"2012-01-03 02:41:47","updateDate":"2014-07-23 19:11:34","country":{"isoCode":"BE","name":"BELGIUM","displayName":"Belgium","isoThree":"BEL","numberCode":56,"createDate":"2012-01-03 02:41:33"}},{"id":"f0EGan","name":"Main Brewery","streetAddress":"Steenweg op Mol 118","locality":"Oud-Turnhout","region":"Antwerpen","latitude":51.3139218,"longitude":4.9901784,"isPrimary":"Y","inPlanning":"N","isClosed":"N","openToPublic":"Y","locationType":"micro","locationTypeDisplay":"Micro Brewery","countryIsoCode":"BE","status":"verified","statusDisplay":"Verified","createDate":"2012-01-03 02:41:49","updateDate":"2014-07-23 19:11:34","country":{"isoCode":"BE","name":"BELGIUM","displayName":"Belgium","isoThree":"BEL","numberCode":56,"createDate":"2012-01-03 02:41:33"}},{"id":"J9jdSt","name":"Main Brewery","streetAddress":"Speckstrasse 3","region":"Pf√§ffikon","postalCode":"CH-8330","phone":"044 / 950 99 00","isPrimary":"Y","inPlanning":"N","isClosed":"N","openToPublic":"Y","locationType":"micro","locationTypeDisplay":"Micro Brewery","countryIsoCode":"SE","status":"verified","statusDisplay":"Verified","createDate":"2013-02-18 14:42:03","updateDate":"2014-07-23 19:11:34","country":{"isoCode":"SE","name":"SWEDEN","displayName":"Sweden","isoThree":"SWE","numberCode":752,"createDate":"2012-01-03 02:41:33"}}]