[{"id":"rVHMv0","name":"Main Brewery","streetAddress":"Funenkade 7","locality":"Amsterdam","phone":"31-020-3201786","latitude":52.3666373,"longitude":4.9263348,"isPrimary":"Y","inPlanning":"N","isClosed":"N","openToPublic":"Y","locationType":"micro","locationTypeDisplay":"Micro Brewery","countryIsoCode":"NL","status":"verified","statusDisplay":"Verified","createDate":"2012-01-03 02:41:48","updateDate":"2014-07-23 19:11:34","country":{"isoCode":"NL","name":"NETHERLANDS","displayName":"Netherlands","isoThree":"NLD","numberCode":528,"createDate":"2012-01-03 02:41:33"}},{"id":"b2lEBE","name":"Main Brewery","streetAddress":"1082 B Street","locality":"Hayward","region":"California","postalCode":"94541","phone":"510-886-9823","website":"http://www.buffalobillsbrewery.com/","latitude":37.6738157,"longitude":-122.0813029,"isPrimary":"Y","inPlanning":"N","isClosed":"N","openToPublic":"Y","locationType":"micro","locationTypeDisplay":"Micro Brewery","countryIsoCode":"US","yearOpened":"1983","status":"verified","statusDisplay":"Verified","createDate":"2012-01-03 02:41:49","updateDate":"2014-07-23 19:11:34","country":{"isoCode":"US","name":"UNITED STATES","displayName":"United States","isoThree":"USA","numberCode":840,"createDate":"2012-01-03 02:41:33"}},{"id":"Of6bJU","name":"Main Brewery","streetAddress":"38 Evergreen Drive","locality":"Portland","region":"Maine","postalCode":"04103","phone":"207-878-2337","website":"http://www.gearybrewing.com","latitude":43.7076099,"longitude":-70.3148663,"isPrimary":"Y","inPlanning":"N","isClosed":"N","openToPublic":"Y","locationType":"micro","locationTypeDisplay":"Micro Brewery","countryIsoCode":"US","yearOpened":"1983","status":"verified","statusDisplay":"Verified","createDate":"2012-01-03 02:41:52","updateDate":"2014-09-26 13:19:45","country":{"isoCode":"US","name":"UNITED STATES","displayName":"United States","isoThree":"USA","numberCode":840,"createDate":"2012-01-03 02:41:33"}},{"id":"yLBNrD","name":"Main Brewery","streetAddress":"101 North Railroad Street","locality":"Shenandoah","region":"Iowa","postalCode":"51601","phone":"712-246-4444","website":"http://www.depotdeli.com/","latitude":40.7649892,"longitude":-95.3769912,"isPrimary":"Y","inPlanning":"N","isClosed":"N","openToPublic":"Y","locationType":"brewpub","locationTypeDisplay":"Brewpub","countryIsoCode":"US","yearOpened":"1983","status":"verified","statusDisplay":"Verified","createDate":"2012-01-03 02:41:52","updateDate":"2014-07-23 19:11:34","country":{"isoCode":"US","name":"UNITED STATES","displayName":"United States","isoThree":"USA","numberCode":840,"createDate":"2012-01-03 02:41:33"}},{"id":"EPqUQP","name":"Main Brewery","streetAddress":"4607 Wedgewood Blvd","locality":"Frederick","region":"Maryland","postalCode":"21703","phone":"301-694-7899","website":"http://www.flyingdogales.com/","hoursOfOperation":"Tours are offered every Thursday and Friday from 4 to 6 pm, along with two sessions on Saturday (12 to 2 pm and 2:30 - 4:30 pm).","latitude":39.361926,"longitude":-77.424677,"isPrimary":"Y","inPlanning":"N","isClosed":"N","openToPublic":"Y","locationType":"micro","locationTypeDisplay":"Micro Brewery","countryIsoCode":"US","yearOpened":"1983","status":"verified","statusDisplay":"Verified","createDate":"2012-01-03 02:41:55","updateDate":"2014-07-23 19:11:34","country":{"isoCode":"US","name":"UNITED STATES","displayName":"United States","isoThree":"USA","numberCode":840,"createDate":"2012-01-03 02:41:33"}},{"id":"iJNi7f","name":"Main Brewery","streetAddress":"4301 Leary Way NW","locality":"Seattle","region":"Washington","postalCode":"98107","phone":"206-706-1544","latitude":47.6591056,"longitude":-122.3651983,"isPrimary":"Y","inPlanning":"N","isClosed":"N","openToPublic":"Y","locationType":"micro","locationTypeDisplay":"Micro Brewery","countryIsoCode":"US","status":"verified","statusDisplay":"Verified","createDate":"2012-01-03 02:41:56","updateDate":"2014-07-23 19:11:34","country":{"isoCode":"US","name":"UNITED STATES","displayName":"United States","isoThree":"USA","numberCode":840,"createDate":"2012-01-03 02:41:33"}},{"id":"sAmmqA","name":"Main Brewery","streetAddress":"Hillfoots Business Village","locality":"Alva Industrial Estate Alva, Central","region":"Scotland","postalCode":"FK12 5DQ","phone":"44-(01259)-769100","website":"http://www.harviestoun-brewery.co.uk/","latitude":56.15306,"longitude":-3.798604,"isPrimary":"Y","inPlanning":"N","isClosed":"N","openToPublic":"Y","locationType":"micro","locationTypeDisplay":"Micro Brewery","countryIsoCode":"GB","yearOpened":"1985","status":"verified","statusDisplay":"Verified","createDate":"2012-01-03 02:41:57","updateDate":"2014-07-23 19:11:34","country":{"isoCode":"GB","name":"UNITED KINGDOM","displayName":"United Kingdom","isoThree":"GBR","numberCode":826,"createDate":"2012-01-03 02:41:33"}},{"id":"8GdiRp","name":"Mendocino Ale House","streetAddress":"1252 Airport Park Blvd.","locality":"Ukiah","region":"California","postalCode":"95482","phone":"1-707-467-2337","website":"http://www.mendobrew.com/alehouse/mendocino-brewing-ale-house.html","hoursOfOperation":"Monday - Saturday 11am - 10pm\r\n\r\nSunday 12pm - 9pm","isPrimary":"N","inPlanning":"N","isClosed":"N","openToPublic":"N","locationType":"tasting","locationTypeDisplay":"Tasting Room","countryIsoCode":"US","status":"verified","statusDisplay":"Verified","createDate":"2012-01-03 02:42:15","updateDate":"2014-07-23 19:11:34","country":{"isoCode":"US","name":"UNITED STATES","displayName":"United States","isoThree":"USA","numberCode":840,"createDate":"2012-01-03 02:41:33"}},{"id":"kaMWbG","name":"Mendocino Brewing Company","streetAddress":"1601 Airport Road","locality":"Ukiah","region":"California","postalCode":"95482","phone":"1-707-463-2627","website":"http://www.mendobrew.com/","latitude":39.1326173,"longitude":-123.2005307,"isPrimary":"N","inPlanning":"N","isClosed":"N","openToPublic":"N","locationType":"micro","locationTypeDisplay":"Micro Brewery","countryIsoCode":"US","yearOpened":"1983","status":"verified","statusDisplay":"Verified","createDate":"2012-01-03 02:42:15","updateDate":"2014-07-23 19:11:34","country":{"isoCode":"US","name":"UNITED STATES","displayName":"United States","isoThree":"USA","numberCode":840,"createDate":"2012-01-03 02:41:33"}}]