[{"id":"8eyXN7","name":"Main Brewery","streetAddress":"245 South Eton Street","locality":"Birmingham","region":"Michigan","postalCode":"48009","phone":"248-647-7774","website":"http://www.bigrockchophouse.com/","hoursOfOperation":"Mon - Wed: 11:00 am - 10:00 pm\r\nThu: 11:00 am - 11:00 pm\r\nFri: 11:00 am - 12:00 am\r\nSat: 12:00 pm - 12:00 am","latitude":42.546504,"longitude":-83.195858,"isPrimary":"Y","inPlanning":"N","isClosed":"N","openToPublic":"Y","locationType":"micro","locationTypeDisplay":"Micro Brewery","countryIsoCode":"US","yearOpened":"1984","status":"verified","statusDisplay":"Verified","createDate":"2012-01-03 02:41:46","updateDate":"2014-07-23 19:11:34","country":{"isoCode":"US","name":"UNITED STATES","displayName":"United States","isoThree":"USA","numberCode":840,"createDate":"2012-01-03 02:41:33"}},{"id":"DF5YsC","name":"Main Brewery","streetAddress":"30 Germania Street","locality":"Boston","region":"Massachusetts","postalCode":"02130","phone":"1-800-372-1131","website":"http://www.samueladams.com/","latitude":42.314449,"longitude":-71.103365,"isPrimary":"Y","inPlanning":"N","isClosed":"N","openToPublic":"Y","locationType":"micro","locationTypeDisplay":"Micro Brewery","countryIsoCode":"US","yearOpened":"1984","status":"verified","statusDisplay":"Verified","createDate":"2012-01-03 02:41:47","updateDate":"2014-09-26 13:04:52","country":{"isoCode":"US","name":"UNITED STATES","displayName":"United States","isoThree":"USA","numberCode":840,"createDate":"2012-01-03 02:41:33"}},{"id":"MLUbXI","name":"Cincinnati","streetAddress":"1625 Central Parkway","locality":"Cincinnati","region":"Ohio","postalCode":"45214","phone":"513-412-3200","website":"http://www.samueladams.com/","latitude":39.1144986,"longitude":-84.5222061,"isPrimary":"N","inPlanning":"N","isClosed":"N","openToPublic":"N","locationType":"production","locationTypeDisplay":"Production Facility","countryIsoCode":"US","status":"verified","statusDisplay":"Verified","createDate":"2013-08-12 13:10:57","updateDate":"2014-07-23 19:11:34","country":{"isoCode":"US","name":"UNITED STATES","displayName":"United States","isoThree":"USA","numberCode":840,"createDate":"2012-01-03 02:41:33"}},{"id":"eBelPz","name":"Main Brewery","streetAddress":"400 Bingemans Centre Drive","locality":"Kitchener","region":"Ontario","postalCode":"N2B 3X9","phone":"1-519-367-2995","website":"http://www2.brickbeer.com/","latitude":43.470829,"longitude":-80.4535224,"isPrimary":"N","inPlanning":"N","isClosed":"N","openToPublic":"N","locationType":"office","locationTypeDisplay":"Office","countryIsoCode":"CA","status":"verified","statusDisplay":"Verified","createDate":"2012-01-03 02:41:48","updateDate":"2014-07-23 19:11:34","country":{"isoCode":"CA","name":"CANADA","displayName":"Canada","isoThree":"CAN","numberCode":124,"createDate":"2012-01-03 02:41:33"}},{"id":"pNatE6","name":"Brick Brewery","streetAddress":"181 King Street South","locality":"Waterloo","region":"Ontario","postalCode":"N2J 1P7","phone":"1-519-576-9100","website":"http://www.brickbeer.com/","hoursOfOperation":"Mon-Sat 10 am - 7 pm\r\nSunday 11 am - 6 pm","latitude":43.4605412,"longitude":-80.5198564,"isPrimary":"Y","inPlanning":"N","isClosed":"N","openToPublic":"Y","locationType":"micro","locationTypeDisplay":"Micro Brewery","countryIsoCode":"CA","yearOpened":"1984","status":"verified","statusDisplay":"Verified","createDate":"2013-03-19 23:17:26","updateDate":"2014-07-23 19:11:34","country":{"isoCode":"CA","name":"CANADA","displayName":"Canada","isoThree":"CAN","numberCode":124,"createDate":"2012-01-03 02:41:33"}},{"id":"yPiQU2","name":"Main Brewery","streetAddress":"1313 NW Marshall Street","locality":"Portland","region":"Oregon","postalCode":"97209","phone":"503-241-7179","website":"http://www.bridgeportbrew.com/","latitude":45.5308321,"longitude":-122.6853132,"isPrimary":"Y","inPlanning":"N","isClosed":"N","openToPublic":"Y","locationType":"micro","locationTypeDisplay":"Micro Brewery","countryIsoCode":"US","yearOpened":"1988","status":"verified","statusDisplay":"Verified","createDate":"2012-01-03 02:41:48","updateDate":"2014-07-23 19:11:34","country":{"isoCode":"US","name":"UNITED STATES","displayName":"United States","isoThree":"USA","numberCode":840,"createDate":"2012-01-03 02:41:33"}},{"id":"1g0RBG","name":"Main Brewery","streetAddress":"7734 Terrace Avenue","locality":"Middleton","region":"Wisconsin","postalCode":"53562","phone":"608-836-7100","website":"http://www.capital-brewery.com/","hoursOfOperation":"Tue:  4:00pm - 9:00pm\nWed:  4:00pm - 9:00pm\nThu:  4:00pm - 9:00pm\nFri:  4:00pm - 9:00pm\nSat:  12:00pm - 5:00pm\nSun:  12:00pm - 5:00pm\n\nMonday: CLOSED TO THE PUBLIC\r\nTuesday: 4:00pm-9:00pm\r\nWednesday: 4:00pm-9:00pm\r\nThursday: 4:00pm-9:00pm \r\nFriday: 4:00pm-9:00pm\r\nSaturday: 12:00pm-5:00pm\r\nSunday: 12:00pm-5:00pm","latitude":43.094848,"longitude":-89.5165838,"isPrimary":"Y","inPlanning":"N","isClosed":"N","openToPublic":"Y","locationType":"micro","locationTypeDisplay":"Micro Brewery","countryIsoCode":"US","yearOpened":"1984","status":"verified","statusDisplay":"Verified","createDate":"2012-01-03 02:41:50","updateDate":"2014-09-29 20:12:03","country":{"isoCode":"US","name":"UNITED STATES","displayName":"United States","isoThree":"USA","numberCode":840,"createDate":"2012-01-03 02:41:33"}},{"id":"kCzHBO","name":"Main Brewery","streetAddress":"Cropton","locality":"Pickering","region":"North Yorkshire","phone":"44-(01751)-417330","latitude":54.289902,"longitude":-0.84029,"isPrimary":"Y","inPlanning":"N","isClosed":"N","openToPublic":"Y","locationType":"micro","locationTypeDisplay":"Micro Brewery","countryIsoCode":"GB","status":"verified","statusDisplay":"Verified","createDate":"2012-01-03 02:41:52","updateDate":"2014-07-23 19:11:34","country":{"isoCode":"GB","name":"UNITED KINGDOM","displayName":"United Kingdom","isoThree":"GBR","numberCode":826,"createDate":"2012-01-03 02:41:33"}},{"id":"TkT8Rc","name":"Main Brewery","streetAddress":"5945 Prather Road","locality":"Centralia","region":"Washington","postalCode":"98531","phone":"800-586-7760","website":"http://dicksbeer.com/","hoursOfOperation":"Fridays 3pm - 7pm","latitude":46.771347,"longitude":-123.007543,"isPrimary":"Y","inPlanning":"N","isClosed":"N","openToPublic":"Y","locationType":"micro","locationTypeDisplay":"Micro Brewery","countryIsoCode":"US","yearOpened":"1984","status":"verified","statusDisplay":"Verified","createDate":"2012-01-03 02:41:52","updateDate":"2014-07-23 19:11:34","country":{"isoCode":"US","name":"UNITED STATES","displayName":"United States","isoThree":"USA","numberCode":840,"createDate":"2012-01-03 02:41:33"}},{"id":"3kZwor","name":"Main Brewery","streetAddress":"Bergstrasse 19","region":"Nürnberg","postalCode":"90403","phone":"+49 911 2449859","website":"http://www.hausbrauerei-altstadthof.de/","hoursOfOperation":"Mon - Thu: 11:00 am - 12:00 am\r\nFri - Sun: 11:00 am - 1:00 am","latitude":49.4569762,"longitude":11.0748632,"isPrimary":"Y","inPlanning":"N","isClosed":"N","openToPublic":"Y","locationType":"micro","locationTypeDisplay":"Micro Brewery","countryIsoCode":"DE","status":"verified","statusDisplay":"Verified","createDate":"2013-09-02 13:10:54","updateDate":"2014-07-23 19:11:34","country":{"isoCode":"DE","name":"GERMANY","displayName":"Germany","isoThree":"DEU","numberCode":276,"createDate":"2012-01-03 02:41:33"}},{"id":"IvQTIf","name":"Main Brewery","streetAddress":"1 rue du Maréchal à","locality":"PIPAIX (Leuze-Belgique)","postalCode":"7904","phone":"+32 (069) 66 20 47","website":"http://www.vapeur.com/vap0E.html","latitude":50.57275,"longitude":3.65301,"isPrimary":"Y","inPlanning":"N","isClosed":"N","openToPublic":"Y","locationType":"micro","locationTypeDisplay":"Micro Brewery","countryIsoCode":"BE","yearOpened":"1984","status":"verified","statusDisplay":"Verified","createDate":"2012-01-03 02:42:00","updateDate":"2014-07-23 19:11:34","country":{"isoCode":"BE","name":"BELGIUM","displayName":"Belgium","isoThree":"BEL","numberCode":56,"createDate":"2012-01-03 02:41:33"}},{"id":"NorULV","name":"Main Brewery","streetAddress":"89 Bertie Street,","locality":"Port Melbourne","region":"VIC","postalCode":"3207","phone":"(03) 9673 4545","website":"http://www.matildabay.com.au/","hoursOfOperation":"Bar\r\nTues – Thurs: 11am – 10pm\r\nFri – Sat: 11am – 11pm\r\nKitchen\r\nTues – Thurs: 12pm – 3pm /\r\n5pm – 9pm\r\nFri – Sat: 12pm – 10pm \r\nSun – Mon : Closed","latitude":-37.8286099,"longitude":144.9371032,"isPrimary":"Y","inPlanning":"N","isClosed":"N","openToPublic":"Y","locationType":"micro","locationTypeDisplay":"Micro Brewery","countryIsoCode":"AU","status":"verified","statusDisplay":"Verified","createDate":"2012-01-03 02:42:01","updateDate":"2014-07-23 19:11:34","country":{"isoCode":"AU","name":"AUSTRALIA","displayName":"Australia","isoThree":"AUS","numberCode":36,"createDate":"2012-01-03 02:41:33"}},{"id":"8UEqKI","name":"Main Brewery","streetAddress":"10010 Capital of TX Hwy N","locality":"Austin","region":"Texas","postalCode":"78759","phone":"512-467-6969","website":"http://www.nxnwbrew.com/","hoursOfOperation":"Mon - Thu:\t11:00 am - 11:00 pm\r\nFri:\t11:00 am - 12:00 pm\r\nSat:\t10:00 am - 12:00 pm\r\nSun:\t10:00 am - 11:00 am","latitude":30.390756,"longitude":-97.738787,"isPrimary":"Y","inPlanning":"N","isClosed":"N","openToPublic":"Y","locationType":"micro","locationTypeDisplay":"Micro Brewery","countryIsoCode":"US","yearOpened":"1984","status":"verified","statusDisplay":"Verified","createDate":"2012-01-03 02:42:03","updateDate":"2014-07-23 19:11:34","country":{"isoCode":"US","name":"UNITED STATES","displayName":"United States","isoThree":"USA","numberCode":840,"createDate":"2012-01-03 02:41:33"}},{"id":"yEyjRD","name":"Seattle Home Office","streetAddress":"91 S Royal Brougham Way","locality":"Seattle","region":"Washington","postalCode":"98134","phone":"(206) 682-8322","website":"http://www.pyramidbrew.com/","latitude":47.5924,"longitude":-122.3351834,"isPrimary":"N","inPlanning":"N","isClosed":"N","openToPublic":"Y","locationType":"micro","locationTypeDisplay":"Micro Brewery","countryIsoCode":"US","status":"verified","statusDisplay":"Verified","createDate":"2012-01-03 02:42:06","updateDate":"2014-07-23 19:11:34","country":{"isoCode":"US","name":"UNITED STATES","displayName":"United States","isoThree":"USA","numberCode":840,"createDate":"2012-01-03 02:41:33"}},{"id":"h88zok","name":"Berkeley","streetAddress":"901 Gilman Street","locality":"Berkeley","region":"California","postalCode":"94710","phone":"510-528-9880","website":"http://www.pyramidbrew.com/alehouses/berkeley","hoursOfOperation":"Day Dining \r\nMonday - Thursday 11:30am - 10:00pm \r\nFriday 11:30am - 11:00pm \r\nSaturday 11:30am - 11:00pm \r\nSunday 11:30am - 10:00pm","latitude":37.879624,"longitude":-122.300147,"isPrimary":"N","inPlanning":"N","isClosed":"N","openToPublic":"Y","locationType":"micro","locationTypeDisplay":"Micro Brewery","countryIsoCode":"US","status":"verified","statusDisplay":"Verified","createDate":"2012-01-03 02:42:15","updateDate":"2014-07-23 19:11:34","country":{"isoCode":"US","name":"UNITED STATES","displayName":"United States","isoThree":"USA","numberCode":840,"createDate":"2012-01-03 02:41:33"}},{"id":"JRrnyB","name":"Seattle","streetAddress":"1201 First Avenue South","locality":"Seattle","region":"Washington","postalCode":"98134","phone":"206-682-3377","website":"http://www.pyramidbrew.com/alehouses/seattle","hoursOfOperation":"Day Dining \r\nMonday - Thursday 11:00am - 10:00pm \r\nFriday 11:00am - 11:00pm \r\nSaturday 11:00am - 11:00pm \r\nSunday 11:00am - 9:00pm","latitude":47.5920122,"longitude":-122.3346949,"isPrimary":"Y","inPlanning":"N","isClosed":"N","openToPublic":"Y","locationType":"micro","locationTypeDisplay":"Micro Brewery","countryIsoCode":"US","status":"verified","statusDisplay":"Verified","createDate":"2012-01-03 02:42:15","updateDate":"2014-07-23 19:11:34","country":{"isoCode":"US","name":"UNITED STATES","displayName":"United States","isoThree":"USA","numberCode":840,"createDate":"2012-01-03 02:41:33"}},{"id":"dPSuK7","name":"Portland","streetAddress":"2730 NW 31st","locality":"Portland","region":"Oregon","postalCode":"97210","phone":"503-228-5269","website":"http://www.pyramidbrew.com/alehouses/portland","hoursOfOperation":"Monday\t11:00am - 9:00pm\r\nTuesday - Thursday\t11:00am - 10:00pm\r\nFriday\t11:00am - 11:00pm\r\nSaturday\t12:00pm - 11:00pm\r\nSunday\t12:00pm - 9:00pm","latitude":45.541628,"longitude":-122.713737,"isPrimary":"N","inPlanning":"N","isClosed":"N","openToPublic":"Y","locationType":"restaurant","locationTypeDisplay":"Restaurant/Ale House","countryIsoCode":"US","status":"verified","statusDisplay":"Verified","createDate":"2012-08-09 20:13:42","updateDate":"2014-07-23 19:11:34","country":{"isoCode":"US","name":"UNITED STATES","displayName":"United States","isoThree":"USA","numberCode":840,"createDate":"2012-01-03 02:41:33"}},{"id":"FjBiTY","name":"Sacramento","streetAddress":"1029 K Street","locality":"Sacramento","region":"California","postalCode":"95814","phone":"916-498-9800","website":"http://www.pyramidbrew.com/alehouses/sacramento","hoursOfOperation":"Monday - Thursday\t11:30am - 9:00pm\r\nFriday\t11:30am - 11:00pm\r\nSaturday\t12:00pm - 10:00pm\r\nSunday\t12:00pm - 7:00pm","latitude":38.5791177,"longitude":-121.4929869,"isPrimary":"N","inPlanning":"N","isClosed":"Y","openToPublic":"Y","locationType":"micro","locationTypeDisplay":"Micro Brewery","countryIsoCode":"US","yearClosed":"2013","status":"verified","statusDisplay":"Verified","createDate":"2012-08-09 20:14:38","updateDate":"2014-07-23 19:11:34","country":{"isoCode":"US","name":"UNITED STATES","displayName":"United States","isoThree":"USA","numberCode":840,"createDate":"2012-01-03 02:41:33"}},{"id":"s2uWcz","name":"Walnut Creek","streetAddress":"1410 Locust Street","locality":"Walnut Creek","region":"California","postalCode":"94596","phone":"925-946-1520","website":"http://www.pyramidbrew.com/alehouses/walnut-creek","hoursOfOperation":"Monday - Tuesday\t11:30am - 10:00pm\r\nWednesday - Thursday\t11:30am - 10:30pm\r\nFriday - Saturday\t11:30am - 11:00pm\r\nSunday\t11:30am - 10:00pm","latitude":37.8991595,"longitude":-122.0619714,"isPrimary":"N","inPlanning":"N","isClosed":"N","openToPublic":"Y","locationType":"micro","locationTypeDisplay":"Micro Brewery","countryIsoCode":"US","status":"verified","statusDisplay":"Verified","createDate":"2012-08-09 20:15:30","updateDate":"2014-07-23 19:11:34","country":{"isoCode":"US","name":"UNITED STATES","displayName":"United States","isoThree":"USA","numberCode":840,"createDate":"2012-01-03 02:41:33"}},{"id":"SgctbA","name":"Main Brewery","streetAddress":"929 North Russell Street","locality":"Portland","region":"Oregon","postalCode":"97227","phone":"503-281-2437","website":"http://www.widmer.com/","latitude":45.540795,"longitude":-122.675594,"isPrimary":"Y","inPlanning":"N","isClosed":"N","openToPublic":"Y","locationType":"micro","locationTypeDisplay":"Micro Brewery","countryIsoCode":"US","yearOpened":"1984","status":"verified","statusDisplay":"Verified","createDate":"2012-01-03 02:42:13","updateDate":"2014-07-23 19:11:34","country":{"isoCode":"US","name":"UNITED STATES","displayName":"United States","isoThree":"USA","numberCode":840,"createDate":"2012-01-03 02:41:33"}}]