[{"id":"NnffJ2","name":"Main Brewery","streetAddress":"8938 Krum Ave.","locality":"Galesburg","region":"Michigan","postalCode":"49053","phone":"269-382-2338","website":"http://www.bellsbeer.com/","latitude":42.2843486,"longitude":-85.4538497,"isPrimary":"Y","inPlanning":"N","isClosed":"N","openToPublic":"Y","locationType":"micro","locationTypeDisplay":"Micro Brewery","countryIsoCode":"US","yearOpened":"1985","status":"verified","statusDisplay":"Verified","createDate":"2012-01-03 02:41:45","updateDate":"2014-09-25 20:15:04","country":{"isoCode":"US","name":"UNITED STATES","displayName":"United States","isoThree":"USA","numberCode":840,"createDate":"2012-01-03 02:41:33"}},{"id":"uCUre7","name":"Bell's Eccentric Cafe","streetAddress":"355 E Kalamazoo Ave","locality":"Kalamazoo","region":"Michigan","postalCode":"49007","website":"http://bellsbeer.com/eccentric-cafe/","hoursOfOperation":"Mon:  11:00am - 12:00am\nTue:  11:00am - 12:00am\nWed:  11:00am - 12:00am\nThu:  11:00am - 2:00am\nFri:  11:00am - 2:00am\nSat:  11:00am - 2:00am\nSun:  12:00pm - 12:00am\n\nOur kitchen closes daily at 9 p.m.","latitude":42.2949613,"longitude":-85.5789817,"isPrimary":"N","inPlanning":"N","isClosed":"N","openToPublic":"Y","locationType":"brewpub","locationTypeDisplay":"Brewpub","countryIsoCode":"US","yearOpened":"1993","status":"verified","statusDisplay":"Verified","createDate":"2013-09-26 11:44:59","updateDate":"2014-09-25 20:21:54","country":{"isoCode":"US","name":"UNITED STATES","displayName":"United States","isoThree":"USA","numberCode":840,"createDate":"2012-01-03 02:41:33"}},{"id":"HFQ27P","name":"Main Brewery","streetAddress":"701 S. 50th Street","locality":"West Philly","region":"Pennsylvania","postalCode":"19143","phone":"(215)-726-2337","website":"http://www.dockstreetbeer.com","latitude":39.9477956,"longitude":-75.2229305,"isPrimary":"Y","inPlanning":"N","isClosed":"N","openToPublic":"Y","locationType":"micro","locationTypeDisplay":"Micro Brewery","countryIsoCode":"US","status":"verified","statusDisplay":"Verified","createDate":"2012-01-03 02:41:52","updateDate":"2014-07-23 19:11:34","country":{"isoCode":"US","name":"UNITED STATES","displayName":"United States","isoThree":"USA","numberCode":840,"createDate":"2012-01-03 02:41:33"}},{"id":"PxG0KA","name":"McMenamins Mill Creek Brewery","streetAddress":"13300 Bothell-Everett Highway #304","locality":"Mill Creek","region":"Washington","postalCode":"98012","phone":"1-425-316-0520","latitude":47.8763353,"longitude":-122.2124833,"isPrimary":"N","inPlanning":"N","isClosed":"N","openToPublic":"Y","locationType":"micro","locationTypeDisplay":"Micro Brewery","countryIsoCode":"US","status":"verified","statusDisplay":"Verified","createDate":"2012-01-03 02:42:01","updateDate":"2014-07-23 19:11:34","country":{"isoCode":"US","name":"UNITED STATES","displayName":"United States","isoThree":"USA","numberCode":840,"createDate":"2012-01-03 02:41:33"}},{"id":"KrPgRK","name":"Concordia Brewery","streetAddress":"5736 NE 33rd","locality":"Portland","region":"Oregon","postalCode":"97211","phone":"(503) 249-7459","latitude":45.564106,"longitude":-122.630641,"isPrimary":"N","inPlanning":"N","isClosed":"N","openToPublic":"Y","locationType":"micro","locationTypeDisplay":"Micro Brewery","countryIsoCode":"US","yearOpened":"1997","status":"verified","statusDisplay":"Verified","createDate":"2012-10-04 17:40:37","updateDate":"2014-07-23 19:11:34","country":{"isoCode":"US","name":"UNITED STATES","displayName":"United States","isoThree":"USA","numberCode":840,"createDate":"2012-01-03 02:41:33"}},{"id":"xB8Ual","name":"Cornelius Pass Roadhouse Brewery","streetAddress":"4045 NW Cornelius Pass Rd","locality":"Hillsboro","region":"Oregon","postalCode":"97124","phone":"(503) 640-6174","latitude":45.548912,"longitude":-122.899899,"isPrimary":"N","inPlanning":"N","isClosed":"N","openToPublic":"Y","locationType":"micro","locationTypeDisplay":"Micro Brewery","countryIsoCode":"US","status":"verified","statusDisplay":"Verified","createDate":"2012-10-04 17:42:32","updateDate":"2014-07-23 19:11:34","country":{"isoCode":"US","name":"UNITED STATES","displayName":"United States","isoThree":"USA","numberCode":840,"createDate":"2012-01-03 02:41:33"}},{"id":"ZUrIkC","name":"Crystal Ballroom Brewery","streetAddress":"1332 West Burnside","locality":"Portland","region":"Oregon","postalCode":"97205","phone":"(503) 225-0047","latitude":45.522929,"longitude":-122.684721,"isPrimary":"N","inPlanning":"N","isClosed":"N","openToPublic":"Y","locationType":"micro","locationTypeDisplay":"Micro Brewery","countryIsoCode":"US","status":"verified","statusDisplay":"Verified","createDate":"2012-10-04 17:43:17","updateDate":"2014-07-23 19:11:34","country":{"isoCode":"US","name":"UNITED STATES","displayName":"United States","isoThree":"USA","numberCode":840,"createDate":"2012-01-03 02:41:33"}},{"id":"Boa6td","name":"Edgefield Brewery","streetAddress":"2126 SW Halsey Street","locality":"Troutdale","region":"Oregon","postalCode":"97060","phone":"(503) 667-4352","latitude":45.538464,"longitude":-122.408256,"isPrimary":"N","inPlanning":"N","isClosed":"N","openToPublic":"Y","locationType":"micro","locationTypeDisplay":"Micro Brewery","countryIsoCode":"US","status":"verified","statusDisplay":"Verified","createDate":"2012-10-04 17:43:55","updateDate":"2014-07-23 19:11:34","country":{"isoCode":"US","name":"UNITED STATES","displayName":"United States","isoThree":"USA","numberCode":840,"createDate":"2012-01-03 02:41:33"}},{"id":"o8Iv34","name":"Fulton Brewery","streetAddress":"0618 SW Nebraska Street","locality":"Portland","region":"Oregon","postalCode":"97201","phone":"(503) 246-4363","latitude":45.47724,"longitude":-122.672857,"isPrimary":"N","inPlanning":"N","isClosed":"N","openToPublic":"Y","locationType":"micro","locationTypeDisplay":"Micro Brewery","countryIsoCode":"US","status":"verified","statusDisplay":"Verified","createDate":"2012-10-04 17:44:28","updateDate":"2014-07-23 19:11:34","country":{"isoCode":"US","name":"UNITED STATES","displayName":"United States","isoThree":"USA","numberCode":840,"createDate":"2012-01-03 02:41:33"}},{"id":"QS1jCV","name":"Highland Brewery","streetAddress":"4225 SE 182nd Street","locality":"Gresham","region":"Oregon","postalCode":"97030","phone":"(503) 661-7538","latitude":45.491984,"longitude":-122.475544,"isPrimary":"N","inPlanning":"N","isClosed":"N","openToPublic":"Y","locationType":"micro","locationTypeDisplay":"Micro Brewery","countryIsoCode":"US","status":"verified","statusDisplay":"Verified","createDate":"2012-10-04 17:45:07","updateDate":"2014-07-23 19:11:34","country":{"isoCode":"US","name":"UNITED STATES","displayName":"United States","isoThree":"USA","numberCode":840,"createDate":"2012-01-03 02:41:33"}},{"id":"2lkXLw","name":"High Street Brewery","streetAddress":"1243 High Street","locality":"Eugene","region":"Oregon","postalCode":"97401","phone":"(541) 345-4913","latitude":44.046201,"longitude":-123.088201,"isPrimary":"N","inPlanning":"N","isClosed":"N","openToPublic":"Y","locationType":"micro","locationTypeDisplay":"Micro Brewery","countryIsoCode":"US","status":"verified","statusDisplay":"Verified","createDate":"2012-10-04 17:45:42","updateDate":"2014-07-23 19:11:34","country":{"isoCode":"US","name":"UNITED STATES","displayName":"United States","isoThree":"USA","numberCode":840,"createDate":"2012-01-03 02:41:33"}},{"id":"f5TLVN","name":"Hillsdale Brewery","streetAddress":"1505 SW Sunset Blvd.","locality":"Portland","region":"Oregon","postalCode":"97201","phone":"(503) 293-1753","latitude":45.478886,"longitude":-122.693616,"isPrimary":"Y","inPlanning":"N","isClosed":"N","openToPublic":"Y","locationType":"micro","locationTypeDisplay":"Micro Brewery","countryIsoCode":"US","status":"verified","statusDisplay":"Verified","createDate":"2012-10-04 17:46:13","updateDate":"2014-07-23 19:11:34","country":{"isoCode":"US","name":"UNITED STATES","displayName":"United States","isoThree":"USA","numberCode":840,"createDate":"2012-01-03 02:41:33"}},{"id":"HPC9eo","name":"John Barleycorns Brewery","streetAddress":"14610 SW Sequoia Parkway","locality":"Tigard","region":"Oregon","postalCode":"97223","phone":"(503) 684-6253","latitude":45.414278,"longitude":-122.746923,"isPrimary":"N","inPlanning":"N","isClosed":"N","openToPublic":"Y","locationType":"micro","locationTypeDisplay":"Micro Brewery","countryIsoCode":"US","status":"verified","statusDisplay":"Verified","createDate":"2012-10-04 17:46:46","updateDate":"2014-07-23 19:11:34","country":{"isoCode":"US","name":"UNITED STATES","displayName":"United States","isoThree":"USA","numberCode":840,"createDate":"2012-01-03 02:41:33"}},{"id":"tiuxoF","name":"Lighthouse Brewery","streetAddress":"4157 North Highway 101","locality":"Lincoln City","region":"Oregon","postalCode":"97367","phone":"(541) 994-9678","latitude":44.997162,"longitude":-124.001199,"isPrimary":"N","inPlanning":"N","isClosed":"N","openToPublic":"Y","locationType":"micro","locationTypeDisplay":"Micro Brewery","countryIsoCode":"US","status":"verified","statusDisplay":"Verified","createDate":"2012-10-04 17:47:20","updateDate":"2014-07-23 19:11:34","country":{"isoCode":"US","name":"UNITED STATES","displayName":"United States","isoThree":"USA","numberCode":840,"createDate":"2012-01-03 02:41:33"}},{"id":"W2dlxg","name":"McMenamins on Monroe Brewery","streetAddress":"2001 N.W. Monroe Avenue","locality":"Corvallis","region":"Oregon","postalCode":"97330","phone":"(541) 758-0080","latitude":44.56796,"longitude":-123.275199,"isPrimary":"N","inPlanning":"N","isClosed":"N","openToPublic":"Y","locationType":"micro","locationTypeDisplay":"Micro Brewery","countryIsoCode":"US","status":"verified","statusDisplay":"Verified","createDate":"2012-10-04 17:47:52","updateDate":"2014-07-23 19:11:34","country":{"isoCode":"US","name":"UNITED STATES","displayName":"United States","isoThree":"USA","numberCode":840,"createDate":"2012-01-03 02:41:33"}},{"id":"8MMa77","name":"Oak Hills Brewery","streetAddress":"14740 NW Cornell Rd, Ste 80","locality":"Portland","region":"Oregon","postalCode":"97229","phone":"(503) 645-0117","latitude":45.53173,"longitude":-122.829545,"isPrimary":"N","inPlanning":"N","isClosed":"N","openToPublic":"Y","locationType":"micro","locationTypeDisplay":"Micro Brewery","countryIsoCode":"US","status":"verified","statusDisplay":"Verified","createDate":"2012-10-04 17:48:23","updateDate":"2014-07-23 19:11:34","country":{"isoCode":"US","name":"UNITED STATES","displayName":"United States","isoThree":"USA","numberCode":840,"createDate":"2012-01-03 02:41:33"}},{"id":"kg5OGY","name":"Old St. Francis School Brewery","streetAddress":"700 NW Bond Street","locality":"Bend","region":"Oregon","postalCode":"97701","phone":"(541)382-5174","latitude":44.056708,"longitude":-121.314786,"isPrimary":"N","inPlanning":"N","isClosed":"N","openToPublic":"Y","locationType":"micro","locationTypeDisplay":"Micro Brewery","countryIsoCode":"US","status":"verified","statusDisplay":"Verified","createDate":"2012-10-04 17:48:56","updateDate":"2014-07-23 19:11:34","country":{"isoCode":"US","name":"UNITED STATES","displayName":"United States","isoThree":"USA","numberCode":840,"createDate":"2012-01-03 02:41:33"}},{"id":"MzoCPz","name":"Roseburg Station Brewery","streetAddress":"700 SE Sheridan","locality":"Roseburg","region":"Oregon","postalCode":"97470","phone":"(541) 672-5565","latitude":43.209146,"longitude":-123.348227,"isPrimary":"N","inPlanning":"N","isClosed":"N","openToPublic":"Y","locationType":"micro","locationTypeDisplay":"Micro Brewery","countryIsoCode":"US","status":"verified","statusDisplay":"Verified","createDate":"2012-10-04 17:49:27","updateDate":"2014-10-29 16:07:55","country":{"isoCode":"US","name":"UNITED STATES","displayName":"United States","isoThree":"USA","numberCode":840,"createDate":"2012-01-03 02:41:33"}},{"id":"zJX0ZQ","name":"Thompson Brewery","streetAddress":"3575 Liberty Rd South","locality":"Salem","region":"Oregon","postalCode":"97302","phone":"(503) 371-2945","latitude":44.903691,"longitude":-123.051097,"isPrimary":"N","inPlanning":"N","isClosed":"N","openToPublic":"Y","locationType":"micro","locationTypeDisplay":"Micro Brewery","countryIsoCode":"US","status":"verified","statusDisplay":"Verified","createDate":"2012-10-04 17:50:01","updateDate":"2014-07-23 19:11:34","country":{"isoCode":"US","name":"UNITED STATES","displayName":"United States","isoThree":"USA","numberCode":840,"createDate":"2012-01-03 02:41:33"}},{"id":"bdFoir","name":"West Linn Brewery","streetAddress":"2090 SW 8th Avenue","locality":"West Linn","region":"Oregon","postalCode":"97068","phone":"(503) 656-2935","latitude":45.345889,"longitude":-122.652273,"isPrimary":"N","inPlanning":"N","isClosed":"N","openToPublic":"Y","locationType":"micro","locationTypeDisplay":"Micro Brewery","countryIsoCode":"US","status":"verified","statusDisplay":"Verified","createDate":"2012-10-04 17:50:51","updateDate":"2014-07-23 19:11:34","country":{"isoCode":"US","name":"UNITED STATES","displayName":"United States","isoThree":"USA","numberCode":840,"createDate":"2012-01-03 02:41:33"}},{"id":"DwycsI","name":"Wilsonville Brewery","streetAddress":"30340 SW Boones Ferry Road","locality":"Wilsonville","region":"Oregon","postalCode":"97070","phone":"(503) 427-2505","latitude":45.300855,"longitude":-122.773377,"isPrimary":"N","inPlanning":"N","isClosed":"N","openToPublic":"Y","locationType":"micro","locationTypeDisplay":"Micro Brewery","countryIsoCode":"US","status":"verified","statusDisplay":"Verified","createDate":"2012-10-04 17:51:22","updateDate":"2014-07-23 19:11:34","country":{"isoCode":"US","name":"UNITED STATES","displayName":"United States","isoThree":"USA","numberCode":840,"createDate":"2012-01-03 02:41:33"}},{"id":"qGhR1j","name":"East Vancouver Brewery","streetAddress":"1900 NE 162nd, Bldg. 107","locality":"Vancouver","region":"Washington","postalCode":"98684","phone":"(360) 254-3992","latitude":45.636961,"longitude":-122.506119,"isPrimary":"N","inPlanning":"N","isClosed":"N","openToPublic":"Y","locationType":"micro","locationTypeDisplay":"Micro Brewery","countryIsoCode":"US","status":"verified","statusDisplay":"Verified","createDate":"2012-10-04 17:52:02","updateDate":"2014-07-23 19:11:34","country":{"isoCode":"US","name":"UNITED STATES","displayName":"United States","isoThree":"USA","numberCode":840,"createDate":"2012-01-03 02:41:33"}},{"id":"SaQFBA","name":"McMenamins on the Columbia Brewery","streetAddress":"1801 SE Columbia River Dr.","locality":"Vancouver","region":"Washington","postalCode":"98661","phone":"(360) 699-1521","latitude":45.615604,"longitude":-122.653216,"isPrimary":"N","inPlanning":"N","isClosed":"N","openToPublic":"Y","locationType":"micro","locationTypeDisplay":"Micro Brewery","countryIsoCode":"US","status":"verified","statusDisplay":"Verified","createDate":"2012-10-04 17:52:34","updateDate":"2014-07-23 19:11:34","country":{"isoCode":"US","name":"UNITED STATES","displayName":"United States","isoThree":"USA","numberCode":840,"createDate":"2012-01-03 02:41:33"}},{"id":"4u93Kb","name":"McMenamins Mill Creek Brewery","streetAddress":"13300 Bothell-Everett Hwy, Ste. 304","locality":"Mill Creek","region":"Washington","postalCode":"98012","phone":"(425) 316-0520","latitude":47.876421,"longitude":-122.21237,"isPrimary":"N","inPlanning":"N","isClosed":"N","openToPublic":"Y","locationType":"micro","locationTypeDisplay":"Micro Brewery","countryIsoCode":"US","status":"verified","statusDisplay":"Verified","createDate":"2012-10-04 17:53:08","updateDate":"2014-07-23 19:11:34","country":{"isoCode":"US","name":"UNITED STATES","displayName":"United States","isoThree":"USA","numberCode":840,"createDate":"2012-01-03 02:41:33"}},{"id":"hDrrU2","name":"McMenamins Queen Anne","streetAddress":"200 Roy Street, Ste. 105","locality":"Seattle","region":"Washington","postalCode":"98109","phone":"(206) 285-4722","latitude":47.625476,"longitude":-122.352649,"isPrimary":"N","inPlanning":"N","isClosed":"N","openToPublic":"Y","locationType":"micro","locationTypeDisplay":"Micro Brewery","countryIsoCode":"US","status":"verified","statusDisplay":"Verified","createDate":"2012-10-04 17:53:39","updateDate":"2014-07-23 19:11:34","country":{"isoCode":"US","name":"UNITED STATES","displayName":"United States","isoThree":"USA","numberCode":840,"createDate":"2012-01-03 02:41:33"}},{"id":"JXafdT","name":"Olympic Club Brewery","streetAddress":"112 North Tower Ave.","locality":"Centralia","region":"Washington","postalCode":"98531","phone":"(360) 736-5164","latitude":46.716442,"longitude":-122.954259,"isPrimary":"N","inPlanning":"N","isClosed":"N","openToPublic":"Y","locationType":"micro","locationTypeDisplay":"Micro Brewery","countryIsoCode":"US","status":"verified","statusDisplay":"Verified","createDate":"2012-10-04 17:54:09","updateDate":"2014-07-23 19:11:34","country":{"isoCode":"US","name":"UNITED STATES","displayName":"United States","isoThree":"USA","numberCode":840,"createDate":"2012-01-03 02:41:33"}},{"id":"vrJTmu","name":"Six Arms Brewery","streetAddress":"300 E. Pike Street","locality":"Seattle","region":"Washington","postalCode":"98122","phone":"(206) 223-1698","latitude":47.61396,"longitude":-122.327721,"isPrimary":"N","inPlanning":"N","isClosed":"N","openToPublic":"Y","locationType":"micro","locationTypeDisplay":"Micro Brewery","countryIsoCode":"US","status":"verified","statusDisplay":"Verified","createDate":"2012-10-04 17:54:43","updateDate":"2014-07-23 19:11:34","country":{"isoCode":"US","name":"UNITED STATES","displayName":"United States","isoThree":"USA","numberCode":840,"createDate":"2012-01-03 02:41:33"}},{"id":"YB2HwL","name":"Spar Brewery","streetAddress":"114 4th Ave. E.","locality":"Olympia","region":"Washington","postalCode":"98501","phone":"(360) 357-6444","latitude":47.04493,"longitude":-122.901399,"isPrimary":"N","inPlanning":"N","isClosed":"N","openToPublic":"Y","locationType":"micro","locationTypeDisplay":"Micro Brewery","countryIsoCode":"US","status":"verified","statusDisplay":"Verified","createDate":"2012-10-04 17:55:13","updateDate":"2014-07-23 19:11:34","country":{"isoCode":"US","name":"UNITED STATES","displayName":"United States","isoThree":"USA","numberCode":840,"createDate":"2012-01-03 02:41:33"}},{"id":"WMRYG9","name":"Main Brewery","streetAddress":"835 48th Avenue","locality":"Amana","region":"Iowa","postalCode":"52203","phone":"319-622-3672","website":"http://www.millstreambrewing.com/","latitude":41.7972257,"longitude":-91.8651594,"isPrimary":"Y","inPlanning":"N","isClosed":"N","openToPublic":"Y","locationType":"micro","locationTypeDisplay":"Micro Brewery","countryIsoCode":"US","yearOpened":"1985","status":"verified","statusDisplay":"Verified","createDate":"2012-01-03 02:42:02","updateDate":"2014-07-23 19:11:34","country":{"isoCode":"US","name":"UNITED STATES","displayName":"United States","isoThree":"USA","numberCode":840,"createDate":"2012-01-03 02:41:33"}},{"id":"nOGSV5","name":"Main Brewery","streetAddress":"Marstall 2 Höhe 28","locality":"Braunschweig","region":"Niedersachsen","postalCode":"D-38100","latitude":52.265435,"longitude":10.52736,"isPrimary":"N","inPlanning":"N","isClosed":"N","openToPublic":"Y","locationType":"micro","locationTypeDisplay":"Micro Brewery","countryIsoCode":"DE","status":"verified","statusDisplay":"Verified","createDate":"2012-08-12 14:47:40","updateDate":"2014-07-23 19:11:34","country":{"isoCode":"DE","name":"GERMANY","displayName":"Germany","isoThree":"DEU","numberCode":276,"createDate":"2012-01-03 02:41:33"}},{"id":"pcrctk","name":"Main Brewery","streetAddress":"701 West Glendale Avenue","locality":"Glendale","region":"Wisconsin","postalCode":"53209","phone":"414-964-2739","website":"http://www.sprecherbrewery.com/","hoursOfOperation":"Mon - Sun: 11:00 am - 6:00 pm","latitude":43.100231,"longitude":-87.919893,"isPrimary":"Y","inPlanning":"N","isClosed":"N","openToPublic":"Y","locationType":"micro","locationTypeDisplay":"Micro Brewery","countryIsoCode":"US","yearOpened":"1985","status":"verified","statusDisplay":"Verified","createDate":"2012-01-03 02:42:08","updateDate":"2014-07-23 19:11:34","country":{"isoCode":"US","name":"UNITED STATES","displayName":"United States","isoThree":"USA","numberCode":840,"createDate":"2012-01-03 02:41:33"}},{"id":"8JV9HT","name":"Main Brewery","streetAddress":"Amalienbadstraße 16 Durlach","locality":"Karlsruhe","region":"Baden-Württemberg","postalCode":"D-76227","latitude":48.999151,"longitude":8.473525,"isPrimary":"N","inPlanning":"N","isClosed":"N","openToPublic":"Y","locationType":"micro","locationTypeDisplay":"Micro Brewery","countryIsoCode":"DE","status":"verified","statusDisplay":"Verified","createDate":"2012-08-12 14:45:40","updateDate":"2014-07-23 19:11:34","country":{"isoCode":"DE","name":"GERMANY","displayName":"Germany","isoThree":"DEU","numberCode":276,"createDate":"2012-01-03 02:41:33"}},{"id":"IpDosf","name":"Main Brewery","streetAddress":"950 Woodlawn Road West","locality":"Guelph","region":"Ontario","postalCode":"N1K 1B8","phone":"519-837-2337","website":"http://www.wellingtonbrewery.ca/","latitude":43.5329832,"longitude":-80.321633,"isPrimary":"Y","inPlanning":"N","isClosed":"N","openToPublic":"Y","locationType":"micro","locationTypeDisplay":"Micro Brewery","countryIsoCode":"CA","yearOpened":"1985","status":"verified","statusDisplay":"Verified","createDate":"2012-01-03 02:42:12","updateDate":"2014-07-23 19:11:34","country":{"isoCode":"CA","name":"CANADA","displayName":"Canada","isoThree":"CAN","numberCode":124,"createDate":"2012-01-03 02:41:33"}},{"id":"dMbTUT","name":"Main Brewery","streetAddress":"115 St. Paul St.","locality":"Burlington","region":"Vermont","postalCode":"05401","phone":"802-861-2999","website":"http://www.americanflatbread.com/restaurants/burlington-vt/","latitude":44.476553,"longitude":-73.214154,"isPrimary":"Y","inPlanning":"N","isClosed":"N","openToPublic":"Y","locationType":"brewpub","locationTypeDisplay":"Brewpub","countryIsoCode":"US","yearOpened":"1985","status":"verified","statusDisplay":"Verified","createDate":"2012-01-03 02:42:13","updateDate":"2014-07-23 19:11:34","country":{"isoCode":"US","name":"UNITED STATES","displayName":"United States","isoThree":"USA","numberCode":840,"createDate":"2012-01-03 02:41:33"}}]