[{"id":"rGUQ04","name":"Main Brewery","streetAddress":"17700 Boonville Rd","locality":"Boonville","region":"California","postalCode":"95415","phone":"800-207-2337","website":"http://www.avbc.com/","hoursOfOperation":"Mon:  11:00am - 6:00pm\nTue:  11:00am - 6:00pm\nWed:  11:00am - 6:00pm\nThu:  11:00am - 6:00pm\nFri:  11:00am - 7:00pm\nSat:  11:00am - 6:00pm\nSun:  11:00am - 6:00pm\n\nMon - Thu: 11:00 am - 6:00 pm\r\nFri: 11:00 am - 7:00 pm\r\nSat - Sun: 11:00 am - 6:00 pm","latitude":39.001384,"longitude":-123.356081,"isPrimary":"Y","inPlanning":"N","isClosed":"N","openToPublic":"Y","locationType":"micro","locationTypeDisplay":"Micro Brewery","countryIsoCode":"US","status":"verified","statusDisplay":"Verified","createDate":"2012-01-03 02:41:44","updateDate":"2014-08-25 19:12:46","country":{"isoCode":"US","name":"UNITED STATES","displayName":"United States","isoThree":"USA","numberCode":840,"createDate":"2012-01-03 02:41:33"}},{"id":"4tR12q","name":"Main Brewery","streetAddress":"1507 Montana Street","locality":"Missoula","region":"Montana","postalCode":"59801","phone":"406-721-1482","website":"http://bayernbrewery.com/","latitude":46.872604,"longitude":-114.020046,"isPrimary":"Y","inPlanning":"N","isClosed":"N","openToPublic":"Y","locationType":"micro","locationTypeDisplay":"Micro Brewery","countryIsoCode":"US","yearOpened":"1987","status":"verified","statusDisplay":"Verified","createDate":"2012-01-03 02:41:45","updateDate":"2014-07-23 19:11:34","country":{"isoCode":"US","name":"UNITED STATES","displayName":"United States","isoThree":"USA","numberCode":840,"createDate":"2012-01-03 02:41:33"}},{"id":"wHJuVN","name":"Main Brewery","streetAddress":"4017 80th Street","locality":"Kenosha","region":"Wisconsin","postalCode":"53142","latitude":42.55827,"longitude":-87.856906,"isPrimary":"Y","inPlanning":"N","isClosed":"Y","openToPublic":"Y","locationType":"micro","locationTypeDisplay":"Micro Brewery","countryIsoCode":"US","yearOpened":"1987","status":"verified","statusDisplay":"Verified","createDate":"2012-01-03 02:41:48","updateDate":"2014-07-23 19:11:34","country":{"isoCode":"US","name":"UNITED STATES","displayName":"United States","isoThree":"USA","numberCode":840,"createDate":"2012-01-03 02:41:33"}},{"id":"KaF5RS","name":"Main Brewery","streetAddress":"58 South Main","extendedAddress":"PO Box 457","locality":"White River Junction","region":"Vermont","postalCode":"05001","latitude":43.6466224,"longitude":-72.3186728,"isPrimary":"Y","inPlanning":"N","isClosed":"Y","openToPublic":"Y","locationType":"micro","locationTypeDisplay":"Micro Brewery","countryIsoCode":"US","yearOpened":"1987","status":"verified","statusDisplay":"Verified","createDate":"2012-01-03 02:41:50","updateDate":"2014-07-23 19:11:34","country":{"isoCode":"US","name":"UNITED STATES","displayName":"United States","isoThree":"USA","numberCode":840,"createDate":"2012-01-03 02:41:33"}},{"id":"Wa2g8c","name":"Main Brewery","streetAddress":"560 Gordon Road","locality":"Sturgeon Bay","region":"Wisconsin","postalCode":"54235","latitude":44.86077,"longitude":-87.342899,"isPrimary":"Y","inPlanning":"N","isClosed":"Y","openToPublic":"Y","locationType":"micro","locationTypeDisplay":"Micro Brewery","countryIsoCode":"US","yearOpened":"1987","status":"verified","statusDisplay":"Verified","createDate":"2012-01-03 02:41:50","updateDate":"2014-07-23 19:11:34","country":{"isoCode":"US","name":"UNITED STATES","displayName":"United States","isoThree":"USA","numberCode":840,"createDate":"2012-01-03 02:41:33"}},{"id":"0fVPvA","name":"Main Brewery","streetAddress":"209 Lakeside Avenue","locality":"Coeur D'Alene","region":"Idaho","postalCode":"83814","phone":"208-664-2739","website":"http://www.cdabrewing.com/","latitude":47.674381,"longitude":-116.783824,"isPrimary":"Y","inPlanning":"N","isClosed":"Y","openToPublic":"Y","locationType":"micro","locationTypeDisplay":"Micro Brewery","countryIsoCode":"US","yearOpened":"1987","status":"verified","statusDisplay":"Verified","createDate":"2012-01-03 02:41:51","updateDate":"2014-07-23 19:11:34","country":{"isoCode":"US","name":"UNITED STATES","displayName":"United States","isoThree":"USA","numberCode":840,"createDate":"2012-01-03 02:41:33"}},{"id":"nfCnxu","name":"Main Brewery","streetAddress":"139 Mill Street","locality":"Creemore","region":"Ontario","postalCode":"L0M 1G0","phone":"1-800-267-2240","website":"http://www.creemoresprings.com/","hoursOfOperation":"Free tours every day at 12 noon, 1 pm, 2 pm, 3 pm and 4 pm. Tours are about 30 to 35 min.\r\n\r\nMonday to Saturday\t - 10:00 am to 6:00 pm\r\nFriday (for summer)\t - 10:00 am to 8:00 pm\r\nSunday\t - 11:00 am to 5:00 pm","latitude":44.3252655,"longitude":-80.1057855,"isPrimary":"Y","inPlanning":"N","isClosed":"N","openToPublic":"Y","locationType":"micro","locationTypeDisplay":"Micro Brewery","countryIsoCode":"CA","yearOpened":"1987","status":"verified","statusDisplay":"Verified","createDate":"2012-01-03 02:41:51","updateDate":"2014-07-23 19:11:34","country":{"isoCode":"CA","name":"CANADA","displayName":"Canada","isoThree":"CAN","numberCode":124,"createDate":"2012-01-03 02:41:33"}},{"id":"8Jyw2B","name":"Main Brewery","streetAddress":"506 Columbia Street","locality":"Hood River","region":"Oregon","postalCode":"97031","phone":"541-386-2281","website":"http://www.fullsailbrewing.com/","latitude":45.7102923,"longitude":-121.5154253,"isPrimary":"Y","inPlanning":"N","isClosed":"N","openToPublic":"Y","locationType":"micro","locationTypeDisplay":"Micro Brewery","countryIsoCode":"US","yearOpened":"1987","status":"verified","statusDisplay":"Verified","createDate":"2012-01-03 02:41:55","updateDate":"2014-07-23 19:11:34","country":{"isoCode":"US","name":"UNITED STATES","displayName":"United States","isoThree":"USA","numberCode":840,"createDate":"2012-01-03 02:41:33"}},{"id":"ZlneD1","name":"Main Brewery","streetAddress":"2442 Main Street","locality":"Lake Placid","region":"New York","postalCode":"12946","phone":"518-523-4654","website":"http://www.greatadirondacksteakandseafood.com/","latitude":44.290266,"longitude":-73.985534,"isPrimary":"Y","inPlanning":"N","isClosed":"N","openToPublic":"Y","locationType":"brewpub","locationTypeDisplay":"Brewpub","countryIsoCode":"US","yearOpened":"1987","status":"verified","statusDisplay":"Verified","createDate":"2012-01-03 02:41:56","updateDate":"2014-07-23 19:11:34","country":{"isoCode":"US","name":"UNITED STATES","displayName":"United States","isoThree":"USA","numberCode":840,"createDate":"2012-01-03 02:41:33"}},{"id":"WJa7QV","name":"Main Brewery","streetAddress":"30 Queen Elizabeth Blvd","locality":"Toronto","region":"Ontario","postalCode":"M8Z 1L8","phone":"800-463-5435","website":"http://www.greatlakesbeer.com/","latitude":43.6224783,"longitude":-79.5050868,"isPrimary":"Y","inPlanning":"N","isClosed":"N","openToPublic":"Y","locationType":"micro","locationTypeDisplay":"Micro Brewery","countryIsoCode":"CA","yearOpened":"1987","status":"verified","statusDisplay":"Verified","createDate":"2012-01-03 02:41:56","updateDate":"2014-07-23 19:11:34","country":{"isoCode":"CA","name":"CANADA","displayName":"Canada","isoThree":"CAN","numberCode":124,"createDate":"2012-01-03 02:41:33"}},{"id":"KAiRTh","name":"Main Brewery","streetAddress":"1400 Ramada Drive","locality":"Paso Robles","region":"California","postalCode":"93446","phone":"(805) 686-1557","website":"http://www.humboldtbrewingco.com/","latitude":35.595325,"longitude":-120.693728,"isPrimary":"Y","inPlanning":"N","isClosed":"N","openToPublic":"Y","locationType":"micro","locationTypeDisplay":"Micro Brewery","countryIsoCode":"US","yearOpened":"1987","status":"verified","statusDisplay":"Verified","createDate":"2012-01-03 02:42:03","updateDate":"2014-07-23 19:11:34","country":{"isoCode":"US","name":"UNITED STATES","displayName":"United States","isoThree":"USA","numberCode":840,"createDate":"2012-01-03 02:41:33"}},{"id":"6GpUy6","name":"L'Inox","streetAddress":"655, Grande Allée Est","locality":"Québec","region":"Québec","postalCode":"g1r2k4","phone":"1-418-692-2877","website":"http://www.inox.qc.ca/","hoursOfOperation":"Mon - Sun: 12:00 pm - 3:00 am","latitude":46.8061634,"longitude":-71.2162567,"isPrimary":"Y","inPlanning":"N","isClosed":"N","openToPublic":"Y","locationType":"brewpub","locationTypeDisplay":"Brewpub","countryIsoCode":"CA","status":"verified","statusDisplay":"Verified","createDate":"2013-07-03 14:59:34","updateDate":"2014-07-23 19:11:34","country":{"isoCode":"CA","name":"CANADA","displayName":"Canada","isoThree":"CAN","numberCode":124,"createDate":"2012-01-03 02:41:33"}},{"id":"ksUh6Y","name":"Main Brewery","streetAddress":"1872 North Commerce Street","locality":"Milwaukee","region":"Wisconsin","postalCode":"53212","phone":"414-372-8800","website":"http://www.lakefrontbrewery.com/","hoursOfOperation":"See Website: http://www.lakefrontbrewery.com/details_details.html","latitude":43.055092,"longitude":-87.905281,"isPrimary":"Y","inPlanning":"N","isClosed":"N","openToPublic":"Y","locationType":"micro","locationTypeDisplay":"Micro Brewery","countryIsoCode":"US","yearOpened":"1987","status":"verified","statusDisplay":"Verified","createDate":"2012-01-03 02:42:00","updateDate":"2014-07-23 19:11:34","country":{"isoCode":"US","name":"UNITED STATES","displayName":"United States","isoThree":"USA","numberCode":840,"createDate":"2012-01-03 02:41:33"}},{"id":"b58sGA","name":"Main Brewery","streetAddress":"Kirchwinkel 10","locality":"Höxter-Ottbergen","region":"Nordrhein-Westfalen","postalCode":"D-37671","latitude":51.707616,"longitude":9.305322,"isPrimary":"N","inPlanning":"N","isClosed":"N","openToPublic":"Y","locationType":"micro","locationTypeDisplay":"Micro Brewery","countryIsoCode":"DE","status":"verified","statusDisplay":"Verified","createDate":"2012-08-12 14:46:17","updateDate":"2014-07-23 19:11:34","country":{"isoCode":"DE","name":"GERMANY","displayName":"Germany","isoThree":"DEU","numberCode":276,"createDate":"2012-01-03 02:41:33"}},{"id":"DKKdmm","name":"Main Brewery","streetAddress":"Kirchwinkel 10","locality":"Höxter-Ottbergen","postalCode":"37671","latitude":51.77347,"longitude":9.38252,"isPrimary":"Y","inPlanning":"N","isClosed":"N","openToPublic":"Y","locationType":"micro","locationTypeDisplay":"Micro Brewery","countryIsoCode":"DE","status":"verified","statusDisplay":"Verified","createDate":"2012-08-16 14:10:34","updateDate":"2014-07-23 19:11:34","country":{"isoCode":"DE","name":"GERMANY","displayName":"Germany","isoThree":"DEU","numberCode":276,"createDate":"2012-01-03 02:41:33"}},{"id":"hLk7hD","name":"Main Brewery","streetAddress":"11 Brewster Court","locality":"Northampton","region":"Massachusetts","postalCode":"01060","phone":"413-584-9903","website":"http://northamptonbrewery.com/","latitude":42.317425,"longitude":-72.630258,"isPrimary":"Y","inPlanning":"N","isClosed":"N","openToPublic":"Y","locationType":"brewpub","locationTypeDisplay":"Brewpub","countryIsoCode":"US","yearOpened":"1987","status":"verified","statusDisplay":"Verified","createDate":"2012-01-03 02:42:03","updateDate":"2014-07-23 19:11:34","country":{"isoCode":"US","name":"UNITED STATES","displayName":"United States","isoThree":"USA","numberCode":840,"createDate":"2012-01-03 02:41:33"}},{"id":"DrFlD0","name":"Carlsbad","streetAddress":"571 Carlsbad Village Dr.","locality":"Carlsbad","region":"California","postalCode":"92008","phone":"760-720-7007","website":"http://www.pizzaport.com/locations/carlsbad/","latitude":33.1596505,"longitude":-117.3478111,"isPrimary":"N","inPlanning":"N","isClosed":"N","openToPublic":"Y","locationType":"brewpub","locationTypeDisplay":"Brewpub","countryIsoCode":"US","yearOpened":"1997","status":"verified","statusDisplay":"Verified","createDate":"2012-01-03 02:42:15","updateDate":"2014-07-23 19:11:34","country":{"isoCode":"US","name":"UNITED STATES","displayName":"United States","isoThree":"USA","numberCode":840,"createDate":"2012-01-03 02:41:33"}},{"id":"qAyZMR","name":"Solana Beach","streetAddress":"135 N. Highway 101","locality":"Solana Beach","region":"California","postalCode":"92075","phone":"858-481-7332","website":"http://www.pizzaport.com/category-s/1820.htm","hoursOfOperation":"Sun - Thur - 11am - 10pm\r\nFri - Sat. - 11am - Midnight","latitude":32.992923,"longitude":-117.272216,"isPrimary":"N","inPlanning":"N","isClosed":"N","openToPublic":"Y","locationType":"brewpub","locationTypeDisplay":"Brewpub","countryIsoCode":"US","yearOpened":"1987","status":"verified","statusDisplay":"Verified","createDate":"2012-01-03 02:42:15","updateDate":"2014-07-23 19:11:34","country":{"isoCode":"US","name":"UNITED STATES","displayName":"United States","isoThree":"USA","numberCode":840,"createDate":"2012-01-03 02:41:33"}},{"id":"2uocba","name":"Ocean Beach","streetAddress":"1956 Bacon St.","locality":"Ocean Beach","region":"California","postalCode":"92107","phone":"619-224-4700","website":"http://www.pizzaport.com/category-s/1819.htm","hoursOfOperation":"Sun – Thur: 11am – 10pm\r\nFri - Sat: 11am - Midnight","latitude":32.7479309,"longitude":-117.2502992,"isPrimary":"N","inPlanning":"N","isClosed":"N","openToPublic":"Y","locationType":"brewpub","locationTypeDisplay":"Brewpub","countryIsoCode":"US","yearOpened":"2010","status":"verified","statusDisplay":"Verified","createDate":"2012-07-15 12:15:08","updateDate":"2014-07-23 19:11:34","country":{"isoCode":"US","name":"UNITED STATES","displayName":"United States","isoThree":"USA","numberCode":840,"createDate":"2012-01-03 02:41:33"}},{"id":"fEXQl1","name":"San Clemente","streetAddress":"301 N. El Camino Real","locality":"San Clemente","region":"California","postalCode":"92672","phone":"949-940-0005","website":"http://www.pizzaport.com/category-s/1821.htm","hoursOfOperation":"Sun - Thur - 11am - 10pm\r\nFri - Sat. - 11am - 11pm","latitude":33.4287496,"longitude":-117.6135563,"isPrimary":"N","inPlanning":"N","isClosed":"N","openToPublic":"Y","locationType":"brewpub","locationTypeDisplay":"Brewpub","countryIsoCode":"US","yearOpened":"2003","status":"verified","statusDisplay":"Verified","createDate":"2012-07-15 12:16:00","updateDate":"2014-07-23 19:11:34","country":{"isoCode":"US","name":"UNITED STATES","displayName":"United States","isoThree":"USA","numberCode":840,"createDate":"2012-01-03 02:41:33"}},{"id":"BAGW0w","name":"Pizza Port Bressi Ranch","streetAddress":"2730 Gateway Rd","locality":"Carlsbad","region":"CA","postalCode":"92009","phone":"760-707-1655","hoursOfOperation":"Mon - Thu: 11:00 am - 10:00 pm\r\nFri - Sat: 11:00 am - 11:00 pm\r\nSun: 11:00 am - 10:00 pm","latitude":33.1281592,"longitude":-117.2514615,"isPrimary":"N","inPlanning":"N","isClosed":"N","openToPublic":"Y","locationType":"production","locationTypeDisplay":"Production Facility","countryIsoCode":"US","yearOpened":"2013","status":"verified","statusDisplay":"Verified","createDate":"2013-08-09 14:35:06","updateDate":"2014-07-23 19:11:34","country":{"isoCode":"US","name":"UNITED STATES","displayName":"United States","isoThree":"USA","numberCode":840,"createDate":"2012-01-03 02:41:33"}},{"id":"m3Fcel","name":"Main Brewery","streetAddress":"2320 SE OSU Drive","locality":"Newport","region":"Oregon","postalCode":"97365","phone":"1-541-867-3664","website":"http://www.rogue.com/","latitude":44.620173,"longitude":-124.0520565,"isPrimary":"Y","inPlanning":"N","isClosed":"N","openToPublic":"Y","locationType":"micro","locationTypeDisplay":"Micro Brewery","countryIsoCode":"US","yearOpened":"1988","status":"verified","statusDisplay":"Verified","createDate":"2012-01-03 02:42:07","updateDate":"2014-07-23 19:11:34","country":{"isoCode":"US","name":"UNITED STATES","displayName":"United States","isoThree":"USA","numberCode":840,"createDate":"2012-01-03 02:41:33"}},{"id":"N39Q0L","name":"Main Brewery","streetAddress":"2004 Capitol Avenue","locality":"Sacramento","region":"California","postalCode":"95814","phone":"916-448-7032","website":"http://www.rubiconbrewing.com/","hoursOfOperation":"Monday - Thrusday: 11am to 11:30pm\r\nFriday & Saturday: 11am to 12:30am\r\nSunday: 11am to 10pm","latitude":38.573116,"longitude":-121.480958,"isPrimary":"Y","inPlanning":"N","isClosed":"N","openToPublic":"Y","locationType":"micro","locationTypeDisplay":"Micro Brewery","countryIsoCode":"US","yearOpened":"1987","status":"verified","statusDisplay":"Verified","createDate":"2012-01-03 02:42:07","updateDate":"2014-07-23 19:11:34","country":{"isoCode":"US","name":"UNITED STATES","displayName":"United States","isoThree":"USA","numberCode":840,"createDate":"2012-01-03 02:41:33"}},{"id":"S8Vx8T","name":"Main Brewery","streetAddress":"180 Old Hume Hwy","locality":"Picton","region":"NSW","postalCode":"2571","phone":"+61 2 4677 1415","latitude":-34.319477,"longitude":150.577972,"isPrimary":"Y","inPlanning":"N","isClosed":"N","openToPublic":"Y","locationType":"micro","locationTypeDisplay":"Micro Brewery","countryIsoCode":"AU","status":"verified","statusDisplay":"Verified","createDate":"2012-01-03 02:42:07","updateDate":"2014-07-23 19:11:34","country":{"isoCode":"AU","name":"AUSTRALIA","displayName":"Australia","isoThree":"AUS","numberCode":36,"createDate":"2012-01-03 02:41:33"}},{"id":"aUAUxp","name":"Main Brewery","streetAddress":"2800 North Reading Road","locality":"Adamstown","region":"Pennsylvania","postalCode":"19501","phone":"(717) 484-4386","website":"http://www.stoudtsbeer.com/brewery.html","hoursOfOperation":"Ed Stoudt's free tour: Sat. 3 pm and Sun. 1 pm","latitude":40.2422441,"longitude":-76.0540026,"isPrimary":"Y","inPlanning":"N","isClosed":"N","openToPublic":"Y","locationType":"micro","locationTypeDisplay":"Micro Brewery","countryIsoCode":"US","status":"verified","statusDisplay":"Verified","createDate":"2012-01-03 02:42:09","updateDate":"2014-07-23 19:11:34","country":{"isoCode":"US","name":"UNITED STATES","displayName":"United States","isoThree":"USA","numberCode":840,"createDate":"2012-01-03 02:41:33"}},{"id":"A8ZfiN","name":"Main Brewery","streetAddress":"Calwer Straße 31","region":"Stuttgart","postalCode":"70173","phone":"011 49 711/22249440","website":"http://www.calwereck.de/","hoursOfOperation":"Mon - Thu:\t11:00 am\t-\t12:00 am\r\nFri:\t11:00 am\t-\t1:00 am\r\nSat:\t10:00 am\t-\t1:00 am\r\nSun:\t10:00 am\t-\t12:00 am","latitude":48.776005,"longitude":9.17993,"isPrimary":"Y","inPlanning":"N","isClosed":"N","openToPublic":"Y","locationType":"micro","locationTypeDisplay":"Micro Brewery","countryIsoCode":"DE","status":"verified","statusDisplay":"Verified","createDate":"2012-08-08 17:01:04","updateDate":"2014-07-23 19:11:34","country":{"isoCode":"DE","name":"GERMANY","displayName":"Germany","isoThree":"DEU","numberCode":276,"createDate":"2012-01-03 02:41:33"}},{"id":"j992Kw","name":"Main Brewery","streetAddress":"Steingasse 9","locality":"Heidelberg","region":"Baden-Württemberg","postalCode":"69117","phone":"+49-6221-165850","website":"http://www.brauhaus-vetter.de/","hoursOfOperation":"Su-Th 1130-Midn; Fr-Sa 1130-0200","latitude":49.4127,"longitude":8.70981,"isPrimary":"Y","inPlanning":"N","isClosed":"N","openToPublic":"Y","locationType":"brewpub","locationTypeDisplay":"Brewpub","countryIsoCode":"DE","yearOpened":"1987","status":"verified","statusDisplay":"Verified","createDate":"2012-01-03 02:42:12","updateDate":"2014-07-23 19:11:34","country":{"isoCode":"DE","name":"GERMANY","displayName":"Germany","isoThree":"DEU","numberCode":276,"createDate":"2012-01-03 02:41:33"}},{"id":"2Mhg8t","name":"Main Brewery","streetAddress":"153 Pond Lane","locality":"Middlebury","region":"Vermont","postalCode":"05753","phone":"802-388-0700","website":"http://www.wyders.com/","latitude":44.034351,"longitude":-73.173546,"isPrimary":"Y","inPlanning":"N","isClosed":"N","openToPublic":"Y","locationType":"micro","locationTypeDisplay":"Micro Brewery","countryIsoCode":"US","yearOpened":"1987","status":"verified","statusDisplay":"Verified","createDate":"2012-01-03 02:42:13","updateDate":"2014-07-23 19:11:34","country":{"isoCode":"US","name":"UNITED STATES","displayName":"United States","isoThree":"USA","numberCode":840,"createDate":"2012-01-03 02:41:33"}},{"id":"qeYTCJ","name":"Main Brewpub","streetAddress":"Fahrstrasse 67","locality":"Babenhausen","region":"Hesse","postalCode":"64832","latitude":49.964468,"longitude":8.950948,"isPrimary":"Y","inPlanning":"N","isClosed":"N","openToPublic":"Y","locationType":"brewpub","locationTypeDisplay":"Brewpub","countryIsoCode":"DE","status":"verified","statusDisplay":"Verified","createDate":"2012-08-13 11:22:48","updateDate":"2014-07-23 19:11:34","country":{"isoCode":"DE","name":"GERMANY","displayName":"Germany","isoThree":"DEU","numberCode":276,"createDate":"2012-01-03 02:41:33"}}]