[{"id":"zc8xpQ","name":"Main Brewery","streetAddress":"4133 University Way NE","locality":"Seattle","region":"Washington","postalCode":"98105","phone":"206-545-4509","website":"http://www.bigtimebrewery.com/","latitude":47.657576,"longitude":-122.313216,"isPrimary":"Y","inPlanning":"N","isClosed":"N","openToPublic":"Y","locationType":"micro","locationTypeDisplay":"Micro Brewery","countryIsoCode":"US","yearOpened":"1988","status":"verified","statusDisplay":"Verified","createDate":"2012-01-03 02:41:46","updateDate":"2014-07-23 19:11:34","country":{"isoCode":"US","name":"UNITED STATES","displayName":"United States","isoThree":"USA","numberCode":840,"createDate":"2012-01-03 02:41:33"}},{"id":"79E0Ty","name":"Main Brewery","streetAddress":"Rue Préal 8","locality":"Soy","region":"Luxembourg","postalCode":"6997","phone":"+32 86 47 70 44","website":"http://www.fantome.be/","latitude":50.28564,"longitude":5.51107,"isPrimary":"Y","inPlanning":"N","isClosed":"N","openToPublic":"Y","locationType":"micro","locationTypeDisplay":"Micro Brewery","countryIsoCode":"BE","status":"verified","statusDisplay":"Verified","createDate":"2012-01-03 02:41:47","updateDate":"2014-07-23 19:11:34","country":{"isoCode":"BE","name":"BELGIUM","displayName":"Belgium","isoThree":"BEL","numberCode":56,"createDate":"2012-01-03 02:41:33"}},{"id":"AulWoF","name":"Main Brewery","streetAddress":"3350 Stevenson Boulevard","locality":"Fremont","region":"California","postalCode":"94538","latitude":37.545896,"longitude":-121.972177,"isPrimary":"Y","inPlanning":"N","isClosed":"Y","openToPublic":"Y","locationType":"micro","locationTypeDisplay":"Micro Brewery","countryIsoCode":"US","yearOpened":"1988","status":"verified","statusDisplay":"Verified","createDate":"2012-01-03 02:41:48","updateDate":"2014-07-23 19:11:34","country":{"isoCode":"US","name":"UNITED STATES","displayName":"United States","isoThree":"USA","numberCode":840,"createDate":"2012-01-03 02:41:33"}},{"id":"OEO8JG","name":"Main Brewery","streetAddress":"79 North Eleventh Street","locality":"Brooklyn","region":"New York","postalCode":"11211","phone":"718-486-7422","website":"http://www.brooklynbrewery.com/","latitude":40.721535,"longitude":-73.95745,"isPrimary":"Y","inPlanning":"N","isClosed":"N","openToPublic":"Y","locationType":"micro","locationTypeDisplay":"Micro Brewery","countryIsoCode":"US","yearOpened":"1987","status":"verified","statusDisplay":"Verified","createDate":"2012-01-03 02:41:48","updateDate":"2014-07-23 19:11:34","country":{"isoCode":"US","name":"UNITED STATES","displayName":"United States","isoThree":"USA","numberCode":840,"createDate":"2012-01-03 02:41:33"}},{"id":"KmAbWk","name":"Main Brewery","streetAddress":"Rue Derbque 7","locality":"Jumet","region":"Hainaut","phone":"32-071-34-02-22","website":"http://www.alkenmaes.be/","latitude":50.4414339,"longitude":4.4140138,"isPrimary":"Y","inPlanning":"N","isClosed":"N","openToPublic":"Y","locationType":"micro","locationTypeDisplay":"Micro Brewery","countryIsoCode":"BE","status":"verified","statusDisplay":"Verified","createDate":"2012-01-03 02:41:48","updateDate":"2014-07-23 19:11:34","country":{"isoCode":"BE","name":"BELGIUM","displayName":"Belgium","isoThree":"BEL","numberCode":56,"createDate":"2012-01-03 02:41:33"}},{"id":"X5IBlf","name":"Main Brewery","streetAddress":"1022 Main Ave","locality":"Durango","region":"Colorado","postalCode":"81301","phone":"970-259 - 2545","website":"http://www.carverbrewing.com/","latitude":37.2748212,"longitude":-107.8799479,"isPrimary":"Y","inPlanning":"N","isClosed":"N","openToPublic":"Y","locationType":"brewpub","locationTypeDisplay":"Brewpub","countryIsoCode":"US","yearOpened":"1988","status":"verified","statusDisplay":"Verified","createDate":"2012-01-03 02:41:50","updateDate":"2014-07-26 00:32:59","country":{"isoCode":"US","name":"UNITED STATES","displayName":"United States","isoThree":"USA","numberCode":840,"createDate":"2012-01-03 02:41:33"}},{"id":"QUB7kO","name":"Main Brewery","streetAddress":"535 Short Street","locality":"Columbus","region":"Ohio","postalCode":"43215","phone":"614-224-3626","website":"http://www.columbusbrewing.com/","latitude":39.9505731,"longitude":-83.0036297,"isPrimary":"Y","inPlanning":"N","isClosed":"N","openToPublic":"Y","locationType":"micro","locationTypeDisplay":"Micro Brewery","countryIsoCode":"US","yearOpened":"1988","status":"verified","statusDisplay":"Verified","createDate":"2012-01-03 02:41:51","updateDate":"2014-07-23 19:11:34","country":{"isoCode":"US","name":"UNITED STATES","displayName":"United States","isoThree":"USA","numberCode":840,"createDate":"2012-01-03 02:41:33"}},{"id":"pILoJW","name":"Main Brewery","streetAddress":"901 SW Simpson Avenue","locality":"Bend","region":"Oregon","postalCode":"97702","phone":"1-541-385-8606","website":"http://www.deschutesbrewery.com/","latitude":44.0468512,"longitude":-121.3223363,"isPrimary":"N","inPlanning":"N","isClosed":"N","openToPublic":"Y","locationType":"tasting","locationTypeDisplay":"Tasting Room","countryIsoCode":"US","yearOpened":"1988","status":"verified","statusDisplay":"Verified","createDate":"2012-01-03 02:41:52","updateDate":"2014-09-11 10:36:23","country":{"isoCode":"US","name":"UNITED STATES","displayName":"United States","isoThree":"USA","numberCode":840,"createDate":"2012-01-03 02:41:33"}},{"id":"hfm9Wj","name":"Deschutes Brewery Portland Public House","streetAddress":"210 NW 11th Ave","locality":"Portland","region":"Oregon","postalCode":"97209","phone":"(503) 296-4906","website":"http://www.deschutesbrewery.com/locations/portland","hoursOfOperation":"Sun:  11:00am - 11:00pm\nWed:  11:00am - 11:00pm\nThu:  11:00am - 11:00pm\nFri:  11:00am - 12:00am\nSat:  11:00am - 12:00am\n\n","latitude":45.524615,"longitude":-122.681867,"isPrimary":"N","inPlanning":"N","isClosed":"N","openToPublic":"Y","locationType":"brewpub","locationTypeDisplay":"Brewpub","countryIsoCode":"US","yearOpened":"2008","status":"verified","statusDisplay":"Verified","createDate":"2014-09-10 23:38:07","updateDate":"2014-09-11 10:36:17","country":{"isoCode":"US","name":"UNITED STATES","displayName":"United States","isoThree":"USA","numberCode":840,"createDate":"2012-01-03 02:41:33"}},{"id":"JzUxgA","name":"Deschutes Brewery Bend Public House","streetAddress":"1044 NW Bond St","locality":"Bend","region":"Oregon","postalCode":"97701","phone":"(541) 382-9242","website":"http://www.deschutesbrewery.com/locations/bend","hoursOfOperation":"Wed:  11:00am - 11:00pm\nThu:  11:00am - 11:00pm\nFri:  11:00am - 12:00am\nSat:  11:00am - 12:00am\nSun:  11:00am - 10:00pm\n\n","latitude":44.0593763,"longitude":-121.3112178,"isPrimary":"Y","inPlanning":"N","isClosed":"N","openToPublic":"Y","locationType":"brewpub","locationTypeDisplay":"Brewpub","countryIsoCode":"US","yearOpened":"1988","status":"verified","statusDisplay":"Verified","createDate":"2014-09-10 23:39:44","updateDate":"2014-09-11 10:36:23","country":{"isoCode":"US","name":"UNITED STATES","displayName":"United States","isoThree":"USA","numberCode":840,"createDate":"2012-01-03 02:41:33"}},{"id":"k7yRnr","name":"Main Brewery","streetAddress":"Große Himmelsgasse 6","locality":"Speyer","region":"Rheinland-Pfalz","postalCode":"D-67346","latitude":49.317562,"longitude":8.440371,"isPrimary":"N","inPlanning":"N","isClosed":"N","openToPublic":"Y","locationType":"micro","locationTypeDisplay":"Micro Brewery","countryIsoCode":"DE","status":"verified","statusDisplay":"Verified","createDate":"2012-08-12 14:46:15","updateDate":"2014-07-23 19:11:34","country":{"isoCode":"DE","name":"GERMANY","displayName":"Germany","isoThree":"DEU","numberCode":276,"createDate":"2012-01-03 02:41:33"}},{"id":"vCHqcS","name":"Main Brewery","streetAddress":"1326 Highway 92","extendedAddress":"#8","locality":"Bisbee","region":"Arizona","postalCode":"85603","phone":"520-432-5465","website":"http://www.electricbrewing.com","latitude":31.39711,"longitude":-109.930003,"isPrimary":"Y","inPlanning":"N","isClosed":"Y","openToPublic":"N","locationType":"micro","locationTypeDisplay":"Micro Brewery","countryIsoCode":"US","yearClosed":"2013","status":"verified","statusDisplay":"Verified","createDate":"2012-01-03 02:41:53","updateDate":"2014-07-23 19:11:34","country":{"isoCode":"US","name":"UNITED STATES","displayName":"United States","isoThree":"USA","numberCode":840,"createDate":"2012-01-03 02:41:33"}},{"id":"u6lzyp","name":"Main Brewery","streetAddress":"Lebuser Chaussee 3","locality":"Frankfurt an der Oder","region":"Brandenburg","postalCode":"15234","latitude":52.364638,"longitude":14.528388,"isPrimary":"Y","inPlanning":"N","isClosed":"N","openToPublic":"Y","locationType":"micro","locationTypeDisplay":"Micro Brewery","countryIsoCode":"DE","status":"verified","statusDisplay":"Verified","createDate":"2012-08-13 02:11:15","updateDate":"2014-07-23 19:11:34","country":{"isoCode":"DE","name":"GERMANY","displayName":"Germany","isoThree":"DEU","numberCode":276,"createDate":"2012-01-03 02:41:33"}},{"id":"rrSnIP","name":"Main Brewery","streetAddress":"430 Old Jackson Hwy","locality":"Victor","region":"Idaho","postalCode":"83455","phone":"307-733-9000","website":"http://www.grandtetonbrewing.com/","hoursOfOperation":"Pub Hours\r\nMondays-Fridays 1:00 pm - 8:00 pm\r\nSaturday-Sunday 2:00 pm - 7:00 pm\r\n\r\nRetail Store & Tasting Hours\r\nMon-Fri 9:00 am - 5:00 pm","latitude":43.5983785,"longitude":-111.1083585,"isPrimary":"Y","inPlanning":"N","isClosed":"N","openToPublic":"Y","locationType":"micro","locationTypeDisplay":"Micro Brewery","countryIsoCode":"US","yearOpened":"1988","status":"verified","statusDisplay":"Verified","createDate":"2012-01-03 02:41:56","updateDate":"2014-07-23 19:11:34","country":{"isoCode":"US","name":"UNITED STATES","displayName":"United States","isoThree":"USA","numberCode":840,"createDate":"2012-01-03 02:41:33"}},{"id":"8dIvZw","name":"Main Brewery","streetAddress":"1947 West 28th Street","locality":"Cleveland","region":"Ohio","postalCode":"44113","phone":"216-771-4404","website":"http://www.greatlakesbrewing.com/","hoursOfOperation":"Monday - Thursday: 11:30 AM - 10:30 PM (bar open until 12:00 AM)\r\nFriday and Saturday: 11:30 AM - 11:30 PM (bar open until 1:00 AM)\r\nSundays: Closed","latitude":41.484295,"longitude":-81.705375,"isPrimary":"Y","inPlanning":"N","isClosed":"N","openToPublic":"Y","locationType":"micro","locationTypeDisplay":"Micro Brewery","countryIsoCode":"US","yearOpened":"1988","status":"verified","statusDisplay":"Verified","createDate":"2012-01-03 02:41:56","updateDate":"2014-07-23 19:11:34","country":{"isoCode":"US","name":"UNITED STATES","displayName":"United States","isoThree":"USA","numberCode":840,"createDate":"2012-01-03 02:41:33"}},{"id":"xSmsLL","name":"Great Lakes Brewpub","streetAddress":"2516 Market Avenue","locality":"Cleveland","region":"Ohio","postalCode":"44113","phone":"216-771-4404","website":"http://www.greatlakesbrewing.com/brewpub/around-the-brewpub","hoursOfOperation":"Monday - Thursday: 11:30 AM - 10:30 PM (bar open until 12:00 AM)\r\nFriday and Saturday: 11:30 AM - 11:30 PM (bar open until 1:00 AM)\r\nSundays: Closed","latitude":41.484446,"longitude":-81.704436,"isPrimary":"N","inPlanning":"N","isClosed":"N","openToPublic":"Y","locationType":"brewpub","locationTypeDisplay":"Brewpub","countryIsoCode":"US","status":"verified","statusDisplay":"Verified","createDate":"2013-12-10 17:48:32","updateDate":"2014-07-23 19:11:34","country":{"isoCode":"US","name":"UNITED STATES","displayName":"United States","isoThree":"USA","numberCode":840,"createDate":"2012-01-03 02:41:33"}},{"id":"jdCivW","name":"Main Brewery & Brewpub","streetAddress":"396 Fore Street","locality":"Portland","region":"Maine","postalCode":"04101","phone":"207-772-BREW","website":"http://www.grittys.com/","hoursOfOperation":"Serving All Day 11am - CLOSING","latitude":43.6563749,"longitude":-70.2535061,"isPrimary":"N","inPlanning":"N","isClosed":"N","openToPublic":"Y","locationType":"micro","locationTypeDisplay":"Micro Brewery","countryIsoCode":"US","status":"verified","statusDisplay":"Verified","createDate":"2012-01-03 02:41:56","updateDate":"2014-07-23 19:11:34","country":{"isoCode":"US","name":"UNITED STATES","displayName":"United States","isoThree":"USA","numberCode":840,"createDate":"2012-01-03 02:41:33"}},{"id":"iNQxzm","name":"Freeport","streetAddress":"Lower Main Street","locality":"Freeport","region":"Maine","postalCode":"04032","phone":"207-865-4321","website":"http://www.grittys.com/freeport.php","hoursOfOperation":"Serving All Day 11AM - CLOSING","latitude":43.847718,"longitude":-70.112766,"isPrimary":"N","inPlanning":"N","isClosed":"N","openToPublic":"Y","locationType":"brewpub","locationTypeDisplay":"Brewpub","countryIsoCode":"US","status":"verified","statusDisplay":"Verified","createDate":"2012-04-21 12:48:58","updateDate":"2014-07-23 19:11:34","country":{"isoCode":"US","name":"UNITED STATES","displayName":"United States","isoThree":"USA","numberCode":840,"createDate":"2012-01-03 02:41:33"}},{"id":"Kh9m9D","name":"Lewiston/Auburn","streetAddress":"68 Main Street","locality":"Auburn","region":"Maine","postalCode":"04210","phone":"207-376-BREW","website":"http://www.grittys.com/la.php","hoursOfOperation":"Serving All Day 11AM - CLOSING","latitude":44.096639,"longitude":-70.225021,"isPrimary":"Y","inPlanning":"N","isClosed":"N","openToPublic":"Y","locationType":"brewpub","locationTypeDisplay":"Brewpub","countryIsoCode":"US","status":"verified","statusDisplay":"Verified","createDate":"2012-04-21 12:50:04","updateDate":"2014-07-23 19:11:34","country":{"isoCode":"US","name":"UNITED STATES","displayName":"United States","isoThree":"USA","numberCode":840,"createDate":"2012-01-03 02:41:33"}},{"id":"NGGl86","name":"Main Brewery","streetAddress":"Augustinessenstr. 4","locality":"Recklinghausen","region":"Nordrhein-Westfalen","postalCode":"45657","website":"http://www.bei-boente.de/","latitude":51.615318,"longitude":7.195093,"isPrimary":"N","inPlanning":"N","isClosed":"N","openToPublic":"Y","locationType":"micro","locationTypeDisplay":"Micro Brewery","countryIsoCode":"DE","status":"verified","statusDisplay":"Verified","createDate":"2012-08-12 14:46:37","updateDate":"2014-07-23 19:11:34","country":{"isoCode":"DE","name":"GERMANY","displayName":"Germany","isoThree":"DEU","numberCode":276,"createDate":"2012-01-03 02:41:33"}},{"id":"cD2Myj","name":"Main Brewery","streetAddress":"Alter Markt 9","locality":"Kiel","region":"Schlewsig-Holstein","postalCode":"24103","website":"http://www.kieler-brauerei.de/","latitude":54.323446,"longitude":10.139084,"isPrimary":"N","inPlanning":"N","isClosed":"N","openToPublic":"Y","locationType":"micro","locationTypeDisplay":"Micro Brewery","countryIsoCode":"DE","status":"verified","statusDisplay":"Verified","createDate":"2012-08-12 14:47:34","updateDate":"2014-07-23 19:11:34","country":{"isoCode":"DE","name":"GERMANY","displayName":"Germany","isoThree":"DEU","numberCode":276,"createDate":"2012-01-03 02:41:33"}},{"id":"knxeTj","name":"Main Brewery","streetAddress":"455 North Main Street","locality":"Fort Bragg","region":"California","postalCode":"95437","phone":"1-707-964-2739","website":"http://www.northcoastbrewing.com/","latitude":39.446471,"longitude":-123.806238,"isPrimary":"Y","inPlanning":"N","isClosed":"N","openToPublic":"Y","locationType":"micro","locationTypeDisplay":"Micro Brewery","countryIsoCode":"US","yearOpened":"1988","status":"verified","statusDisplay":"Verified","createDate":"2012-01-03 02:42:03","updateDate":"2014-07-23 19:11:34","country":{"isoCode":"US","name":"UNITED STATES","displayName":"United States","isoThree":"USA","numberCode":840,"createDate":"2012-01-03 02:41:33"}},{"id":"rIOHKI","name":"Main Brewery","streetAddress":"Lövlundsvägen 4","region":"Nynäshamn","postalCode":"149 30","phone":"(8) 520 212 13","website":"http://www.nyab.se/","latitude":58.9043193,"longitude":17.9468346,"isPrimary":"Y","inPlanning":"N","isClosed":"N","openToPublic":"Y","locationType":"micro","locationTypeDisplay":"Micro Brewery","countryIsoCode":"SE","status":"verified","statusDisplay":"Verified","createDate":"2014-04-29 09:14:43","updateDate":"2014-07-23 19:11:34","country":{"isoCode":"SE","name":"SWEDEN","displayName":"Sweden","isoThree":"SWE","numberCode":752,"createDate":"2012-01-03 02:41:33"}},{"id":"ngOd0N","name":"Main Brewery","streetAddress":"35 Fire Place","locality":"Santa Fe","region":"New Mexico","postalCode":"87508","phone":"505-424-3333","website":"http://www.santafebrewing.com/","latitude":35.596565,"longitude":-106.052297,"isPrimary":"Y","inPlanning":"N","isClosed":"N","openToPublic":"Y","locationType":"micro","locationTypeDisplay":"Micro Brewery","countryIsoCode":"US","yearOpened":"1988","status":"verified","statusDisplay":"Verified","createDate":"2012-01-03 02:42:07","updateDate":"2014-07-23 19:11:34","country":{"isoCode":"US","name":"UNITED STATES","displayName":"United States","isoThree":"USA","numberCode":840,"createDate":"2012-01-03 02:41:33"}},{"id":"j04x5I","name":"Eldorado Taphouse","streetAddress":"7 Caliente Road","extendedAddress":"Unit A9","locality":"Santa Fe","region":"New Mexico","postalCode":"87508","phone":"505-466-6938","website":"http://www.santafebrewing.com/tours/eldorado_taphouse","hoursOfOperation":"Open 7 days a week. Monday - Friday, 3:00pm - 10:00pm, Saturdays 2:00pm - 10:00pm, and on Sundays 2:00pm - 9:00pm","latitude":35.536993,"longitude":-105.891405,"isPrimary":"N","inPlanning":"N","isClosed":"N","openToPublic":"Y","locationType":"tasting","locationTypeDisplay":"Tasting Room","countryIsoCode":"US","status":"verified","statusDisplay":"Verified","createDate":"2012-08-10 20:21:10","updateDate":"2014-07-23 19:11:34","country":{"isoCode":"US","name":"UNITED STATES","displayName":"United States","isoThree":"USA","numberCode":840,"createDate":"2012-01-03 02:41:33"}},{"id":"QogwKc","name":"Main Brewery","streetAddress":"519 Seabright Avenue","locality":"Santa Cruz","region":"California","postalCode":"95062","phone":"831-426-2739","website":"http://www.seabrightbrewery.com/","hoursOfOperation":"Mon - Sun: 11:30 am - 11:30 pm","latitude":36.967537,"longitude":-122.0079752,"isPrimary":"Y","inPlanning":"N","isClosed":"N","openToPublic":"Y","locationType":"micro","locationTypeDisplay":"Micro Brewery","countryIsoCode":"US","status":"verified","statusDisplay":"Verified","createDate":"2012-01-03 02:42:08","updateDate":"2014-07-23 19:11:34","country":{"isoCode":"US","name":"UNITED STATES","displayName":"United States","isoThree":"USA","numberCode":840,"createDate":"2012-01-03 02:41:33"}},{"id":"UVDdHM","name":"Main Brewery","streetAddress":"80 Point Henry Rd","locality":"Moolap","region":"Victoria","postalCode":"3221","phone":"(03) 5248 5710","website":"http://www.southernbay.com.au","latitude":-38.1609264,"longitude":144.4296434,"isPrimary":"Y","inPlanning":"N","isClosed":"N","openToPublic":"Y","locationType":"micro","locationTypeDisplay":"Micro Brewery","countryIsoCode":"AU","status":"verified","statusDisplay":"Verified","createDate":"2014-01-15 12:56:24","updateDate":"2014-07-23 19:11:34","country":{"isoCode":"AU","name":"AUSTRALIA","displayName":"Australia","isoThree":"AUS","numberCode":36,"createDate":"2012-01-03 02:41:33"}},{"id":"uWIdwa","name":"Main Brewery","streetAddress":"954 Villa Street","locality":"Mountain View","region":"California","postalCode":"94041","phone":"650-965-2739","website":"http://www.tiedhouse.com/","hoursOfOperation":"Mon - Thurs: 11:30 am - 10:00 pm\r\nFri: 11:30 am - 11:00 pm\r\nSat: 11:30 am - 10:00 pm\r\nSun: 11:30 am - 9:00 pm","latitude":37.3946193,"longitude":-122.0807255,"isPrimary":"Y","inPlanning":"N","isClosed":"N","openToPublic":"Y","locationType":"micro","locationTypeDisplay":"Micro Brewery","countryIsoCode":"US","yearOpened":"1988","status":"verified","statusDisplay":"Verified","createDate":"2012-01-03 02:42:10","updateDate":"2014-07-23 19:11:34","country":{"isoCode":"US","name":"UNITED STATES","displayName":"United States","isoThree":"USA","numberCode":840,"createDate":"2012-01-03 02:41:33"}},{"id":"t7waVu","name":"San Jose","streetAddress":"954 Villa Street","locality":"San Mountain View","region":"California","postalCode":"94041","phone":"(650) 965-2739","website":"http://tiedhouse.com/","hoursOfOperation":"Mon - Wed: 11:00 am - 10:00 pm\r\nThu: 11:00 am - 10:30 pm\r\nFri: 11:00 am - 11:00 pm\r\nSat: 11:30 am - 10:00 pm\r\nSun: 11:30 am - 9:00 pm","latitude":37.3965713,"longitude":-122.0836937,"isPrimary":"Y","inPlanning":"N","isClosed":"N","openToPublic":"N","locationType":"micro","locationTypeDisplay":"Micro Brewery","countryIsoCode":"US","yearOpened":"1988","status":"verified","statusDisplay":"Verified","createDate":"2012-01-03 02:42:16","updateDate":"2014-07-23 19:11:34","country":{"isoCode":"US","name":"UNITED STATES","displayName":"United States","isoThree":"USA","numberCode":840,"createDate":"2012-01-03 02:41:33"}},{"id":"sBybsd","name":"Main Brewery","streetAddress":"144 College St.","locality":"Burlington","region":"Vermont","postalCode":"05401","phone":"(802) 865-0500","website":"http://www.vermontbrewery.com/","hoursOfOperation":"Sun-Wed 11:30 a.m. to 1 a.m. \r\nThu-Sat   11:30 a.m. to 2 a.m.","latitude":44.477262,"longitude":-73.214394,"isPrimary":"Y","inPlanning":"N","isClosed":"N","openToPublic":"Y","locationType":"micro","locationTypeDisplay":"Micro Brewery","countryIsoCode":"US","status":"verified","statusDisplay":"Verified","createDate":"2012-01-03 02:42:11","updateDate":"2014-09-26 13:59:36","country":{"isoCode":"US","name":"UNITED STATES","displayName":"United States","isoThree":"USA","numberCode":840,"createDate":"2012-01-03 02:41:33"}},{"id":"TfSJ45","name":"Main Brewery","streetAddress":"Laacher-See-Straße 2","locality":"Mendig","region":"Rheinland-Pfalz","postalCode":"D-56743","latitude":50.378518,"longitude":7.281123,"isPrimary":"N","inPlanning":"N","isClosed":"N","openToPublic":"Y","locationType":"micro","locationTypeDisplay":"Micro Brewery","countryIsoCode":"DE","status":"verified","statusDisplay":"Verified","createDate":"2012-08-12 14:47:02","updateDate":"2014-07-23 19:11:34","country":{"isoCode":"DE","name":"GERMANY","displayName":"Germany","isoThree":"DEU","numberCode":276,"createDate":"2012-01-03 02:41:33"}},{"id":"ZsiKum","name":"Main Brewpub","streetAddress":"In den Kämpen 2","locality":"Willingen","region":"Hesse","postalCode":"34508","latitude":51.294358,"longitude":8.604748,"isPrimary":"Y","inPlanning":"N","isClosed":"N","openToPublic":"Y","locationType":"brewpub","locationTypeDisplay":"Brewpub","countryIsoCode":"DE","status":"verified","statusDisplay":"Verified","createDate":"2012-08-13 01:37:45","updateDate":"2014-07-23 19:11:34","country":{"isoCode":"DE","name":"GERMANY","displayName":"Germany","isoThree":"DEU","numberCode":276,"createDate":"2012-01-03 02:41:33"}},{"id":"H09IRl","name":"Main Brewery","streetAddress":"1634 18th Street","locality":"Denver","region":"Colorado","postalCode":"80202","phone":"303-297-2700","website":"http://www.wynkoop.com/","hoursOfOperation":"Mon - Sun: 11:00 am - 2:00 am","latitude":39.753509,"longitude":-104.998505,"isPrimary":"Y","inPlanning":"N","isClosed":"N","openToPublic":"Y","locationType":"micro","locationTypeDisplay":"Micro Brewery","countryIsoCode":"US","yearOpened":"1988","status":"verified","statusDisplay":"Verified","createDate":"2012-01-03 02:42:13","updateDate":"2014-07-23 19:11:34","country":{"isoCode":"US","name":"UNITED STATES","displayName":"United States","isoThree":"USA","numberCode":840,"createDate":"2012-01-03 02:41:33"}}]