[{"id":"H5A7pI","name":"Main Brewery","streetAddress":"1004 South Old Oneida","locality":"Appleton","region":"Wisconsin","postalCode":"54915","phone":"920-735-0507","latitude":44.253508,"longitude":-88.403708,"isPrimary":"Y","inPlanning":"N","isClosed":"Y","openToPublic":"Y","locationType":"micro","locationTypeDisplay":"Micro Brewery","countryIsoCode":"US","yearOpened":"1989","status":"verified","statusDisplay":"Verified","createDate":"2012-01-03 02:41:44","updateDate":"2014-07-23 19:11:34","country":{"isoCode":"US","name":"UNITED STATES","displayName":"United States","isoThree":"USA","numberCode":840,"createDate":"2012-01-03 02:41:33"}},{"id":"shhuGO","name":"Main Brewery","streetAddress":"2030 Fifth Street","locality":"Berkeley","region":"California","postalCode":"94710","phone":"510-697-1537","website":"http://www.bisonbrew.com/","latitude":37.8669679,"longitude":-122.2985601,"isPrimary":"Y","inPlanning":"N","isClosed":"N","openToPublic":"N","locationType":"production","locationTypeDisplay":"Production Facility","countryIsoCode":"US","yearOpened":"1989","status":"verified","statusDisplay":"Verified","createDate":"2012-01-03 02:41:46","updateDate":"2014-09-20 15:18:26","country":{"isoCode":"US","name":"UNITED STATES","displayName":"United States","isoThree":"USA","numberCode":840,"createDate":"2012-01-03 02:41:33"}},{"id":"Emjx5Z","name":"Main Location","streetAddress":"6245 E. Cave Creek Rd.","locality":"Cave Creek","region":"Arizona","postalCode":"85331","phone":"(480) 488-4742","latitude":33.8314777,"longitude":-111.945564,"isPrimary":"Y","inPlanning":"N","isClosed":"N","openToPublic":"Y","locationType":"micro","locationTypeDisplay":"Micro Brewery","countryIsoCode":"US","status":"verified","statusDisplay":"Verified","createDate":"2014-07-09 14:44:22","updateDate":"2014-07-23 19:11:34","country":{"isoCode":"US","name":"UNITED STATES","displayName":"United States","isoThree":"USA","numberCode":840,"createDate":"2012-01-03 02:41:33"}},{"id":"XyOjZI","name":"Brewpub @ Lennies","streetAddress":"1795 E 10th St","locality":"Bloomington","region":"Indiana","postalCode":"47402","phone":"812.323-2112","hoursOfOperation":"Sun - Thurs: 11:00 a.m. - Midnight*\r\nFri - Sat: 11:00 a.m. - 1:00 a.m.*\r\n*Restaurant closes 1 hour earlier.","latitude":39.171579,"longitude":-86.511086,"isPrimary":"Y","inPlanning":"N","isClosed":"N","openToPublic":"Y","locationType":"brewpub","locationTypeDisplay":"Brewpub","countryIsoCode":"US","status":"verified","statusDisplay":"Verified","createDate":"2012-01-03 02:41:46","updateDate":"2014-07-23 19:11:34","country":{"isoCode":"US","name":"UNITED STATES","displayName":"United States","isoThree":"USA","numberCode":840,"createDate":"2012-01-03 02:41:33"}},{"id":"m6aqF7","name":"Main Brewery","streetAddress":"2501 Southwest Boulevard","locality":"Kansas City","region":"Missouri","postalCode":"64108","phone":"1-816-474-7095","website":"http://www.boulevard.com","latitude":39.0821348,"longitude":-94.5966532,"isPrimary":"Y","inPlanning":"N","isClosed":"N","openToPublic":"Y","locationType":"micro","locationTypeDisplay":"Micro Brewery","countryIsoCode":"US","yearOpened":"1989","status":"verified","statusDisplay":"Verified","createDate":"2012-01-03 02:41:47","updateDate":"2014-07-23 19:11:34","country":{"isoCode":"US","name":"UNITED STATES","displayName":"United States","isoThree":"USA","numberCode":840,"createDate":"2012-01-03 02:41:33"}},{"id":"Kk1Cyr","name":"Main Brewery","streetAddress":"Alfstrasse 36","region":"Lübeck","postalCode":"23552","latitude":53.868221,"longitude":10.68074,"isPrimary":"Y","inPlanning":"N","isClosed":"N","openToPublic":"Y","locationType":"micro","locationTypeDisplay":"Micro Brewery","countryIsoCode":"DE","status":"verified","statusDisplay":"Verified","createDate":"2012-08-16 11:54:32","updateDate":"2014-07-23 19:11:34","country":{"isoCode":"DE","name":"GERMANY","displayName":"Germany","isoThree":"DEU","numberCode":276,"createDate":"2012-01-03 02:41:33"}},{"id":"QDEmHZ","name":"Main Brewery","streetAddress":"Reithausplatz 21","locality":"Ludwigsburg","region":"Baden-Württemberg","postalCode":"71634","latitude":48.899178,"longitude":9.18889,"isPrimary":"N","inPlanning":"N","isClosed":"N","openToPublic":"Y","locationType":"micro","locationTypeDisplay":"Micro Brewery","countryIsoCode":"DE","status":"verified","statusDisplay":"Verified","createDate":"2012-08-12 14:47:07","updateDate":"2014-07-23 19:11:34","country":{"isoCode":"DE","name":"GERMANY","displayName":"Germany","isoThree":"DEU","numberCode":276,"createDate":"2012-01-03 02:41:33"}},{"id":"kdDxQu","name":"Main Brewery","streetAddress":"Bachstraße 14","locality":"Friedrichroda","region":"Hessen","postalCode":"D-99894","latitude":50.856241,"longitude":10.639634,"isPrimary":"N","inPlanning":"N","isClosed":"N","openToPublic":"Y","locationType":"micro","locationTypeDisplay":"Micro Brewery","countryIsoCode":"DE","status":"verified","statusDisplay":"Verified","createDate":"2012-08-12 14:45:41","updateDate":"2014-07-23 19:11:34","country":{"isoCode":"DE","name":"GERMANY","displayName":"Germany","isoThree":"DEU","numberCode":276,"createDate":"2012-01-03 02:41:33"}},{"id":"xPDPDw","name":"Main Brewery","streetAddress":"777 East Olive Avenue","locality":"Fresno","region":"California","postalCode":"93728","latitude":36.758189,"longitude":-119.801674,"isPrimary":"Y","inPlanning":"N","isClosed":"Y","openToPublic":"Y","locationType":"micro","locationTypeDisplay":"Micro Brewery","countryIsoCode":"US","yearOpened":"1989","status":"verified","statusDisplay":"Verified","createDate":"2012-01-03 02:41:49","updateDate":"2014-07-23 19:11:34","country":{"isoCode":"US","name":"UNITED STATES","displayName":"United States","isoThree":"USA","numberCode":840,"createDate":"2012-01-03 02:41:33"}},{"id":"EB3XVT","name":"Main Brewery","streetAddress":"1 Kendall Square","extendedAddress":"Bldg 100","locality":"Cambridge","region":"Massachusetts","postalCode":"02139","phone":"(617) 494-1994","website":"http://www.cambrew.com/","hoursOfOperation":"Mon: 11:30 am - 11:00 pm\r\nTue - Thu: 11:30 am - 12:00 am\r\nFri: 11:30 am - 1:00 am\r\nSat: 11:00 am - 1:00 am\r\nSun: 11:00 am - 11:00 pm","latitude":42.366468,"longitude":-71.0914549,"isPrimary":"Y","inPlanning":"N","isClosed":"N","openToPublic":"Y","locationType":"brewpub","locationTypeDisplay":"Brewpub","countryIsoCode":"US","yearOpened":"1989","status":"verified","statusDisplay":"Verified","createDate":"2012-01-03 02:41:50","updateDate":"2014-07-23 19:11:34","country":{"isoCode":"US","name":"UNITED STATES","displayName":"United States","isoThree":"USA","numberCode":840,"createDate":"2012-01-03 02:41:33"}},{"id":"wufvse","name":"Main Brewery","streetAddress":"137 High Street","region":"Burton-on-Trent","postalCode":"DE14 1JZ","website":"http://www.cobrabeer.com/","latitude":52.8046602,"longitude":-1.6268494,"isPrimary":"Y","inPlanning":"N","isClosed":"N","openToPublic":"Y","locationType":"micro","locationTypeDisplay":"Micro Brewery","countryIsoCode":"GB","yearOpened":"1989","status":"verified","statusDisplay":"Verified","createDate":"2013-05-29 12:35:31","updateDate":"2014-07-23 19:11:34","country":{"isoCode":"GB","name":"UNITED KINGDOM","displayName":"United Kingdom","isoThree":"GBR","numberCode":826,"createDate":"2012-01-03 02:41:33"}},{"id":"4wIRsU","name":"Main Brewery","streetAddress":"5 Old Town Square","locality":"Fort Collins","region":"Colorado","postalCode":"80524","phone":"970-498-0483","website":"http://www.coopersmithspub.com/","hoursOfOperation":"Sunday - Wednesday 11am - 11pm\r\nThursday 11am - 11:30pm\r\nFriday & Saturday 11am - Midnight","latitude":40.5876526,"longitude":-105.075844,"isPrimary":"Y","inPlanning":"N","isClosed":"N","openToPublic":"Y","locationType":"brewpub","locationTypeDisplay":"Brewpub","countryIsoCode":"US","yearOpened":"1989","status":"verified","statusDisplay":"Verified","createDate":"2012-01-03 02:41:51","updateDate":"2014-07-23 19:11:34","country":{"isoCode":"US","name":"UNITED STATES","displayName":"United States","isoThree":"USA","numberCode":840,"createDate":"2012-01-03 02:41:33"}},{"id":"n9xIKr","name":"Main Brewery","streetAddress":"104 Albemarle Street","locality":"Baltimore","region":"Maryland","postalCode":"21202","latitude":39.2882163,"longitude":-76.6036982,"isPrimary":"Y","inPlanning":"N","isClosed":"Y","openToPublic":"Y","locationType":"micro","locationTypeDisplay":"Micro Brewery","countryIsoCode":"US","yearOpened":"1989","status":"verified","statusDisplay":"Verified","createDate":"2012-01-03 02:41:52","updateDate":"2014-07-23 19:11:34","country":{"isoCode":"US","name":"UNITED STATES","displayName":"United States","isoThree":"USA","numberCode":840,"createDate":"2012-01-03 02:41:33"}},{"id":"Fvb1JY","name":"Main Brewery","streetAddress":"1933 Davis Street","locality":"San Leandro","region":"California","postalCode":"94577","phone":"(510) 568-2739","website":"http://drinkdrakes.com/","hoursOfOperation":"Wed - Thu: 3:00 pm - 9:00 pm\r\nFri - Sat: 12:00 pm - 9:00 pm\r\nSun: 12:00 pm - 7:00 pm","latitude":37.7147545,"longitude":-122.1782551,"isPrimary":"Y","inPlanning":"N","isClosed":"N","openToPublic":"Y","locationType":"micro","locationTypeDisplay":"Micro Brewery","countryIsoCode":"US","yearOpened":"1989","status":"verified","statusDisplay":"Verified","createDate":"2012-01-03 02:41:53","updateDate":"2014-07-23 19:11:34","country":{"isoCode":"US","name":"UNITED STATES","displayName":"United States","isoThree":"USA","numberCode":840,"createDate":"2012-01-03 02:41:33"}},{"id":"vJCXKD","name":"Main Brewery","streetAddress":"Weissliliengasse 1","locality":"Mainz-Ebersheim","region":"Rheinland-Pfalz","postalCode":"A 55116","latitude":49.995505,"longitude":8.273063,"isPrimary":"N","inPlanning":"N","isClosed":"N","openToPublic":"Y","locationType":"micro","locationTypeDisplay":"Micro Brewery","countryIsoCode":"DE","status":"verified","statusDisplay":"Verified","createDate":"2012-08-12 14:46:21","updateDate":"2014-07-23 19:11:34","country":{"isoCode":"DE","name":"GERMANY","displayName":"Germany","isoThree":"DEU","numberCode":276,"createDate":"2012-01-03 02:41:33"}},{"id":"cuhBRm","name":"Main Brewery","streetAddress":"636 Massachusetts","locality":"Lawrence","region":"Kansas","postalCode":"66044","phone":"785-843-4555","website":"http://freestatebrewing.com/","latitude":38.971872,"longitude":-95.235715,"isPrimary":"Y","inPlanning":"N","isClosed":"N","openToPublic":"Y","locationType":"micro","locationTypeDisplay":"Micro Brewery","countryIsoCode":"US","yearOpened":"1989","status":"verified","statusDisplay":"Verified","createDate":"2012-01-03 02:41:55","updateDate":"2014-07-23 19:11:34","country":{"isoCode":"US","name":"UNITED STATES","displayName":"United States","isoThree":"USA","numberCode":840,"createDate":"2012-01-03 02:41:33"}},{"id":"SAtbDP","name":"Main Brewery","streetAddress":"1 Baromi Road","locality":"Mirboo North","region":"Victoria","postalCode":"3781","phone":"03 5668 2222","website":"http://www.grand-ridge.com.au/","latitude":-38.4009674,"longitude":146.1627082,"isPrimary":"Y","inPlanning":"N","isClosed":"N","openToPublic":"Y","locationType":"micro","locationTypeDisplay":"Micro Brewery","countryIsoCode":"AU","status":"verified","statusDisplay":"Verified","createDate":"2014-02-28 00:35:46","updateDate":"2014-07-23 19:11:34","country":{"isoCode":"AU","name":"AUSTRALIA","displayName":"Australia","isoThree":"AUS","numberCode":36,"createDate":"2012-01-03 02:41:33"}},{"id":"e2agAL","name":"Main Brewery","streetAddress":"214 E. Martin Street","locality":"Raleigh","region":"North Carolina","postalCode":"27601","phone":"(919) 829-0214","latitude":35.776817,"longitude":-78.635987,"isPrimary":"Y","inPlanning":"N","isClosed":"Y","openToPublic":"N","locationType":"brewpub","locationTypeDisplay":"Brewpub","countryIsoCode":"US","yearOpened":"1989","yearClosed":"2004","status":"verified","statusDisplay":"Verified","createDate":"2012-01-03 02:41:56","updateDate":"2014-07-23 19:11:34","country":{"isoCode":"US","name":"UNITED STATES","displayName":"United States","isoThree":"USA","numberCode":840,"createDate":"2012-01-03 02:41:33"}},{"id":"wd1Y84","name":"Bielefeld","streetAddress":"Hagenbruchstraße 8","region":"Bielefeld","postalCode":"D-33602","latitude":52.021138,"longitude":8.529927,"isPrimary":"N","inPlanning":"N","isClosed":"N","openToPublic":"Y","locationType":"micro","locationTypeDisplay":"Micro Brewery","countryIsoCode":"DE","status":"verified","statusDisplay":"Verified","createDate":"2012-08-12 14:46:08","updateDate":"2014-07-23 19:11:34","country":{"isoCode":"DE","name":"GERMANY","displayName":"Germany","isoThree":"DEU","numberCode":276,"createDate":"2012-01-03 02:41:33"}},{"id":"tc0H6U","name":"Main Brewery","streetAddress":"5985 Santa Fe Street","locality":"San Diego","region":"California","postalCode":"92109","phone":"858-273-2739","website":"http://www.karlstrauss.com/","latitude":32.8320492,"longitude":-117.2312344,"isPrimary":"Y","inPlanning":"N","isClosed":"N","openToPublic":"Y","locationType":"tasting","locationTypeDisplay":"Tasting Room","countryIsoCode":"US","yearOpened":"1989","status":"verified","statusDisplay":"Verified","createDate":"2012-01-03 02:41:59","updateDate":"2014-07-26 00:31:18","country":{"isoCode":"US","name":"UNITED STATES","displayName":"United States","isoThree":"USA","numberCode":840,"createDate":"2012-01-03 02:41:33"}},{"id":"HJTHzW","name":"Sorrento Mesa","streetAddress":"9675 Scranton Road","locality":"San Diego","region":"California","postalCode":"92121","phone":"858-587-2739","website":"http://www.karlstrauss.com/PAGES/Eats/SorrentoMesa.html","latitude":32.8965882,"longitude":-117.2018129,"isPrimary":"N","inPlanning":"N","isClosed":"N","openToPublic":"Y","locationType":"micro","locationTypeDisplay":"Micro Brewery","countryIsoCode":"US","yearOpened":"1994","status":"verified","statusDisplay":"Verified","createDate":"2012-01-03 02:42:15","updateDate":"2014-07-26 00:31:42","country":{"isoCode":"US","name":"UNITED STATES","displayName":"United States","isoThree":"USA","numberCode":840,"createDate":"2012-01-03 02:41:33"}},{"id":"UY5470","name":"Downtown","streetAddress":"1157 Columbia Street","locality":"San Diego","region":"California","postalCode":"92101","phone":"6192342739","website":"http://www.karlstrauss.com/breweryrestaurants/downtown.html","hoursOfOperation":"Mon:  11:00am - 10:00pm\nTue:  11:00am - 10:00pm\nWed:  11:00am - 10:00pm\nThu:  11:00am - 10:00pm\nFri:  11:00am - 11:00pm\nSat:  11:30am - 11:00pm\nSun:  11:30am - 10:00pm\n\nMonday-Thursday —  Bar Closes at 11:00p\r\nFriday— Bar Closes at Midnight\r\nSaturday— Bar Closes at Midnight","latitude":32.71745,"longitude":-117.167106,"isPrimary":"N","inPlanning":"N","isClosed":"N","openToPublic":"Y","locationType":"brewpub","locationTypeDisplay":"Brewpub","countryIsoCode":"US","yearOpened":"1989","status":"verified","statusDisplay":"Verified","createDate":"2014-07-25 22:34:07","updateDate":"2014-07-26 00:26:59","country":{"isoCode":"US","name":"UNITED STATES","displayName":"United States","isoThree":"USA","numberCode":840,"createDate":"2012-01-03 02:41:33"}},{"id":"6rnsGR","name":"La Jolla","streetAddress":"1044 Wall Street","locality":"La Jolla","region":"California","postalCode":"92037","phone":"858-551-2739","website":"http://www.karlstrauss.com/breweryrestaurants/lajolla.html","hoursOfOperation":"Mon:  11:00am - 10:00pm\nTue:  11:00am - 10:00pm\nWed:  11:00am - 10:00pm\nThu:  11:00am - 10:00pm\nFri:  11:00am - 10:00pm\nSat:  11:00am - 10:00pm\nSun:  11:00am - 10:00pm\n\n","latitude":32.8469857,"longitude":-117.2735723,"isPrimary":"N","inPlanning":"N","isClosed":"N","openToPublic":"Y","locationType":"brewpub","locationTypeDisplay":"Brewpub","countryIsoCode":"US","status":"verified","statusDisplay":"Verified","createDate":"2014-07-25 22:35:32","updateDate":"2014-07-26 00:26:11","country":{"isoCode":"US","name":"UNITED STATES","displayName":"United States","isoThree":"USA","numberCode":840,"createDate":"2012-01-03 02:41:33"}},{"id":"jBWgPs","name":"Carlsbad","streetAddress":"5801 Armada Drive","locality":"Carlsbad","region":"California","postalCode":"92008","phone":"760-431-2739","website":"http://www.karlstrauss.com/breweryrestaurants/carlsbad.html","hoursOfOperation":"Mon:  7:00am - 10:00pm\nTue:  7:00am - 10:00pm\nWed:  7:00am - 10:00pm\nThu:  7:00am - 10:00pm\nFri:  7:00am - 11:00pm\nSat:  7:00am - 11:00pm\nSun:  7:00am - 10:00pm\n\nMonday-Thursday - Bar Closes at 11:00pm\r\nFriday-Saturday - Bar Closes at Midnight\r\nSunday - Bar Closes at 11:00p","latitude":33.1244883,"longitude":-117.3140585,"isPrimary":"N","inPlanning":"N","isClosed":"N","openToPublic":"Y","locationType":"brewpub","locationTypeDisplay":"Brewpub","countryIsoCode":"US","status":"verified","statusDisplay":"Verified","createDate":"2014-07-25 22:38:20","updateDate":"2014-07-29 13:38:06","country":{"isoCode":"US","name":"UNITED STATES","displayName":"United States","isoThree":"USA","numberCode":840,"createDate":"2012-01-03 02:41:33"}},{"id":"LVFUZJ","name":"4S Ranch","streetAddress":"10448 Reserve Drive","locality":"San Diego","region":"California","postalCode":"92127","phone":"858-376-2739","website":"http://www.karlstrauss.com/breweryrestaurants/4sranch.html","hoursOfOperation":"Sun:  11:00am - 10:00pm\nMon:  11:00am - 10:00pm\nTue:  11:00am - 10:00pm\nWed:  11:00am - 10:00pm\nThu:  11:00am - 10:00pm\nFri:  11:00am - 11:00pm\nSat:  11:00am - 11:00pm\n\nMonday - Thursday - bar open til 11:00pm\r\nFriday-Saturday - bar open til midnight","latitude":33.021301,"longitude":-117.113249,"isPrimary":"N","inPlanning":"N","isClosed":"N","openToPublic":"Y","locationType":"brewpub","locationTypeDisplay":"Brewpub","countryIsoCode":"US","status":"verified","statusDisplay":"Verified","createDate":"2014-07-25 22:39:57","updateDate":"2014-07-26 00:28:41","country":{"isoCode":"US","name":"UNITED STATES","displayName":"United States","isoThree":"USA","numberCode":840,"createDate":"2012-01-03 02:41:33"}},{"id":"xoyIik","name":"Temecula","streetAddress":"40868 Winchester Rd","locality":"Temecula","region":"California","postalCode":"92591","phone":"951-225-7960","website":"http://www.karlstrauss.com/breweryrestaurants/temecula.html","hoursOfOperation":"Sun:  11:00am - 10:00pm\nMon:  11:00am - 10:00pm\nTue:  11:00am - 10:00pm\nWed:  11:00am - 10:00pm\nThu:  11:00am - 10:00pm\nFri:  11:00am - 11:00pm\nSat:  11:00am - 11:00pm\n\nMonday - Thursday bar open til 11:00pm\r\nFriday-Saturday - bar open til midnight","latitude":33.524807,"longitude":-117.1590379,"isPrimary":"N","inPlanning":"N","isClosed":"N","openToPublic":"Y","locationType":"brewpub","locationTypeDisplay":"Brewpub","countryIsoCode":"US","status":"verified","statusDisplay":"Verified","createDate":"2014-07-25 22:41:14","updateDate":"2014-07-26 00:25:45","country":{"isoCode":"US","name":"UNITED STATES","displayName":"United States","isoThree":"USA","numberCode":840,"createDate":"2012-01-03 02:41:33"}},{"id":"a8h6sB","name":"Costa Mesa","streetAddress":"901A S Coast Dr","locality":"Costa Mesa","region":"California","postalCode":"92626","phone":"714-546-2739","website":"http://www.karlstrauss.com/breweryrestaurants/costamesa.html","hoursOfOperation":"Mon:  11:30am - 10:00pm\nTue:  11:30am - 10:00pm\nWed:  11:30am - 10:00pm\nThu:  11:30am - 10:00pm\nFri:  11:30am - 11:00pm\nSat:  11:30am - 11:00pm\nSun:  11:30am - 10:00pm\n\nMonday-Thursday - Bar Closes at Midnight\r\nFriday-Saturday - Bar Closes at 1:00am","latitude":33.6890819,"longitude":-117.8952442,"isPrimary":"N","inPlanning":"N","isClosed":"N","openToPublic":"Y","locationType":"brewpub","locationTypeDisplay":"Brewpub","countryIsoCode":"US","status":"verified","statusDisplay":"Verified","createDate":"2014-07-25 22:42:26","updateDate":"2014-07-26 00:27:42","country":{"isoCode":"US","name":"UNITED STATES","displayName":"United States","isoThree":"USA","numberCode":840,"createDate":"2012-01-03 02:41:33"}},{"id":"CSPv1c","name":"Universal CityWalk","streetAddress":"1000 Universal Studios Blvd","locality":"Universal City","region":"California","postalCode":"91608","phone":"818-753-2739","website":"http://www.karlstrauss.com/breweryrestaurants/citywalk.html","hoursOfOperation":"Sun:  11:00am - 9:00pm\nFri:  11:00am - 11:00pm\nSat:  11:00am - 11:00pm\n\n","latitude":34.1360834,"longitude":-118.3527568,"isPrimary":"N","inPlanning":"N","isClosed":"N","openToPublic":"Y","locationType":"brewpub","locationTypeDisplay":"Brewpub","countryIsoCode":"US","status":"verified","statusDisplay":"Verified","createDate":"2014-07-25 22:43:49","updateDate":"2014-07-26 00:24:50","country":{"isoCode":"US","name":"UNITED STATES","displayName":"United States","isoThree":"USA","numberCode":840,"createDate":"2012-01-03 02:41:33"}},{"id":"fbCdt8","name":"Main Brewery","streetAddress":"5520 US Route 4","locality":"Bridgewater Corners","region":"Vermont","postalCode":"05035","phone":"802-672-5011","website":"http://www.longtrail.com/","hoursOfOperation":"Mon - Sun: 10:00 am - 7:00 pm","latitude":43.5884545,"longitude":-72.6574974,"isPrimary":"Y","inPlanning":"N","isClosed":"N","openToPublic":"Y","locationType":"micro","locationTypeDisplay":"Micro Brewery","countryIsoCode":"US","yearOpened":"1989","status":"verified","statusDisplay":"Verified","createDate":"2012-01-03 02:42:01","updateDate":"2014-07-23 19:11:34","country":{"isoCode":"US","name":"UNITED STATES","displayName":"United States","isoThree":"USA","numberCode":840,"createDate":"2012-01-03 02:41:33"}},{"id":"zpGIxB","name":"Lost Coast Brewery & Café","streetAddress":"617 Fourth Street","locality":"Eureka","region":"California","postalCode":"95501","phone":"707-445-4484","website":"http://www.lostcoast.com/","latitude":40.803062,"longitude":-124.1646742,"isPrimary":"Y","inPlanning":"N","isClosed":"N","openToPublic":"Y","locationType":"micro","locationTypeDisplay":"Micro Brewery","countryIsoCode":"US","status":"verified","statusDisplay":"Verified","createDate":"2012-01-03 02:42:01","updateDate":"2014-07-23 19:11:34","country":{"isoCode":"US","name":"UNITED STATES","displayName":"United States","isoThree":"USA","numberCode":840,"createDate":"2012-01-03 02:41:33"}},{"id":"JNKlLM","name":"Lost Coast Brew House","streetAddress":"123 West Third St.","locality":"Eureka","region":"California","postalCode":"95501","phone":"707-445-4484","website":"http://www.lostcoast.com/","latitude":40.802505,"longitude":-124.174188,"isPrimary":"N","inPlanning":"N","isClosed":"N","openToPublic":"Y","locationType":"micro","locationTypeDisplay":"Micro Brewery","countryIsoCode":"US","status":"verified","statusDisplay":"Verified","createDate":"2012-05-22 16:56:28","updateDate":"2014-07-23 19:11:34","country":{"isoCode":"US","name":"UNITED STATES","displayName":"United States","isoThree":"USA","numberCode":840,"createDate":"2012-01-03 02:41:33"}},{"id":"FHHQQr","name":"Main Brewery","streetAddress":"101 Taylor Way","locality":"Blue Lake","region":"California","postalCode":"95525","phone":"1-707-668-4151","latitude":40.8789483,"longitude":-123.9925177,"isPrimary":"Y","inPlanning":"N","isClosed":"N","openToPublic":"Y","locationType":"micro","locationTypeDisplay":"Micro Brewery","countryIsoCode":"US","yearOpened":"1989","status":"verified","statusDisplay":"Verified","createDate":"2012-01-03 02:42:01","updateDate":"2014-07-26 00:32:55","country":{"isoCode":"US","name":"UNITED STATES","displayName":"United States","isoThree":"USA","numberCode":840,"createDate":"2012-01-03 02:41:33"}},{"id":"G5qvbf","name":"Main Brewery","streetAddress":"1809 Larkspur Landing Circle","locality":"Larkspur Landing","region":"California","postalCode":"94939","phone":"415-461-4677","website":"http://www.marinbrewing.com/","latitude":37.94832,"longitude":-122.509471,"isPrimary":"Y","inPlanning":"N","isClosed":"N","openToPublic":"Y","locationType":"brewpub","locationTypeDisplay":"Brewpub","countryIsoCode":"US","yearOpened":"1989","status":"verified","statusDisplay":"Verified","createDate":"2012-01-03 02:42:01","updateDate":"2014-07-23 19:11:34","country":{"isoCode":"US","name":"UNITED STATES","displayName":"United States","isoThree":"USA","numberCode":840,"createDate":"2012-01-03 02:41:33"}},{"id":"3h0ThS","name":"Main Brewery","streetAddress":"5080 Rue St-Ambroise","locality":"Montreal","region":"Quebec","postalCode":"H4C 2G","phone":"1-514-939-3060","website":"http://www.mcauslan.com","latitude":45.468182,"longitude":-73.591297,"isPrimary":"Y","inPlanning":"N","isClosed":"N","openToPublic":"Y","locationType":"micro","locationTypeDisplay":"Micro Brewery","countryIsoCode":"CA","status":"verified","statusDisplay":"Verified","createDate":"2012-01-03 02:41:48","updateDate":"2014-07-23 19:11:34","country":{"isoCode":"CA","name":"CANADA","displayName":"Canada","isoThree":"CAN","numberCode":124,"createDate":"2012-01-03 02:41:33"}},{"id":"eOm6Xk","name":"Main Brewery","streetAddress":"500 Linden Street","locality":"Fort Collins","region":"Colorado","postalCode":"80524","phone":"1-888-622-4044","website":"http://www.newbelgium.com/","latitude":40.593415,"longitude":-105.066874,"isPrimary":"Y","inPlanning":"N","isClosed":"N","openToPublic":"Y","locationType":"micro","locationTypeDisplay":"Micro Brewery","countryIsoCode":"US","yearOpened":"1989","status":"verified","statusDisplay":"Verified","createDate":"2012-01-03 02:42:03","updateDate":"2014-10-06 15:43:39","country":{"isoCode":"US","name":"UNITED STATES","displayName":"United States","isoThree":"USA","numberCode":840,"createDate":"2012-01-03 02:41:33"}},{"id":"m1a0ra","name":"Asheville","streetAddress":"155 Craven Street","locality":"Asheville","region":"North Carolina","postalCode":"28806","latitude":35.588813,"longitude":-82.573593,"isPrimary":"N","inPlanning":"Y","isClosed":"N","openToPublic":"N","locationType":"micro","locationTypeDisplay":"Micro Brewery","countryIsoCode":"US","status":"verified","statusDisplay":"Verified","createDate":"2012-04-06 12:29:33","updateDate":"2014-07-30 17:37:24","country":{"isoCode":"US","name":"UNITED STATES","displayName":"United States","isoThree":"USA","numberCode":840,"createDate":"2012-01-03 02:41:33"}},{"id":"Q4eTmd","name":"Main Brewery","streetAddress":"800 East Lincoln Avenue","locality":"Fort Collins","region":"Colorado","postalCode":"80524","phone":"1-888-887-2797","website":"http://odellbrewing.com/","hoursOfOperation":"Tap Room: \r\nMonday - Thursday 11am - 6pm \r\nFriday - Saturday: 11am - 7pm\r\n\r\nBrewery Tours:\r\nMonday - Saturday: 1:00, 2:00, & 3:00pm","latitude":40.5887805,"longitude":-105.0624591,"isPrimary":"Y","inPlanning":"N","isClosed":"N","openToPublic":"Y","locationType":"micro","locationTypeDisplay":"Micro Brewery","countryIsoCode":"US","yearOpened":"1989","status":"verified","statusDisplay":"Verified","createDate":"2012-01-03 02:42:04","updateDate":"2014-07-23 19:11:34","country":{"isoCode":"US","name":"UNITED STATES","displayName":"United States","isoThree":"USA","numberCode":840,"createDate":"2012-01-03 02:41:33"}},{"id":"vTwEN2","name":"Main Brewery","streetAddress":"1284 McD Drive","locality":"Dover","region":"Delaware","postalCode":"19901","phone":"302-678-4810","website":"http://www.olddominion.com/","latitude":39.1540034,"longitude":-75.4883626,"isPrimary":"Y","inPlanning":"N","isClosed":"N","openToPublic":"Y","locationType":"micro","locationTypeDisplay":"Micro Brewery","countryIsoCode":"US","yearOpened":"1989","status":"verified","statusDisplay":"Verified","createDate":"2012-01-03 02:42:04","updateDate":"2014-07-23 19:11:34","country":{"isoCode":"US","name":"UNITED STATES","displayName":"United States","isoThree":"USA","numberCode":840,"createDate":"2012-01-03 02:41:33"}},{"id":"COMf9V","name":"Main Brewery","streetAddress":"Lerchenstraße 8","locality":"Waibstadt","region":"Baden-Württemberg","postalCode":"74915","latitude":49.297066,"longitude":8.918484,"isPrimary":"N","inPlanning":"N","isClosed":"N","openToPublic":"Y","locationType":"micro","locationTypeDisplay":"Micro Brewery","countryIsoCode":"DE","status":"verified","statusDisplay":"Verified","createDate":"2012-08-12 14:47:26","updateDate":"2014-07-23 19:11:34","country":{"isoCode":"DE","name":"GERMANY","displayName":"Germany","isoThree":"DEU","numberCode":276,"createDate":"2012-01-03 02:41:33"}},{"id":"vDTfev","name":"Main Brewery","streetAddress":"147 West Broadway","locality":"Salt Lake City","region":"Utah","postalCode":"84101","phone":"801-363-2739","website":"http://www.squatters.com/","hoursOfOperation":"Mon-Thu 11:00am to 12:00 Midnight\r\nFri 11:00am to 1:00am\r\nSat 10:30am to 1:00am\r\nSun 10:30am to 12:00 Midnight","latitude":40.7625425,"longitude":-111.8957198,"isPrimary":"Y","inPlanning":"N","isClosed":"N","openToPublic":"Y","locationType":"micro","locationTypeDisplay":"Micro Brewery","countryIsoCode":"US","yearOpened":"1989","status":"verified","statusDisplay":"Verified","createDate":"2012-01-03 02:42:09","updateDate":"2014-09-11 10:27:47","country":{"isoCode":"US","name":"UNITED STATES","displayName":"United States","isoThree":"USA","numberCode":840,"createDate":"2012-01-03 02:41:33"}},{"id":"EfpGNo","name":"Park City","streetAddress":"1900 Park Avenue","locality":"Park City","region":"Utah","postalCode":"84060","phone":"435-649-9868","website":"http://www.squatters.com/","hoursOfOperation":"Sunday - Thursday 8:00am to 10:00pm\r\nFriday 8:00am to 11:00pm\r\nSaturday 8:00am to 11:00pm","latitude":40.66091,"longitude":-111.510628,"isPrimary":"N","inPlanning":"N","isClosed":"N","openToPublic":"N","locationType":"restaurant","locationTypeDisplay":"Restaurant/Ale House","countryIsoCode":"US","yearOpened":"1989","status":"verified","statusDisplay":"Verified","createDate":"2012-01-03 02:42:15","updateDate":"2014-09-11 10:24:49","country":{"isoCode":"US","name":"UNITED STATES","displayName":"United States","isoThree":"USA","numberCode":840,"createDate":"2012-01-03 02:41:33"}},{"id":"qzY4XF","name":"Salt Lake International Airport","streetAddress":"Salt Lake International Airport","extendedAddress":"Terminal 2 Concourse C","locality":"Salt Lake City","region":"Utah","phone":"801-575-2002","website":"http://www.squatters.com/","hoursOfOperation":"Daily 7:30am to 9:00pm","latitude":40.7607793,"longitude":-111.8910474,"isPrimary":"N","inPlanning":"N","isClosed":"N","openToPublic":"Y","locationType":"restaurant","locationTypeDisplay":"Restaurant/Ale House","countryIsoCode":"US","yearOpened":"2000","status":"verified","statusDisplay":"Verified","createDate":"2012-01-03 02:42:15","updateDate":"2014-09-11 10:23:31","country":{"isoCode":"US","name":"UNITED STATES","displayName":"United States","isoThree":"USA","numberCode":840,"createDate":"2012-01-03 02:41:33"}},{"id":"1cfDau","name":"Main Brewery","streetAddress":"1004 South Olde Oneida","locality":"Appleton","region":"Wisconsin","postalCode":"54915","phone":"(920) 735-0507","website":"http://www.stonecellarbrewpub.com/","hoursOfOperation":"Mon: 11:00 am - 9:00 pm\r\nTue - Sat: 11:00 am - 10:00 pm\r\nSun: 11:00 am - 9:00 pm","latitude":44.2532824,"longitude":-88.4038466,"isPrimary":"Y","inPlanning":"N","isClosed":"N","openToPublic":"Y","locationType":"micro","locationTypeDisplay":"Micro Brewery","countryIsoCode":"US","yearOpened":"1989","status":"verified","statusDisplay":"Verified","createDate":"2012-01-03 02:42:09","updateDate":"2014-07-23 19:11:34","country":{"isoCode":"US","name":"UNITED STATES","displayName":"United States","isoThree":"USA","numberCode":840,"createDate":"2012-01-03 02:41:33"}},{"id":"Pni8Jo","name":"Main Brewery","streetAddress":"2001 2nd Street","locality":"Davis","region":"California","postalCode":"95618","phone":"(530) 758-8700","website":"http://sudwerkbrew.com/","latitude":38.547241,"longitude":-121.725533,"isPrimary":"Y","inPlanning":"N","isClosed":"N","openToPublic":"Y","locationType":"micro","locationTypeDisplay":"Micro Brewery","countryIsoCode":"US","yearOpened":"1989","status":"verified","statusDisplay":"Verified","createDate":"2013-08-09 17:07:25","updateDate":"2014-07-23 19:11:34","country":{"isoCode":"US","name":"UNITED STATES","displayName":"United States","isoThree":"USA","numberCode":840,"createDate":"2012-01-03 02:41:33"}},{"id":"pcNq92","name":"Swans Brewery","streetAddress":"506 Pandora Ave","locality":"Victoria","region":"British Columbia","postalCode":"V8W 1N6","phone":"1-800-668-7926","website":"http://www.swanshotel.com","hoursOfOperation":"24 hours a day (hotel & info)","latitude":48.4285262,"longitude":-123.3694717,"isPrimary":"Y","inPlanning":"N","isClosed":"N","openToPublic":"N","locationType":"micro","locationTypeDisplay":"Micro Brewery","countryIsoCode":"CA","yearOpened":"1989","status":"verified","statusDisplay":"Verified","createDate":"2013-08-12 17:27:49","updateDate":"2014-07-23 19:11:34","country":{"isoCode":"CA","name":"CANADA","displayName":"Canada","isoThree":"CAN","numberCode":124,"createDate":"2012-01-03 02:41:33"}},{"id":"ketZE5","name":"Main Brewery","streetAddress":"2100 Locust Street","locality":"Saint Louis","region":"Missouri","postalCode":"63103","phone":"314-241-2337","website":"http://www.schlafly.com/","latitude":38.632968,"longitude":-90.209769,"isPrimary":"N","inPlanning":"N","isClosed":"N","openToPublic":"Y","locationType":"micro","locationTypeDisplay":"Micro Brewery","countryIsoCode":"US","yearOpened":"1989","status":"verified","statusDisplay":"Verified","createDate":"2012-01-03 02:42:10","updateDate":"2014-07-23 19:11:34","country":{"isoCode":"US","name":"UNITED STATES","displayName":"United States","isoThree":"USA","numberCode":840,"createDate":"2012-01-03 02:41:33"}},{"id":"JyJ8dh","name":"Schlafly Bottleworks","streetAddress":"7260 Southwest Ave.","locality":"Maplewood","region":"Missouri","postalCode":"63143","phone":"314-241-2337","website":"http://schlafly.com","hoursOfOperation":"Mon - Tue: 11:00 am - 11:00 pm\r\nWed - Sat: 11:00 am - 12:00 am\r\nSun: 11:00 am - 10:00 pm","latitude":38.6130246,"longitude":-90.3153033,"isPrimary":"Y","inPlanning":"N","isClosed":"N","openToPublic":"Y","locationType":"restaurant","locationTypeDisplay":"Restaurant/Ale House","countryIsoCode":"US","yearOpened":"2003","status":"verified","statusDisplay":"Verified","createDate":"2013-02-28 20:14:47","updateDate":"2014-07-23 19:11:34","country":{"isoCode":"US","name":"UNITED STATES","displayName":"United States","isoThree":"USA","numberCode":840,"createDate":"2012-01-03 02:41:33"}},{"id":"ipLG2T","name":"Main Brewery","streetAddress":"1045 Milllar Creek Road","locality":"Whistler","region":"British Columbia","postalCode":"V0N1B0","phone":"604-962-8889","website":"http://www.whistlerbeer.com/","latitude":50.0879464,"longitude":-123.0399453,"isPrimary":"Y","inPlanning":"N","isClosed":"N","openToPublic":"Y","locationType":"micro","locationTypeDisplay":"Micro Brewery","countryIsoCode":"CA","yearOpened":"1989","status":"verified","statusDisplay":"Verified","createDate":"2013-12-10 12:18:08","updateDate":"2014-07-23 19:11:34","country":{"isoCode":"CA","name":"CANADA","displayName":"Canada","isoThree":"CAN","numberCode":124,"createDate":"2012-01-03 02:41:33"}},{"id":"TrNp9N","name":"Main Brewpub","streetAddress":"Stuttgarter Str. 23","locality":"Stuttgart-Feuerbach","region":"Baden-Württemberg","postalCode":"70469","latitude":48.761009,"longitude":8.23147,"isPrimary":"N","inPlanning":"N","isClosed":"N","openToPublic":"Y","locationType":"brewpub","locationTypeDisplay":"Brewpub","countryIsoCode":"DE","status":"verified","statusDisplay":"Verified","createDate":"2012-08-12 14:45:32","updateDate":"2014-07-23 19:11:34","country":{"isoCode":"DE","name":"GERMANY","displayName":"Germany","isoThree":"DEU","numberCode":276,"createDate":"2012-01-03 02:41:33"}}]