[{"id":"anyHGI","name":"Main Brewery","streetAddress":"8 Mt. Desert Street","locality":"Bar Harbor","region":"Maine","postalCode":"04609","phone":"207-288-4592","website":"http://www.barharborbrewing.com/","hoursOfOperation":"Open 7 days a week\r\n10 AM - 7 PM","latitude":44.3874706,"longitude":-68.2045796,"isPrimary":"Y","inPlanning":"N","isClosed":"N","openToPublic":"Y","locationType":"micro","locationTypeDisplay":"Micro Brewery","countryIsoCode":"US","yearOpened":"1990","status":"verified","statusDisplay":"Verified","createDate":"2012-01-03 02:41:45","updateDate":"2014-07-23 19:11:34","country":{"isoCode":"US","name":"UNITED STATES","displayName":"United States","isoThree":"USA","numberCode":840,"createDate":"2012-01-03 02:41:33"}},{"id":"fTKNfx","name":"Main Brewpub","streetAddress":"Otto-Suhr Ring 27","locality":"Mainz-Kastel","region":"Hesse","postalCode":"55252","latitude":50.01748,"longitude":8.292084,"isPrimary":"Y","inPlanning":"N","isClosed":"N","openToPublic":"Y","locationType":"brewpub","locationTypeDisplay":"Brewpub","countryIsoCode":"DE","status":"verified","statusDisplay":"Verified","createDate":"2012-08-13 01:42:46","updateDate":"2014-07-23 19:11:34","country":{"isoCode":"DE","name":"GERMANY","displayName":"Germany","isoThree":"DEU","numberCode":276,"createDate":"2012-01-03 02:41:33"}},{"id":"VbvIxS","name":"Main Brewpub","streetAddress":"Overhagenweg 1","locality":"Coesfeld","region":"North Rhine-Westphalia","postalCode":"48653","latitude":51.93701,"longitude":7.156428,"isPrimary":"Y","inPlanning":"N","isClosed":"N","openToPublic":"Y","locationType":"brewpub","locationTypeDisplay":"Brewpub","countryIsoCode":"DE","status":"verified","statusDisplay":"Verified","createDate":"2012-08-13 00:33:55","updateDate":"2014-07-23 19:11:34","country":{"isoCode":"DE","name":"GERMANY","displayName":"Germany","isoThree":"DEU","numberCode":276,"createDate":"2012-01-03 02:41:33"}},{"id":"oOlTlB","name":"Main Brewery","streetAddress":"Wiesenmühlenstraße 13","locality":"Fulda","region":"Hesse","postalCode":"D-36037","latitude":50.55356,"longitude":9.674695,"isPrimary":"N","inPlanning":"N","isClosed":"N","openToPublic":"Y","locationType":"micro","locationTypeDisplay":"Micro Brewery","countryIsoCode":"DE","status":"verified","statusDisplay":"Verified","createDate":"2012-08-12 14:46:32","updateDate":"2014-07-23 19:11:34","country":{"isoCode":"DE","name":"GERMANY","displayName":"Germany","isoThree":"DEU","numberCode":276,"createDate":"2012-01-03 02:41:33"}},{"id":"s0WsY3","name":"Global Headquarters & Tasting Room","streetAddress":"471 Kalamath Street","locality":"Denver","region":"Colorado","postalCode":"80204","phone":"303-623-2739","website":"http://www.breckbrew.com/","latitude":39.7236683,"longitude":-105.0006015,"isPrimary":"Y","inPlanning":"N","isClosed":"N","openToPublic":"Y","locationType":"production","locationTypeDisplay":"Production Facility","countryIsoCode":"US","yearOpened":"1990","status":"verified","statusDisplay":"Verified","createDate":"2012-01-03 02:41:48","updateDate":"2014-09-11 10:27:14","country":{"isoCode":"US","name":"UNITED STATES","displayName":"United States","isoThree":"USA","numberCode":840,"createDate":"2012-01-03 02:41:33"}},{"id":"4nwOub","name":"Breckenridge Brewery & Pub","streetAddress":"600 South Main Street","locality":"Breckenridge","region":"Colorado","postalCode":"80424","phone":"970-453-1550","website":"http://www.breckbrewpub.com/","latitude":39.4761913,"longitude":-106.0438304,"isPrimary":"N","inPlanning":"N","isClosed":"N","openToPublic":"Y","locationType":"brewpub","locationTypeDisplay":"Brewpub","countryIsoCode":"US","status":"verified","statusDisplay":"Verified","createDate":"2014-03-17 10:34:20","updateDate":"2014-09-11 10:26:21","country":{"isoCode":"US","name":"UNITED STATES","displayName":"United States","isoThree":"USA","numberCode":840,"createDate":"2012-01-03 02:41:33"}},{"id":"h7fD42","name":"Breckenridge Colorado Craft","streetAddress":"2220 Blake Street","locality":"Denver","region":"Colorado","postalCode":"80205","phone":"303-297-3644","website":"http://www.breckbrew.com/food/breckenridge-colorado-craft","latitude":39.756297,"longitude":-104.991249,"isPrimary":"N","inPlanning":"N","isClosed":"N","openToPublic":"Y","locationType":"restaurant","locationTypeDisplay":"Restaurant/Ale House","countryIsoCode":"US","status":"verified","statusDisplay":"Verified","createDate":"2014-03-17 10:35:02","updateDate":"2014-07-23 19:11:34","country":{"isoCode":"US","name":"UNITED STATES","displayName":"United States","isoThree":"USA","numberCode":840,"createDate":"2012-01-03 02:41:33"}},{"id":"JRO1DT","name":"The Ale House, Grand Junction","streetAddress":"2531 North 12th Street","locality":"Grand Junction","region":"Colorado","postalCode":"81501","phone":"970-242-7253","website":"http://www.breckbrew.com/food/the-ale-house-grand-junction","latitude":39.0907673,"longitude":-108.5527476,"isPrimary":"N","inPlanning":"N","isClosed":"N","openToPublic":"Y","locationType":"restaurant","locationTypeDisplay":"Restaurant/Ale House","countryIsoCode":"US","status":"verified","statusDisplay":"Verified","createDate":"2014-03-17 10:35:57","updateDate":"2014-07-23 19:11:34","country":{"isoCode":"US","name":"UNITED STATES","displayName":"United States","isoThree":"USA","numberCode":840,"createDate":"2012-01-03 02:41:33"}},{"id":"vl6pMu","name":"The Ale House at Amato's,  Denver","streetAddress":"2501 16th St","locality":"Denver","region":"Colorado","postalCode":"80211","phone":"303-433-9734","website":"http://www.breckbrew.com/food/ale-house-amatos","latitude":39.7586246,"longitude":-105.0091788,"isPrimary":"N","inPlanning":"N","isClosed":"N","openToPublic":"Y","locationType":"restaurant","locationTypeDisplay":"Restaurant/Ale House","countryIsoCode":"US","status":"verified","statusDisplay":"Verified","createDate":"2014-03-17 10:36:30","updateDate":"2014-07-23 19:11:34","country":{"isoCode":"US","name":"UNITED STATES","displayName":"United States","isoThree":"USA","numberCode":840,"createDate":"2012-01-03 02:41:33"}},{"id":"EOsuuz","name":"Breckenridge Brewery & Farmhouse","streetAddress":"6775 S. Santa Fe","locality":"Littleton","region":"Colorado","postalCode":"80120","phone":"303.623.2739","website":"http://www.breckbrew.com","hoursOfOperation":"Opening Summer 2015\r\nVisit:  www.breckbrew.com/farmhousebrewery","latitude":39.59331,"longitude":-105.024306,"isPrimary":"N","inPlanning":"Y","isClosed":"Y","openToPublic":"N","locationType":"production","locationTypeDisplay":"Production Facility","countryIsoCode":"US","status":"verified","statusDisplay":"Verified","createDate":"2014-09-10 15:03:39","updateDate":"2014-09-29 20:36:30","country":{"isoCode":"US","name":"UNITED STATES","displayName":"United States","isoThree":"USA","numberCode":840,"createDate":"2012-01-03 02:41:33"}},{"id":"gK3HOe","name":"Main Brewery","streetAddress":"842 East 65th Street","locality":"Indianapolis","region":"Indiana","postalCode":"46220","phone":"1-317-253-2739","hoursOfOperation":"Mon - Thu:\t 11:00 am - 12:00 am\r\nFri - Sat: 11:00 am - 1:00 am\r\nSun: 12:00 pm - 10:00 pm","latitude":39.8734818,"longitude":-86.1428408,"isPrimary":"Y","inPlanning":"N","isClosed":"N","openToPublic":"Y","locationType":"brewpub","locationTypeDisplay":"Brewpub","countryIsoCode":"US","status":"verified","statusDisplay":"Verified","createDate":"2012-01-03 02:41:48","updateDate":"2014-07-23 19:11:34","country":{"isoCode":"US","name":"UNITED STATES","displayName":"United States","isoThree":"USA","numberCode":840,"createDate":"2012-01-03 02:41:33"}},{"id":"J6sCdF","name":"Main Brewpub","streetAddress":"Kirchenstraße 13","locality":"Buxtehude","region":"Lower Saxony","postalCode":"21614","latitude":53.47717,"longitude":9.703119,"isPrimary":"Y","inPlanning":"N","isClosed":"N","openToPublic":"Y","locationType":"brewpub","locationTypeDisplay":"Brewpub","countryIsoCode":"DE","status":"verified","statusDisplay":"Verified","createDate":"2012-08-13 01:17:00","updateDate":"2014-07-23 19:11:34","country":{"isoCode":"DE","name":"GERMANY","displayName":"Germany","isoThree":"DEU","numberCode":276,"createDate":"2012-01-03 02:41:33"}},{"id":"WtMfgN","name":"Main Brewery","streetAddress":"237 West Butler Avenue","locality":"Chalfont","region":"Pennsylvania","postalCode":"18914","phone":"215-822-8788","website":"http://www.crabbylarrys.com/","latitude":40.2795164,"longitude":-75.2142895,"isPrimary":"Y","inPlanning":"N","isClosed":"N","openToPublic":"Y","locationType":"brewpub","locationTypeDisplay":"Brewpub","countryIsoCode":"US","yearOpened":"1990","status":"verified","statusDisplay":"Verified","createDate":"2012-01-03 02:41:51","updateDate":"2014-07-23 19:11:34","country":{"isoCode":"US","name":"UNITED STATES","displayName":"United States","isoThree":"USA","numberCode":840,"createDate":"2012-01-03 02:41:33"}},{"id":"WhR9b5","name":"Main Brewery","streetAddress":"3000 Main Ave","locality":"Durango","region":"Colorado","postalCode":"81301","phone":"970-247-3396","website":"http://www.durangobrewing.com/","latitude":37.297666,"longitude":-107.871657,"isPrimary":"Y","inPlanning":"N","isClosed":"N","openToPublic":"Y","locationType":"micro","locationTypeDisplay":"Micro Brewery","countryIsoCode":"US","yearOpened":"1990","status":"verified","statusDisplay":"Verified","createDate":"2012-01-03 02:41:53","updateDate":"2014-07-23 19:11:34","country":{"isoCode":"US","name":"UNITED STATES","displayName":"United States","isoThree":"USA","numberCode":840,"createDate":"2012-01-03 02:41:33"}},{"id":"kpdGGu","name":"Main Brewery","streetAddress":"729 Q Street","locality":"Lincoln","region":"Nebraska","postalCode":"68508","phone":"402-434-5959","website":"http://www.empyreanbrewingco.com/","latitude":40.8158011,"longitude":-96.7106424,"isPrimary":"Y","inPlanning":"N","isClosed":"N","openToPublic":"Y","locationType":"micro","locationTypeDisplay":"Micro Brewery","countryIsoCode":"US","yearOpened":"1990","status":"verified","statusDisplay":"Verified","createDate":"2012-01-03 02:41:54","updateDate":"2014-07-23 19:11:34","country":{"isoCode":"US","name":"UNITED STATES","displayName":"United States","isoThree":"USA","numberCode":840,"createDate":"2012-01-03 02:41:33"}},{"id":"9KTxIH","name":"Main Brewery","streetAddress":"98 Poverty Lane","locality":"Lebanon","region":"New Hampshire","postalCode":"03766","phone":"603-448-1511","website":"http://www.farnumhillciders.com/","latitude":43.6026573,"longitude":-72.2890005,"isPrimary":"Y","inPlanning":"N","isClosed":"N","openToPublic":"Y","locationType":"micro","locationTypeDisplay":"Micro Brewery","countryIsoCode":"US","status":"verified","statusDisplay":"Verified","createDate":"2012-01-03 02:41:54","updateDate":"2014-09-26 13:21:30","country":{"isoCode":"US","name":"UNITED STATES","displayName":"United States","isoThree":"USA","numberCode":840,"createDate":"2012-01-03 02:41:33"}},{"id":"GrYzwp","name":"Main Brewery","streetAddress":"PO Box 457","locality":"Reardan","region":"Washington","postalCode":"99029","phone":"509-244-2536","website":"http://www.goldenhillsbrewing.com/","latitude":47.673457,"longitude":-117.880845,"isPrimary":"Y","inPlanning":"N","isClosed":"N","openToPublic":"Y","locationType":"micro","locationTypeDisplay":"Micro Brewery","countryIsoCode":"US","yearOpened":"1990","status":"verified","statusDisplay":"Verified","createDate":"2012-01-03 02:41:56","updateDate":"2014-07-23 19:11:34","country":{"isoCode":"US","name":"UNITED STATES","displayName":"United States","isoThree":"USA","numberCode":840,"createDate":"2012-01-03 02:41:33"}},{"id":"EDuyL7","name":"Main Brewery","streetAddress":"12763 Encanto Way","locality":"Redding","region":"California","postalCode":"96003","phone":"530-275-2705","website":"http://www.greatsexbrewing.com/","latitude":40.65954,"longitude":-122.309303,"isPrimary":"Y","inPlanning":"N","isClosed":"N","openToPublic":"Y","locationType":"micro","locationTypeDisplay":"Micro Brewery","countryIsoCode":"US","yearOpened":"1990","status":"verified","statusDisplay":"Verified","createDate":"2012-01-03 02:41:56","updateDate":"2014-07-23 19:11:34","country":{"isoCode":"US","name":"UNITED STATES","displayName":"United States","isoThree":"USA","numberCode":840,"createDate":"2012-01-03 02:41:33"}},{"id":"cKQqRC","name":"Main Brewery","streetAddress":"Talstr. 38 d","locality":"Homburg","postalCode":"66424","latitude":49.321152,"longitude":7.337624,"isPrimary":"Y","inPlanning":"N","isClosed":"N","openToPublic":"Y","locationType":"micro","locationTypeDisplay":"Micro Brewery","countryIsoCode":"DE","status":"verified","statusDisplay":"Verified","createDate":"2012-08-16 13:31:55","updateDate":"2014-07-23 19:11:34","country":{"isoCode":"DE","name":"GERMANY","displayName":"Germany","isoThree":"DEU","numberCode":276,"createDate":"2012-01-03 02:41:33"}},{"id":"jMkADP","name":"Maritime Pacific Brewing Company and the Jolly Roger Taproom","streetAddress":"1111 N.W. Ballard Way","locality":"Seattle","region":"Washington","postalCode":"98107","phone":"(206) 782-6181","website":"http://maritimebrewery.com/","hoursOfOperation":"Mon-Thurs. 11:00 am -11:00 pm \r\n     Fri-Sat 11:00 am - Midnight           Sunday 12 noon - 9:00 pm     Mon-fri Happy Hour 3-6:00pm","latitude":47.6626916,"longitude":-122.3715725,"isPrimary":"Y","inPlanning":"N","isClosed":"N","openToPublic":"Y","locationType":"micro","locationTypeDisplay":"Micro Brewery","countryIsoCode":"US","status":"verified","statusDisplay":"Verified","createDate":"2012-01-03 02:42:01","updateDate":"2014-07-23 19:11:34","country":{"isoCode":"US","name":"UNITED STATES","displayName":"United States","isoThree":"USA","numberCode":840,"createDate":"2012-01-03 02:41:33"}},{"id":"vfrkSK","name":"Main Brewery","streetAddress":"1202 Adams Avenue","locality":"La Grande","region":"Oregon","postalCode":"97850","phone":"541-962-7711","website":"http://www.mtemilyalehouse.com/","latitude":45.3282605,"longitude":-118.0943535,"isPrimary":"Y","inPlanning":"N","isClosed":"Y","openToPublic":"Y","locationType":"micro","locationTypeDisplay":"Micro Brewery","countryIsoCode":"US","yearOpened":"1990","yearClosed":"2013","status":"verified","statusDisplay":"Verified","createDate":"2012-01-03 02:42:03","updateDate":"2014-07-23 19:11:34","country":{"isoCode":"US","name":"UNITED STATES","displayName":"United States","isoThree":"USA","numberCode":840,"createDate":"2012-01-03 02:41:33"}},{"id":"IuwgXx","name":"Main Brewery","streetAddress":"Bottchenbachstraße 1","locality":"Sangerhausen","postalCode":"06526","latitude":51.49666,"longitude":11.27979,"isPrimary":"Y","inPlanning":"N","isClosed":"N","openToPublic":"Y","locationType":"micro","locationTypeDisplay":"Micro Brewery","countryIsoCode":"DE","status":"verified","statusDisplay":"Verified","createDate":"2012-08-16 14:16:53","updateDate":"2014-07-23 19:11:34","country":{"isoCode":"DE","name":"GERMANY","displayName":"Germany","isoThree":"DEU","numberCode":276,"createDate":"2012-01-03 02:41:33"}},{"id":"TxaTZN","name":"Main Brewery","streetAddress":"223 - 301 North Franklin Street","locality":"Watkins Glen","region":"New York","postalCode":"14891","phone":"607-535-9797","website":"http://www.roosterfishbrewing.com/","hoursOfOperation":"Mon - Sun: 11:30 am - 12:30 am","latitude":42.381121,"longitude":-76.874257,"isPrimary":"Y","inPlanning":"N","isClosed":"N","openToPublic":"Y","locationType":"micro","locationTypeDisplay":"Micro Brewery","countryIsoCode":"US","yearOpened":"1990","status":"verified","statusDisplay":"Verified","createDate":"2012-01-03 02:42:07","updateDate":"2014-07-23 19:11:34","country":{"isoCode":"US","name":"UNITED STATES","displayName":"United States","isoThree":"USA","numberCode":840,"createDate":"2012-01-03 02:41:33"}},{"id":"OubaWB","name":"Roslyn Brewing Company","streetAddress":"208 Pennsylvania Ave","locality":"Rosyln","region":"Washington","postalCode":"98941","phone":"509-649-2232","hoursOfOperation":"Thursday, 1:00 PM - 6:00 PM, Friday and Saturday, 12:00 Noon - 8:00 PM, and on Sunday from 12:00 Noon until 5:00 PM .","latitude":47.22363,"longitude":-120.991686,"isPrimary":"Y","inPlanning":"N","isClosed":"N","openToPublic":"Y","locationType":"micro","locationTypeDisplay":"Micro Brewery","countryIsoCode":"US","status":"verified","statusDisplay":"Verified","createDate":"2014-01-10 19:33:32","updateDate":"2014-07-23 19:11:34","country":{"isoCode":"US","name":"UNITED STATES","displayName":"United States","isoThree":"USA","numberCode":840,"createDate":"2012-01-03 02:41:33"}},{"id":"Eq5Afv","name":"Main Brewery","streetAddress":"Dobenaustr. 83","locality":"Plauen","region":"Saxony","postalCode":"08523","latitude":50.498546,"longitude":12.125532,"isPrimary":"Y","inPlanning":"N","isClosed":"N","openToPublic":"Y","locationType":"micro","locationTypeDisplay":"Micro Brewery","countryIsoCode":"DE","status":"verified","statusDisplay":"Verified","createDate":"2012-08-12 23:51:19","updateDate":"2014-07-23 19:11:34","country":{"isoCode":"DE","name":"GERMANY","displayName":"Germany","isoThree":"DEU","numberCode":276,"createDate":"2012-01-03 02:41:33"}},{"id":"60qj0h","name":"Main Brewery","streetAddress":"80 Des Carrières Street","locality":"Chambly","region":"Québec","postalCode":"J3L 2H6","phone":"1-450-658-7658","website":"http://www.unibroue.com/","latitude":45.466125,"longitude":-73.290924,"isPrimary":"Y","inPlanning":"N","isClosed":"N","openToPublic":"Y","locationType":"micro","locationTypeDisplay":"Micro Brewery","countryIsoCode":"CA","yearOpened":"1990","status":"verified","statusDisplay":"Verified","createDate":"2012-01-03 02:42:11","updateDate":"2014-07-23 19:11:34","country":{"isoCode":"CA","name":"CANADA","displayName":"Canada","isoThree":"CAN","numberCode":124,"createDate":"2012-01-03 02:41:33"}},{"id":"R3TtFY","name":"Main Brewery","streetAddress":"923 West 7th","locality":"Little Rock","region":"Arkansas","postalCode":"72201","phone":"501-375-8466","website":"http://www.vinosbrewpub.com/","latitude":34.7433171,"longitude":-92.282139,"isPrimary":"Y","inPlanning":"N","isClosed":"N","openToPublic":"Y","locationType":"micro","locationTypeDisplay":"Micro Brewery","countryIsoCode":"US","yearOpened":"1990","status":"verified","statusDisplay":"Verified","createDate":"2012-01-03 02:42:12","updateDate":"2014-07-23 19:11:34","country":{"isoCode":"US","name":"UNITED STATES","displayName":"United States","isoThree":"USA","numberCode":840,"createDate":"2012-01-03 02:41:33"}},{"id":"GBZnGx","name":"Main Brewery","streetAddress":"New Alloa Brewery, Kelliebank","locality":"Alloa","region":"Scotland","postalCode":"FK10 1NT","phone":"44-(01259)-725511","website":"http://www.williamsbrosbrew.com","latitude":56.11632,"longitude":-3.795194,"isPrimary":"Y","inPlanning":"N","isClosed":"N","openToPublic":"Y","locationType":"micro","locationTypeDisplay":"Micro Brewery","countryIsoCode":"GB","yearOpened":"1990","status":"verified","statusDisplay":"Verified","createDate":"2012-01-03 02:42:13","updateDate":"2014-07-23 19:11:34","country":{"isoCode":"GB","name":"UNITED KINGDOM","displayName":"United Kingdom","isoThree":"GBR","numberCode":826,"createDate":"2012-01-03 02:41:33"}}]