[{"id":"NZakfr","name":"Main Brewery","streetAddress":"Westanlage 30-32","locality":"Gießen","region":"Hessen","postalCode":"D-35390","latitude":50.586449,"longitude":8.677055,"isPrimary":"N","inPlanning":"N","isClosed":"N","openToPublic":"Y","locationType":"micro","locationTypeDisplay":"Micro Brewery","countryIsoCode":"DE","status":"verified","statusDisplay":"Verified","createDate":"2012-08-12 14:47:33","updateDate":"2014-07-23 19:11:34","country":{"isoCode":"DE","name":"GERMANY","displayName":"Germany","isoThree":"DEU","numberCode":276,"createDate":"2012-01-03 02:41:33"}},{"id":"dRcIs0","name":"Main Brewery","streetAddress":"15 Knox Rd.","locality":"Bar Harbor","region":"Maine","postalCode":"04609","phone":"207-288-BEER","website":"http://www.atlanticbrewing.com","hoursOfOperation":"Open 7 Days a Week\r\nFrom Memorial Day to Columbus Day\r\n\r\n\r\nuly/August Hours\r\n\r\nGift Shop: 10am-6pm\r\nFree tours and tastings at 2, 3 & 4pm","latitude":44.399624,"longitude":-68.3333,"isPrimary":"Y","inPlanning":"N","isClosed":"N","openToPublic":"Y","locationType":"micro","locationTypeDisplay":"Micro Brewery","countryIsoCode":"US","yearOpened":"1991","status":"verified","statusDisplay":"Verified","createDate":"2012-01-03 02:41:44","updateDate":"2014-09-29 20:33:34","country":{"isoCode":"US","name":"UNITED STATES","displayName":"United States","isoThree":"USA","numberCode":840,"createDate":"2012-01-03 02:41:33"}},{"id":"yUFT6r","name":"Main Brewery","streetAddress":"254 Crown St.","locality":"New Haven","region":"Connecticut","postalCode":"06511","phone":"203-495-8924","website":"http://www.barnightclub.com/","latitude":41.306174,"longitude":-72.9300026,"isPrimary":"Y","inPlanning":"N","isClosed":"N","openToPublic":"Y","locationType":"brewpub","locationTypeDisplay":"Brewpub","countryIsoCode":"US","yearOpened":"1991","status":"verified","statusDisplay":"Verified","createDate":"2012-01-03 02:41:45","updateDate":"2014-07-23 19:11:34","country":{"isoCode":"US","name":"UNITED STATES","displayName":"United States","isoThree":"USA","numberCode":840,"createDate":"2012-01-03 02:41:33"}},{"id":"DLWSpF","name":"Main Brewery","streetAddress":"5. května 1","region":"Humpolec","postalCode":"39601","phone":"+420 565 300 217","website":"http://www.bernard.cz/","latitude":49.539955,"longitude":15.3597836,"isPrimary":"Y","inPlanning":"N","isClosed":"N","openToPublic":"Y","locationType":"micro","locationTypeDisplay":"Micro Brewery","countryIsoCode":"CZ","status":"verified","statusDisplay":"Verified","createDate":"2014-04-01 14:26:40","updateDate":"2014-07-23 19:11:34","country":{"isoCode":"CZ","name":"CZECH REPUBLIC","displayName":"Czech Republic","isoThree":"CZE","numberCode":203,"createDate":"2012-01-03 02:41:33"}},{"id":"zO43CF","name":"Main Brewery","streetAddress":"Roonstr. 33","locality":"Köln","region":"Nordrhein-Westfalen","postalCode":"50674","phone":"+49 0221 24 25 45","latitude":50.932354,"longitude":6.934285,"isPrimary":"N","inPlanning":"N","isClosed":"N","openToPublic":"Y","locationType":"micro","locationTypeDisplay":"Micro Brewery","countryIsoCode":"DE","status":"verified","statusDisplay":"Verified","createDate":"2012-08-12 14:48:06","updateDate":"2014-07-23 19:11:34","country":{"isoCode":"DE","name":"GERMANY","displayName":"Germany","isoThree":"DEU","numberCode":276,"createDate":"2012-01-03 02:41:33"}},{"id":"bVrLGO","name":"Main Brewery","streetAddress":"Spreeufer 4","locality":"Berlin","region":"Berlin","postalCode":"10178","latitude":52.51646,"longitude":13.405201,"isPrimary":"Y","inPlanning":"N","isClosed":"N","openToPublic":"Y","locationType":"micro","locationTypeDisplay":"Micro Brewery","countryIsoCode":"DE","status":"verified","statusDisplay":"Verified","createDate":"2012-08-16 12:16:20","updateDate":"2014-07-23 19:11:34","country":{"isoCode":"DE","name":"GERMANY","displayName":"Germany","isoThree":"DEU","numberCode":276,"createDate":"2012-01-03 02:41:33"}},{"id":"4TQaKN","name":"Main Brewpub","streetAddress":"Marktstraße 13","locality":"Bad Münder","region":"Lower Saxony","postalCode":"31848","latitude":52.195292,"longitude":9.464534,"isPrimary":"Y","inPlanning":"N","isClosed":"N","openToPublic":"Y","locationType":"brewpub","locationTypeDisplay":"Brewpub","countryIsoCode":"DE","status":"verified","statusDisplay":"Verified","createDate":"2012-08-13 01:14:52","updateDate":"2014-07-23 19:11:34","country":{"isoCode":"DE","name":"GERMANY","displayName":"Germany","isoThree":"DEU","numberCode":276,"createDate":"2012-01-03 02:41:33"}},{"id":"kBJfOD","name":"Main Brewery","streetAddress":"23 Hayward St.","locality":"Ipswich","region":"Massachusetts","postalCode":"01938","phone":"978-356-3329","website":"http://www.IpswichAleBrewery.com/","latitude":42.672726,"longitude":-70.843912,"isPrimary":"Y","inPlanning":"N","isClosed":"N","openToPublic":"Y","locationType":"micro","locationTypeDisplay":"Micro Brewery","countryIsoCode":"US","yearOpened":"1991","status":"verified","statusDisplay":"Verified","createDate":"2012-01-03 02:42:02","updateDate":"2014-09-26 13:35:34","country":{"isoCode":"US","name":"UNITED STATES","displayName":"United States","isoThree":"USA","numberCode":840,"createDate":"2012-01-03 02:41:33"}},{"id":"6vcsbV","name":"Main Brewery","streetAddress":"602 Myrtle St.","locality":"Missoula","region":"Montana","postalCode":"59801","phone":"406-728-1660","website":"http://www.kettlehouse.com/","latitude":46.865708,"longitude":-113.998587,"isPrimary":"Y","inPlanning":"N","isClosed":"N","openToPublic":"Y","locationType":"micro","locationTypeDisplay":"Micro Brewery","countryIsoCode":"US","yearOpened":"1991","status":"verified","statusDisplay":"Verified","createDate":"2012-01-03 02:41:59","updateDate":"2014-07-23 19:11:34","country":{"isoCode":"US","name":"UNITED STATES","displayName":"United States","isoThree":"USA","numberCode":840,"createDate":"2012-01-03 02:41:33"}},{"id":"SHa2O7","name":"Main Brewery","streetAddress":"1621 Dana Ave.","locality":"Cincinnati","region":"Ohio","postalCode":"45212","phone":"513-731-1130","website":"http://www.listermann.com/","latitude":39.145628,"longitude":-84.47405,"isPrimary":"Y","inPlanning":"N","isClosed":"N","openToPublic":"Y","locationType":"micro","locationTypeDisplay":"Micro Brewery","countryIsoCode":"US","yearOpened":"1991","status":"verified","statusDisplay":"Verified","createDate":"2012-01-03 02:42:00","updateDate":"2014-07-23 19:11:34","country":{"isoCode":"US","name":"UNITED STATES","displayName":"United States","isoThree":"USA","numberCode":840,"createDate":"2012-01-03 02:41:33"}},{"id":"NVXUnk","name":"Main Brewery","streetAddress":"130-g N. Santa Cruz Avenue","locality":"Los Gatos","region":"California","postalCode":"95030","phone":"408-395-9929","website":"http://www.lgbrewingco.com/","latitude":37.225399,"longitude":-121.982542,"isPrimary":"Y","inPlanning":"N","isClosed":"N","openToPublic":"Y","locationType":"brewpub","locationTypeDisplay":"Brewpub","countryIsoCode":"US","yearOpened":"1991","status":"verified","statusDisplay":"Verified","createDate":"2012-01-03 02:42:01","updateDate":"2014-07-23 19:11:34","country":{"isoCode":"US","name":"UNITED STATES","displayName":"United States","isoThree":"USA","numberCode":840,"createDate":"2012-01-03 02:41:33"}},{"id":"4ucq5J","name":"Main Brewery","streetAddress":"124 Manhattan Beach Boulevard","locality":"Manhattan Beach","region":"California","postalCode":"90266","phone":"1-310-378-2744","website":"http://www.brewcomb.com/","hoursOfOperation":"Daily 11:30am to Closing","latitude":33.8843712,"longitude":-118.4109935,"isPrimary":"Y","inPlanning":"N","isClosed":"Y","openToPublic":"Y","locationType":"restaurant","locationTypeDisplay":"Restaurant/Ale House","countryIsoCode":"US","yearOpened":"1991","yearClosed":"2009","status":"verified","statusDisplay":"Verified","createDate":"2012-01-03 02:42:01","updateDate":"2014-07-23 19:11:34","country":{"isoCode":"US","name":"UNITED STATES","displayName":"United States","isoThree":"USA","numberCode":840,"createDate":"2012-01-03 02:41:33"}},{"id":"VfGWXo","name":"Main Brewery","streetAddress":"19201 Bear Valley Rd","locality":"Apple Valley","region":"California","postalCode":"92308","phone":"760-792-2622","website":"http://www.oggis.com/","latitude":34.468974,"longitude":-117.24352,"isPrimary":"Y","inPlanning":"N","isClosed":"N","openToPublic":"Y","locationType":"brewpub","locationTypeDisplay":"Brewpub","countryIsoCode":"US","status":"verified","statusDisplay":"Verified","createDate":"2012-01-03 02:42:04","updateDate":"2014-07-23 19:11:34","country":{"isoCode":"US","name":"UNITED STATES","displayName":"United States","isoThree":"USA","numberCode":840,"createDate":"2012-01-03 02:41:33"}},{"id":"bXWx3Z","name":"Vista","streetAddress":"425 South Melrose Drive","locality":"Vista","region":"California","postalCode":"92083","phone":"1-760-295-3581","latitude":33.2041804,"longitude":-117.2544271,"isPrimary":"N","inPlanning":"N","isClosed":"N","openToPublic":"N","locationType":"micro","locationTypeDisplay":"Micro Brewery","countryIsoCode":"US","status":"verified","statusDisplay":"Verified","createDate":"2012-01-03 02:42:15","updateDate":"2014-07-23 19:11:34","country":{"isoCode":"US","name":"UNITED STATES","displayName":"United States","isoThree":"USA","numberCode":840,"createDate":"2012-01-03 02:41:33"}},{"id":"akd3fw","name":"Main Brewery","streetAddress":"793 Exchange Street","locality":"Middlebury","region":"Vermont","postalCode":"05753","phone":"1-888-473-0727","website":"http://www.ottercreekbrewing.com/","latitude":44.019665,"longitude":-73.169251,"isPrimary":"Y","inPlanning":"N","isClosed":"N","openToPublic":"Y","locationType":"micro","locationTypeDisplay":"Micro Brewery","countryIsoCode":"US","yearOpened":"1991","status":"verified","statusDisplay":"Verified","createDate":"2012-01-03 02:42:05","updateDate":"2014-09-26 13:44:19","country":{"isoCode":"US","name":"UNITED STATES","displayName":"United States","isoThree":"USA","numberCode":840,"createDate":"2012-01-03 02:41:33"}},{"id":"fKk5B1","name":"Main Brewpub","streetAddress":"56 Market Street","locality":"Portsmouth","region":"New Hampshire","postalCode":"03801","phone":"1-603-431-1115","website":"http://www.portsmouthbrewery.com/","latitude":43.0780069,"longitude":-70.7575978,"isPrimary":"Y","inPlanning":"N","isClosed":"N","openToPublic":"Y","locationType":"brewpub","locationTypeDisplay":"Brewpub","countryIsoCode":"US","yearOpened":"1991","status":"verified","statusDisplay":"Verified","createDate":"2012-01-03 02:42:06","updateDate":"2014-09-26 13:50:01","country":{"isoCode":"US","name":"UNITED STATES","displayName":"United States","isoThree":"USA","numberCode":840,"createDate":"2012-01-03 02:41:33"}},{"id":"z3YEc1","name":"Main Brewery","streetAddress":"6901 Konica Drive","locality":"Whitsett","region":"North Carolina","postalCode":"27377","phone":"888-Red-Oaks","website":"http://www.redoakbrewery.com/","hoursOfOperation":"Brewery Tours are every Friday at 3:00 pm (21 and up only). The tour is $10/person. This price includes a newly designed collectable brewery glass for you to keep.","latitude":36.061258,"longitude":-79.56952,"isPrimary":"Y","inPlanning":"N","isClosed":"N","openToPublic":"Y","locationType":"micro","locationTypeDisplay":"Micro Brewery","countryIsoCode":"US","yearOpened":"1991","status":"verified","statusDisplay":"Verified","createDate":"2012-01-03 02:42:06","updateDate":"2014-07-23 19:11:34","country":{"isoCode":"US","name":"UNITED STATES","displayName":"United States","isoThree":"USA","numberCode":840,"createDate":"2012-01-03 02:41:33"}},{"id":"NYOvdO","name":"Main Brewery","streetAddress":"Alyvų g. 8, Biržų k.","locality":"41180 Birž? r.","phone":"+370 450 3 52 93","website":"http://www.rinkuskiai.lt/","isPrimary":"Y","inPlanning":"N","isClosed":"N","openToPublic":"Y","locationType":"micro","locationTypeDisplay":"Micro Brewery","countryIsoCode":"LT","yearOpened":"1991","status":"verified","statusDisplay":"Verified","createDate":"2012-01-03 02:42:07","updateDate":"2014-07-23 19:11:34","country":{"isoCode":"LT","name":"LITHUANIA","displayName":"Lithuania","isoThree":"LTU","numberCode":440,"createDate":"2012-01-03 02:41:33"}},{"id":"MFHx7I","name":"Sidería Urbitarte","locality":"Ataun","region":"Guipúzcoa","postalCode":"20211","latitude":42.9796527,"longitude":-2.1646722,"isPrimary":"Y","inPlanning":"N","isClosed":"N","openToPublic":"Y","locationType":"cidery","locationTypeDisplay":"Cidery","countryIsoCode":"ES","status":"new_unverified","statusDisplay":"New, Unverified","createDate":"2014-10-19 19:59:09","updateDate":"2014-10-19 19:59:09","country":{"isoCode":"ES","name":"SPAIN","displayName":"Spain","isoThree":"ESP","numberCode":724,"createDate":"2012-01-03 02:41:33"}},{"id":"0UlisL","name":"Main Brewery","streetAddress":"124 Wonder Street","locality":"Reno","region":"Nevada","postalCode":"89502","phone":"775-324-3970","website":"http://silverpeakbrewery.com/","latitude":39.513765,"longitude":-119.805946,"isPrimary":"Y","inPlanning":"N","isClosed":"N","openToPublic":"Y","locationType":"micro","locationTypeDisplay":"Micro Brewery","countryIsoCode":"US","yearOpened":"1991","status":"verified","statusDisplay":"Verified","createDate":"2012-01-03 02:42:08","updateDate":"2014-07-23 19:11:34","country":{"isoCode":"US","name":"UNITED STATES","displayName":"United States","isoThree":"USA","numberCode":840,"createDate":"2012-01-03 02:41:33"}},{"id":"U4yx1q","name":"Main Brewery","streetAddress":"204 Challenger Way","locality":"Hampton","region":"Virginia","postalCode":"23666","phone":"757-865-BEER","website":"http://www.stgeorgebrewingco.com/","latitude":37.099922,"longitude":-76.394646,"isPrimary":"Y","inPlanning":"N","isClosed":"N","openToPublic":"Y","locationType":"micro","locationTypeDisplay":"Micro Brewery","countryIsoCode":"US","yearOpened":"1991","status":"verified","statusDisplay":"Verified","createDate":"2012-01-03 02:42:09","updateDate":"2014-07-23 19:11:34","country":{"isoCode":"US","name":"UNITED STATES","displayName":"United States","isoThree":"USA","numberCode":840,"createDate":"2012-01-03 02:41:33"}},{"id":"oVgASw","name":"Burlingame","streetAddress":"333 California Drive","locality":"Burlingame","region":"California","postalCode":"94010","phone":"(650) 344-6050","website":"http://steelheadbrewery.com/burlingame/","latitude":37.5799472,"longitude":-122.3462964,"isPrimary":"N","inPlanning":"N","isClosed":"N","openToPublic":"Y","locationType":"brewpub","locationTypeDisplay":"Brewpub","countryIsoCode":"US","status":"verified","statusDisplay":"Verified","createDate":"2014-11-22 12:47:09","updateDate":"2014-11-22 12:47:52","country":{"isoCode":"US","name":"UNITED STATES","displayName":"United States","isoThree":"USA","numberCode":840,"createDate":"2012-01-03 02:41:33"}},{"id":"QpOycN","name":"Main Brewery","streetAddress":"199 East 5th Avenue","locality":"Eugene","region":"Oregon","postalCode":"97401","phone":"(541) 686-2739","website":"http://steelheadbrewery.com/eugene/","hoursOfOperation":"Mon:  11:30am - 10:00pm\nFri:  11:30am - 11:00pm\nSun:  9:00am - 10:00pm\n\n","latitude":44.0545973,"longitude":-123.0900886,"isPrimary":"Y","inPlanning":"N","isClosed":"N","openToPublic":"Y","locationType":"micro","locationTypeDisplay":"Micro Brewery","countryIsoCode":"US","status":"verified","statusDisplay":"Verified","createDate":"2014-11-22 12:47:52","updateDate":"2014-11-22 12:47:52","country":{"isoCode":"US","name":"UNITED STATES","displayName":"United States","isoThree":"USA","numberCode":840,"createDate":"2012-01-03 02:41:33"}},{"id":"JD4r3F","name":"Main Brewery","streetAddress":"705 Fulton St","locality":"Boise","region":"Idaho","postalCode":"83702","phone":"208-342-0944","website":"http://www.tablerockbrewpub.com/","hoursOfOperation":"Mon - Tues: 11:00 am - 9:30 pm\r\nWed - Thurs: 11:00 am - 10:00 pm\r\nFri - Sat: 11:00 am - 11:00 pm\r\nSun: 11:00 am - 9:30 pm","latitude":43.611205,"longitude":-116.206492,"isPrimary":"Y","inPlanning":"N","isClosed":"N","openToPublic":"Y","locationType":"brewpub","locationTypeDisplay":"Brewpub","countryIsoCode":"US","yearOpened":"1991","status":"verified","statusDisplay":"Verified","createDate":"2012-01-03 02:42:09","updateDate":"2014-07-23 19:11:34","country":{"isoCode":"US","name":"UNITED STATES","displayName":"United States","isoThree":"USA","numberCode":840,"createDate":"2012-01-03 02:41:33"}},{"id":"w8FpFj","name":"Main Brewery","streetAddress":"153 Pond Lane","locality":"Middlebury","region":"Vermont","postalCode":"05753","phone":"(802) 873-9045","website":"http://www.woodchuck.com/","latitude":44.034351,"longitude":-73.173546,"isPrimary":"Y","inPlanning":"N","isClosed":"N","openToPublic":"Y","locationType":"micro","locationTypeDisplay":"Micro Brewery","countryIsoCode":"US","yearOpened":"1991","status":"verified","statusDisplay":"Verified","createDate":"2012-01-03 02:41:56","updateDate":"2014-07-23 19:11:34","country":{"isoCode":"US","name":"UNITED STATES","displayName":"United States","isoThree":"USA","numberCode":840,"createDate":"2012-01-03 02:41:33"}},{"id":"Up1PZp","name":"Main Brewery","streetAddress":"967 Main Street","locality":"Willimantic","region":"Connecticut","postalCode":"06226","phone":"860-423-6777","website":"http://willibrew.com/","hoursOfOperation":"Sunday: 11:30 AM - 1:00 AM\r\nMonday: 4:00 PM - 1:00 AM\r\nTuesday: 11:30 AM - 1:00 AM\r\nWednesday: 11:30 AM - 1:00 AM\r\nThursday: 11:30 AM - 1:00 AM\r\nFriday: 11:30 AM - 2:00 AM\r\nSaturday: 11:30 AM - 2:00 AM","latitude":41.7128629,"longitude":-72.2172641,"isPrimary":"Y","inPlanning":"N","isClosed":"N","openToPublic":"Y","locationType":"brewpub","locationTypeDisplay":"Brewpub","countryIsoCode":"US","yearOpened":"1991","status":"verified","statusDisplay":"Verified","createDate":"2012-01-03 02:42:13","updateDate":"2014-09-26 14:00:29","country":{"isoCode":"US","name":"UNITED STATES","displayName":"United States","isoThree":"USA","numberCode":840,"createDate":"2012-01-03 02:41:33"}}]