[{"id":"TaDE9V","name":"Main Brewery","streetAddress":"353 High St","locality":"Lincolnville","region":"Maine","postalCode":"04849","phone":"(207) 763-3305","website":"http://www.mainebrewersguild.org/andrews.php","hoursOfOperation":"Mon:  7:00am - 4:00pm\nTue:  7:00am - 4:00pm\nWed:  7:00am - 4:00pm\nThu:  7:00am - 4:00pm\nFri:  7:00am - 4:00pm\nSat:  9:00am - 10:00am\n\nMon - Fri: 7:00 am - 4:00 pm\r\nSat: 9:00 am - 10:00 am","latitude":44.3139494,"longitude":-69.1336523,"isPrimary":"Y","inPlanning":"N","isClosed":"N","openToPublic":"Y","locationType":"micro","locationTypeDisplay":"Micro Brewery","countryIsoCode":"US","yearOpened":"1992","status":"verified","statusDisplay":"Verified","createDate":"2012-01-03 02:41:44","updateDate":"2014-08-25 19:12:47","country":{"isoCode":"US","name":"UNITED STATES","displayName":"United States","isoThree":"USA","numberCode":840,"createDate":"2012-01-03 02:41:33"}},{"id":"ixDWFe","name":"Barley's Ale House #1","streetAddress":"467 North High Street","locality":"Columbus","region":"Ohio","postalCode":"43215","phone":"614-228-2537","website":"http://barleysbrewing.com/","latitude":39.971947,"longitude":-83.002538,"isPrimary":"N","inPlanning":"N","isClosed":"N","openToPublic":"Y","locationType":"micro","locationTypeDisplay":"Micro Brewery","countryIsoCode":"US","yearOpened":"1992","status":"verified","statusDisplay":"Verified","createDate":"2012-01-03 02:42:14","updateDate":"2014-07-23 19:11:34","country":{"isoCode":"US","name":"UNITED STATES","displayName":"United States","isoThree":"USA","numberCode":840,"createDate":"2012-01-03 02:41:33"}},{"id":"kVpTyR","name":"Barley's Ale House #2","streetAddress":"1130 Dublin Road","locality":"Columbus","region":"Ohio","postalCode":"43215","phone":"614-485-0227","website":"http://barleysbrewing.com/","latitude":39.973942,"longitude":-83.048991,"isPrimary":"Y","inPlanning":"N","isClosed":"N","openToPublic":"Y","locationType":"restaurant","locationTypeDisplay":"Restaurant/Ale House","countryIsoCode":"US","status":"verified","statusDisplay":"Verified","createDate":"2012-05-04 00:00:17","updateDate":"2014-07-23 19:11:34","country":{"isoCode":"US","name":"UNITED STATES","displayName":"United States","isoThree":"USA","numberCode":840,"createDate":"2012-01-03 02:41:33"}},{"id":"AU33o1","name":"Main Brewery","streetAddress":"5905 South Kirkman Road","locality":"Orlando","region":"Florida","postalCode":"32819","latitude":28.476545,"longitude":-81.457798,"isPrimary":"Y","inPlanning":"N","isClosed":"Y","openToPublic":"Y","locationType":"micro","locationTypeDisplay":"Micro Brewery","countryIsoCode":"US","yearOpened":"1992","status":"verified","statusDisplay":"Verified","createDate":"2012-01-03 02:41:45","updateDate":"2014-07-23 19:11:34","country":{"isoCode":"US","name":"UNITED STATES","displayName":"United States","isoThree":"USA","numberCode":840,"createDate":"2012-01-03 02:41:33"}},{"id":"nuhnAb","name":"Main Brewery","locality":"Bend","region":"Oregon","postalCode":"97701","phone":"(541) 280-5704","website":"http://www.belowgradebrewing.com","latitude":44.0581728,"longitude":-121.3153096,"isPrimary":"Y","inPlanning":"N","isClosed":"N","openToPublic":"N","locationType":"nano","locationTypeDisplay":"Nano Brewery","countryIsoCode":"US","yearOpened":"1992","status":"verified","statusDisplay":"Verified","createDate":"2014-01-02 01:13:21","updateDate":"2014-07-23 19:11:34","country":{"isoCode":"US","name":"UNITED STATES","displayName":"United States","isoThree":"USA","numberCode":840,"createDate":"2012-01-03 02:41:33"}},{"id":"LA1dhK","name":"Main Brewery","streetAddress":"4543 North Rancho Road","locality":"Las Vegas","region":"Nevada","postalCode":"89130","phone":"702-645-1404","website":"http://www.bigdogsbrews.com/","latitude":36.242583,"longitude":-115.236438,"isPrimary":"Y","inPlanning":"N","isClosed":"N","openToPublic":"Y","locationType":"brewpub","locationTypeDisplay":"Brewpub","countryIsoCode":"US","yearOpened":"1992","status":"verified","statusDisplay":"Verified","createDate":"2012-01-03 02:41:46","updateDate":"2014-07-23 19:11:34","country":{"isoCode":"US","name":"UNITED STATES","displayName":"United States","isoThree":"USA","numberCode":840,"createDate":"2012-01-03 02:41:33"}},{"id":"rNstSX","name":"Main Brewery","streetAddress":"Wellgarth","locality":"Ripon","region":"North Yorkshire","phone":"44-(01765)-689227","latitude":54.136795,"longitude":-1.523579,"isPrimary":"Y","inPlanning":"N","isClosed":"N","openToPublic":"Y","locationType":"micro","locationTypeDisplay":"Micro Brewery","countryIsoCode":"GB","status":"verified","statusDisplay":"Verified","createDate":"2012-01-03 02:41:46","updateDate":"2014-07-23 19:11:34","country":{"isoCode":"GB","name":"UNITED KINGDOM","displayName":"United Kingdom","isoThree":"GBR","numberCode":826,"createDate":"2012-01-03 02:41:33"}},{"id":"espn8K","name":"Main Brewery","streetAddress":"308 Franklin St","locality":"Clarksville","region":"Tennessee","postalCode":"37040","phone":"931-552-3726","website":"http://www.theblackhorsepub.net/","latitude":36.5278921,"longitude":-87.3574326,"isPrimary":"Y","inPlanning":"N","isClosed":"N","openToPublic":"Y","locationType":"brewpub","locationTypeDisplay":"Brewpub","countryIsoCode":"US","yearOpened":"1992","status":"verified","statusDisplay":"Verified","createDate":"2012-01-03 02:41:46","updateDate":"2014-07-23 19:11:34","country":{"isoCode":"US","name":"UNITED STATES","displayName":"United States","isoThree":"USA","numberCode":840,"createDate":"2012-01-03 02:41:33"}},{"id":"ybdwZK","name":"Boscos Squared","streetAddress":"2120 Madison Ave.","locality":"Memphis","region":"Tennessee","postalCode":"38111","phone":"901 432-2222","website":"http://www.boscosbeer.com/","latitude":35.1369243,"longitude":-89.9905721,"isPrimary":"Y","inPlanning":"N","isClosed":"N","openToPublic":"Y","locationType":"brewpub","locationTypeDisplay":"Brewpub","countryIsoCode":"US","status":"verified","statusDisplay":"Verified","createDate":"2012-01-03 02:41:47","updateDate":"2014-09-18 11:16:26","country":{"isoCode":"US","name":"UNITED STATES","displayName":"United States","isoThree":"USA","numberCode":840,"createDate":"2012-01-03 02:41:33"}},{"id":"pYoN1d","name":"Main Brewery - Fenway","streetAddress":"61 Brookline Avenue","locality":"Boston","region":"Massachusetts","postalCode":"02215","phone":"617-536-2337","website":"http://www.beerworks.net/","hoursOfOperation":"Monday through Saturday 11 AM until 11 PM\r\n\r\nOpens early for Red Sox Opening Day, Marathon Monday and other early Sox/Event Days.","latitude":42.3471278,"longitude":-71.0990805,"isPrimary":"Y","inPlanning":"N","isClosed":"N","openToPublic":"Y","locationType":"micro","locationTypeDisplay":"Micro Brewery","countryIsoCode":"US","status":"verified","statusDisplay":"Verified","createDate":"2012-01-03 02:41:47","updateDate":"2014-09-29 20:36:21","country":{"isoCode":"US","name":"UNITED STATES","displayName":"United States","isoThree":"USA","numberCode":840,"createDate":"2012-01-03 02:41:33"}},{"id":"kRIRLc","name":"Main Brewery","streetAddress":"Kornmarkt 3","locality":"Mühlhausen","region":"Thüringen","postalCode":"D-99974","latitude":51.208363,"longitude":10.457035,"isPrimary":"N","inPlanning":"N","isClosed":"N","openToPublic":"Y","locationType":"micro","locationTypeDisplay":"Micro Brewery","countryIsoCode":"DE","status":"verified","statusDisplay":"Verified","createDate":"2012-08-12 14:47:11","updateDate":"2014-07-23 19:11:34","country":{"isoCode":"DE","name":"GERMANY","displayName":"Germany","isoThree":"DEU","numberCode":276,"createDate":"2012-01-03 02:41:33"}},{"id":"V8pBsI","name":"Main Brewery","streetAddress":"299 Main Street","locality":"Dubuque","region":"Iowa","postalCode":"52001","phone":"1-563-582-0608","website":"http://www.bricktownbrewery.com/","latitude":42.496499,"longitude":-90.665173,"isPrimary":"N","inPlanning":"N","isClosed":"Y","openToPublic":"Y","locationType":"micro","locationTypeDisplay":"Micro Brewery","countryIsoCode":"US","status":"verified","statusDisplay":"Verified","createDate":"2012-01-03 02:41:48","updateDate":"2014-07-23 19:11:34","country":{"isoCode":"US","name":"UNITED STATES","displayName":"United States","isoThree":"USA","numberCode":840,"createDate":"2012-01-03 02:41:33"}},{"id":"gNckW3","name":"Edmond","streetAddress":"840 W. Danforth Rd","locality":"Edmond","region":"Oklahoma","postalCode":"73003","phone":"(405) 265-BREW","website":"http://www.bricktownbrewery.com/","hoursOfOperation":"Monday - Thursday 11am - 12am\r\nFriday& Saturday 11am - 1 am\r\nSunday 11am-10 pm","latitude":35.6667621,"longitude":-97.4950028,"isPrimary":"N","inPlanning":"N","isClosed":"N","openToPublic":"Y","locationType":"brewpub","locationTypeDisplay":"Brewpub","countryIsoCode":"US","status":"verified","statusDisplay":"Verified","createDate":"2013-10-30 11:35:23","updateDate":"2014-07-23 19:11:34","country":{"isoCode":"US","name":"UNITED STATES","displayName":"United States","isoThree":"USA","numberCode":840,"createDate":"2012-01-03 02:41:33"}},{"id":"IhLYfU","name":"Downtown OKC","streetAddress":"One North Oklahoma Avenue","locality":"Oklahoma City","region":"Oklahoma","postalCode":"73104","phone":"(405) 232-2739","website":"http://www.bricktownbrewery.com/","hoursOfOperation":"Monday - Thursday 11am - 10pm,\r\nBAR stays open until 11pm\r\nFriday& Saturday 11am - 11pm,\r\nBAR stays open until 1am\r\nSunday 11am-9pm","latitude":35.4667607,"longitude":-97.5108091,"isPrimary":"N","inPlanning":"N","isClosed":"N","openToPublic":"Y","locationType":"micro","locationTypeDisplay":"Micro Brewery","countryIsoCode":"US","status":"verified","statusDisplay":"Verified","createDate":"2013-10-30 11:36:18","updateDate":"2014-07-23 19:11:34","country":{"isoCode":"US","name":"UNITED STATES","displayName":"United States","isoThree":"USA","numberCode":840,"createDate":"2012-01-03 02:41:33"}},{"id":"v14Mov","name":"Remington Park","streetAddress":"One Remington Place","locality":"Oklahoma City","region":"Oklahoma","postalCode":"73111","phone":"(405) 419-4449","website":"http://www.bricktownbrewery.com/","hoursOfOperation":"Sunday - Wednesday 11am-10pm\r\nThursday - Saturday 11am - 11pm","latitude":35.5274027,"longitude":-97.4712053,"isPrimary":"N","inPlanning":"N","isClosed":"N","openToPublic":"Y","locationType":"brewpub","locationTypeDisplay":"Brewpub","countryIsoCode":"US","status":"verified","statusDisplay":"Verified","createDate":"2013-10-30 11:37:04","updateDate":"2014-07-23 19:11:34","country":{"isoCode":"US","name":"UNITED STATES","displayName":"United States","isoThree":"USA","numberCode":840,"createDate":"2012-01-03 02:41:33"}},{"id":"XKnAyM","name":"Shawnee","streetAddress":"4845 North Kickapoo","locality":"Shawnee","region":"Oklahoma","postalCode":"74801","phone":"(405) 273-3301","website":"http://www.bricktownbrewery.com/","hoursOfOperation":"Monday - Thursday 11am - 11pm\r\nFriday& Saturday 11am - 12pm\r\nSunday 11am-9pm","latitude":35.381501,"longitude":-96.929147,"isPrimary":"Y","inPlanning":"N","isClosed":"N","openToPublic":"Y","locationType":"brewpub","locationTypeDisplay":"Brewpub","countryIsoCode":"US","status":"verified","statusDisplay":"Verified","createDate":"2013-10-30 11:37:44","updateDate":"2014-07-23 19:11:34","country":{"isoCode":"US","name":"UNITED STATES","displayName":"United States","isoThree":"USA","numberCode":840,"createDate":"2012-01-03 02:41:33"}},{"id":"7SY01j","name":"Main Brewery","streetAddress":"1 N Oklahoma Ave","locality":"Oklahoma City","region":"Oklahoma","postalCode":"73104","phone":"405-232-2739","website":"http://www.bricktownbrewery.com/","latitude":35.4667607,"longitude":-97.5108091,"isPrimary":"Y","inPlanning":"N","isClosed":"N","openToPublic":"Y","locationType":"brewpub","locationTypeDisplay":"Brewpub","countryIsoCode":"US","yearOpened":"1992","status":"verified","statusDisplay":"Verified","createDate":"2012-01-03 02:41:48","updateDate":"2014-07-23 19:11:34","country":{"isoCode":"US","name":"UNITED STATES","displayName":"United States","isoThree":"USA","numberCode":840,"createDate":"2012-01-03 02:41:33"}},{"id":"dzjFKh","name":"Downtown","streetAddress":"1100 New York Ave, NW","locality":"Washington","region":"District of Columbia","postalCode":"20005","phone":"202-628-2222","website":"http://www.capcitybrew.com/","hoursOfOperation":"Mon:  11:00am - 12:00am\nTue:  11:00am - 12:00am\nWed:  11:00am - 12:00am\nThu:  11:00am - 12:00am\nFri:  11:00am - 1:00am\nSat:  11:00am - 1:00am\nSun:  11:00am - 10:00pm\n\nMonday: 11am-12am\r\nTuesday: 11am-12am\r\nWednesday: 11am-12am\r\nThursday: 11am-12am\r\nFriday: 11am-1am\r\nSaturday: 11am-1am\r\nSunday: 11am-10pm","latitude":38.9008274,"longitude":-77.0275612,"isPrimary":"Y","inPlanning":"N","isClosed":"N","openToPublic":"Y","locationType":"brewpub","locationTypeDisplay":"Brewpub","countryIsoCode":"US","yearOpened":"1992","status":"verified","statusDisplay":"Verified","createDate":"2012-01-03 02:41:50","updateDate":"2014-09-29 20:12:04","country":{"isoCode":"US","name":"UNITED STATES","displayName":"United States","isoThree":"USA","numberCode":840,"createDate":"2012-01-03 02:41:33"}},{"id":"gctUBh","name":"Shirlington","streetAddress":"4001 Campbell Ave","locality":"Arlington","region":"Virginia","postalCode":"22206","phone":"703-578-3888","website":"http://www.capcitybrew.com/","hoursOfOperation":"Mon:  11:00am - 12:00am\nTue:  11:00am - 12:00am\nWed:  11:00am - 12:00am\nThu:  11:00am - 1:00am\nFri:  11:00am - 1:00am\nSat:  11:00am - 1:00am\nSun:  11:00am - 10:00pm\n\nMonday: 11am-12am\r\nTuesday: 11am-12am\r\nWednesday: 11am-12am\r\nThursday: 11am-1am\r\nFriday: 11am-1am\r\nSaturday: 11am-1am\r\nSunday: 11am-10pm","latitude":38.8410237,"longitude":-77.0870327,"isPrimary":"N","inPlanning":"N","isClosed":"N","openToPublic":"Y","locationType":"brewpub","locationTypeDisplay":"Brewpub","countryIsoCode":"US","yearOpened":"1992","status":"verified","statusDisplay":"Verified","createDate":"2012-01-03 14:54:16","updateDate":"2014-09-29 20:12:05","country":{"isoCode":"US","name":"UNITED STATES","displayName":"United States","isoThree":"USA","numberCode":840,"createDate":"2012-01-03 02:41:33"}},{"id":"VlTAxo","name":"Main Brewery","streetAddress":"2431 Forbes Drive","locality":"Austin","region":"Texas","postalCode":"78754","latitude":30.3331015,"longitude":-97.6689378,"isPrimary":"Y","inPlanning":"N","isClosed":"Y","openToPublic":"Y","locationType":"micro","locationTypeDisplay":"Micro Brewery","countryIsoCode":"US","yearOpened":"1992","status":"verified","statusDisplay":"Verified","createDate":"2012-01-03 02:41:50","updateDate":"2014-07-23 19:11:34","country":{"isoCode":"US","name":"UNITED STATES","displayName":"United States","isoThree":"USA","numberCode":840,"createDate":"2012-01-03 02:41:33"}},{"id":"B2A0Gi","name":"Main Brewery","streetAddress":"5 Bartlett Farm Road","locality":"Nantucket","region":"Massachusetts","postalCode":"02584","phone":"508-325-5929","website":"http://www.ciscobrewers.com/","hoursOfOperation":"Mon:  10:00am - 7:00pm\nTue:  10:00am - 7:00pm\nWed:  10:00am - 7:00pm\nThu:  10:00am - 7:00pm\nFri:  10:00am - 7:00pm\nSat:  10:00am - 7:00pm\nSun:  12:00pm - 5:00pm\n\nMon - Sat:10:00 am - 7:00 pm\r\nSun:12:00 pm - 5:00 pm","latitude":41.263609,"longitude":-70.131438,"isPrimary":"Y","inPlanning":"N","isClosed":"N","openToPublic":"Y","locationType":"micro","locationTypeDisplay":"Micro Brewery","countryIsoCode":"US","status":"verified","statusDisplay":"Verified","createDate":"2012-01-03 02:41:51","updateDate":"2014-09-29 20:12:23","country":{"isoCode":"US","name":"UNITED STATES","displayName":"United States","isoThree":"USA","numberCode":840,"createDate":"2012-01-03 02:41:33"}},{"id":"TR98tr","name":"Main Brewery","streetAddress":"200 North Eleventh Street","locality":"Lincoln","region":"Nebraska","postalCode":"68508","latitude":40.815053,"longitude":-96.705091,"isPrimary":"Y","inPlanning":"N","isClosed":"Y","openToPublic":"Y","locationType":"micro","locationTypeDisplay":"Micro Brewery","countryIsoCode":"US","yearOpened":"1992","status":"verified","statusDisplay":"Verified","createDate":"2012-01-03 02:41:51","updateDate":"2014-07-23 19:11:34","country":{"isoCode":"US","name":"UNITED STATES","displayName":"United States","isoThree":"USA","numberCode":840,"createDate":"2012-01-03 02:41:33"}},{"id":"64Bwb3","name":"Main Brewery","locality":"Yardley","region":"Pennsylvania","website":"http://www.dickersbachbrewing.com/","latitude":40.245664,"longitude":-74.8459972,"isPrimary":"Y","inPlanning":"N","isClosed":"N","openToPublic":"Y","locationType":"micro","locationTypeDisplay":"Micro Brewery","countryIsoCode":"US","yearOpened":"1992","status":"verified","statusDisplay":"Verified","createDate":"2012-01-03 02:41:52","updateDate":"2014-07-23 19:11:34","country":{"isoCode":"US","name":"UNITED STATES","displayName":"United States","isoThree":"USA","numberCode":840,"createDate":"2012-01-03 02:41:33"}},{"id":"aixRsl","name":"Kennebunkport Brewing Company","streetAddress":"8 Western Avenue","locality":"Kennebunk","region":"Maine","postalCode":"04043","phone":"207-967-4322","website":"http://federaljacks.com/","latitude":43.3603638,"longitude":-70.4795243,"isPrimary":"Y","inPlanning":"N","isClosed":"N","openToPublic":"N","locationType":"brewpub","locationTypeDisplay":"Brewpub","countryIsoCode":"US","yearOpened":"1992","status":"verified","statusDisplay":"Verified","createDate":"2012-01-03 02:42:15","updateDate":"2014-07-23 19:11:34","country":{"isoCode":"US","name":"UNITED STATES","displayName":"United States","isoThree":"USA","numberCode":840,"createDate":"2012-01-03 02:41:33"}},{"id":"QPe57Z","name":"Main Brewery","streetAddress":"208 East River Drive","locality":"Davenport","region":"Iowa","postalCode":"52801","phone":"563-322-1569","website":"http://www.frontstreetbrew.com/","latitude":41.52055,"longitude":-90.572185,"isPrimary":"Y","inPlanning":"N","isClosed":"N","openToPublic":"Y","locationType":"brewpub","locationTypeDisplay":"Brewpub","countryIsoCode":"US","yearOpened":"1992","status":"verified","statusDisplay":"Verified","createDate":"2012-01-03 02:41:55","updateDate":"2014-07-23 19:11:34","country":{"isoCode":"US","name":"UNITED STATES","displayName":"United States","isoThree":"USA","numberCode":840,"createDate":"2012-01-03 02:41:33"}},{"id":"pKjSOS","name":"Main Brewery","streetAddress":"Hallplatz 2","region":"Nuremberg","postalCode":"90402","latitude":49.449171,"longitude":11.078671,"isPrimary":"Y","inPlanning":"N","isClosed":"N","openToPublic":"Y","locationType":"micro","locationTypeDisplay":"Micro Brewery","countryIsoCode":"DE","status":"verified","statusDisplay":"Verified","createDate":"2012-08-15 17:42:15","updateDate":"2014-07-23 19:11:34","country":{"isoCode":"DE","name":"GERMANY","displayName":"Germany","isoThree":"DEU","numberCode":276,"createDate":"2012-01-03 02:41:33"}},{"id":"6R5PGD","name":"Main Brewery","streetAddress":"Manor Farm","extendedAddress":"The Street","region":"Tongham","postalCode":"GU10 1DE","phone":"+44 1252 784495","website":"http://www.hogsback.co.uk","hoursOfOperation":"Mon - Tue: 9:00 am - 6:00 pm\r\nWed - Sat: 9:00 am - 8:30 pm\r\nSun: 10:00 am - 4:30 pm","latitude":51.2290825,"longitude":-0.7325935,"isPrimary":"Y","inPlanning":"N","isClosed":"N","openToPublic":"Y","locationType":"micro","locationTypeDisplay":"Micro Brewery","countryIsoCode":"GB","status":"verified","statusDisplay":"Verified","createDate":"2014-04-08 02:41:36","updateDate":"2014-07-23 19:11:34","country":{"isoCode":"GB","name":"UNITED KINGDOM","displayName":"United Kingdom","isoThree":"GBR","numberCode":826,"createDate":"2012-01-03 02:41:33"}},{"id":"BirFEL","name":"Cambridge","streetAddress":"33 Dunster Street","locality":"Cambridge","region":"Massachusetts","postalCode":"02138","phone":"617-868-3585","website":"http://johnharvards.com/","latitude":42.3724324,"longitude":-71.1193062,"isPrimary":"Y","inPlanning":"N","isClosed":"N","openToPublic":"N","locationType":"micro","locationTypeDisplay":"Micro Brewery","countryIsoCode":"US","status":"verified","statusDisplay":"Verified","createDate":"2012-01-03 02:42:15","updateDate":"2014-09-26 14:02:09","country":{"isoCode":"US","name":"UNITED STATES","displayName":"United States","isoThree":"USA","numberCode":840,"createDate":"2012-01-03 02:41:33"}},{"id":"o2a3Nm","name":"Framingham","streetAddress":"1 Worcester Road","locality":"Framingham","region":"Massachusetts","postalCode":"01701","phone":"508-875-2337","website":"https://www.johnharvards.com/","latitude":42.3006992,"longitude":-71.3961732,"isPrimary":"N","inPlanning":"N","isClosed":"N","openToPublic":"N","locationType":"brewpub","locationTypeDisplay":"Brewpub","countryIsoCode":"US","status":"verified","statusDisplay":"Verified","createDate":"2012-01-03 02:42:15","updateDate":"2014-09-26 14:02:35","country":{"isoCode":"US","name":"UNITED STATES","displayName":"United States","isoThree":"USA","numberCode":840,"createDate":"2012-01-03 02:41:33"}},{"id":"QMIrXD","name":"Lake Grove","streetAddress":"2093 Smithhaven Plaza","locality":"Lake Grove","region":"New York","postalCode":"11755","phone":"631-979-2739","website":"http://johnharvards.com/","latitude":40.870433,"longitude":-73.128532,"isPrimary":"N","inPlanning":"N","isClosed":"N","openToPublic":"N","locationType":"brewpub","locationTypeDisplay":"Brewpub","countryIsoCode":"US","status":"verified","statusDisplay":"Verified","createDate":"2012-01-03 02:42:15","updateDate":"2014-07-23 19:11:34","country":{"isoCode":"US","name":"UNITED STATES","displayName":"United States","isoThree":"USA","numberCode":840,"createDate":"2012-01-03 02:41:33"}},{"id":"2g1fge","name":"Providence - Union Station Brewery","streetAddress":"36 Exchange Terrace","locality":"Providence","region":"Rhode Island","postalCode":"02903","phone":"401-274-2739","website":"https://www.johnharvards.com/","latitude":41.825595,"longitude":-71.414036,"isPrimary":"N","inPlanning":"N","isClosed":"N","openToPublic":"N","locationType":"brewpub","locationTypeDisplay":"Brewpub","countryIsoCode":"US","status":"verified","statusDisplay":"Verified","createDate":"2012-01-03 02:42:15","updateDate":"2014-07-23 19:11:34","country":{"isoCode":"US","name":"UNITED STATES","displayName":"United States","isoThree":"USA","numberCode":840,"createDate":"2012-01-03 02:41:33"}},{"id":"ey4s2u","name":"Main Brewery","streetAddress":"Blasiistraße 14","region":"Quedlinburg","postalCode":"06484","latitude":51.805573,"longitude":11.052451,"isPrimary":"Y","inPlanning":"N","isClosed":"N","openToPublic":"Y","locationType":"micro","locationTypeDisplay":"Micro Brewery","countryIsoCode":"DE","status":"verified","statusDisplay":"Verified","createDate":"2012-08-16 12:04:39","updateDate":"2014-07-23 19:11:34","country":{"isoCode":"DE","name":"GERMANY","displayName":"Germany","isoThree":"DEU","numberCode":276,"createDate":"2012-01-03 02:41:33"}},{"id":"eahcd2","name":"Main Brewery","streetAddress":"90 Elliot Street","locality":"Brattleboro","region":"Vermont","postalCode":"05301","phone":"802-254-2553","website":"http://www.mcneillsbrewery.com/","latitude":42.851552,"longitude":-72.560164,"isPrimary":"Y","inPlanning":"N","isClosed":"N","openToPublic":"Y","locationType":"brewpub","locationTypeDisplay":"Brewpub","countryIsoCode":"US","yearOpened":"1992","status":"verified","statusDisplay":"Verified","createDate":"2012-01-03 02:42:01","updateDate":"2014-07-23 19:11:34","country":{"isoCode":"US","name":"UNITED STATES","displayName":"United States","isoThree":"USA","numberCode":840,"createDate":"2012-01-03 02:41:33"}},{"id":"9UjraO","name":"Main Brewery","streetAddress":"PO Box 316","locality":"Fulton","region":"California","postalCode":"95439","phone":"1-707-528-2537","latitude":38.494556,"longitude":-122.772619,"isPrimary":"Y","inPlanning":"N","isClosed":"N","openToPublic":"Y","locationType":"micro","locationTypeDisplay":"Micro Brewery","countryIsoCode":"US","status":"verified","statusDisplay":"Verified","createDate":"2012-01-03 02:42:02","updateDate":"2014-07-23 19:11:34","country":{"isoCode":"US","name":"UNITED STATES","displayName":"United States","isoThree":"USA","numberCode":840,"createDate":"2012-01-03 02:41:33"}},{"id":"Kfxx6k","name":"Main Brewery","extendedAddress":"1291 University Ave","locality":"Morgantown","region":"West Virginia","postalCode":"26508","phone":"304-292-6959","website":"http://morgantownbrewing.com/","latitude":39.630501,"longitude":-79.958062,"isPrimary":"Y","inPlanning":"N","isClosed":"N","openToPublic":"Y","locationType":"brewpub","locationTypeDisplay":"Brewpub","countryIsoCode":"US","status":"verified","statusDisplay":"Verified","createDate":"2012-01-03 02:42:02","updateDate":"2014-07-23 19:11:34","country":{"isoCode":"US","name":"UNITED STATES","displayName":"United States","isoThree":"USA","numberCode":840,"createDate":"2012-01-03 02:41:33"}},{"id":"EtQOGH","name":"Main Brewery","streetAddress":"PO Box 4297","locality":"Boulder","region":"Colorado","latitude":40.01574,"longitude":-105.279239,"isPrimary":"Y","inPlanning":"N","isClosed":"Y","openToPublic":"Y","locationType":"micro","locationTypeDisplay":"Micro Brewery","countryIsoCode":"US","yearOpened":"1992","status":"verified","statusDisplay":"Verified","createDate":"2012-01-03 02:42:04","updateDate":"2014-07-23 19:11:34","country":{"isoCode":"US","name":"UNITED STATES","displayName":"United States","isoThree":"USA","numberCode":840,"createDate":"2012-01-03 02:41:33"}},{"id":"RhnU8F","name":"Main Brewery","streetAddress":"607 Main Street","locality":"Ouray","region":"Colorado","postalCode":"81427","phone":"970-325-7388","website":"http://ouraybrewery.com/","latitude":38.0229849,"longitude":-107.6714533,"isPrimary":"N","inPlanning":"N","isClosed":"N","openToPublic":"Y","locationType":"micro","locationTypeDisplay":"Micro Brewery","countryIsoCode":"US","yearOpened":"1992","status":"verified","statusDisplay":"Verified","createDate":"2012-01-03 02:42:05","updateDate":"2014-07-23 19:11:34","country":{"isoCode":"US","name":"UNITED STATES","displayName":"United States","isoThree":"USA","numberCode":840,"createDate":"2012-01-03 02:41:33"}},{"id":"bqqwbK","name":"Tap Room","streetAddress":"1900 Main Street","locality":"Ouray","region":"Colorado","postalCode":"81427","website":"http://ouraybrewery.com/","latitude":38.038027,"longitude":-107.678629,"isPrimary":"Y","inPlanning":"N","isClosed":"N","openToPublic":"Y","locationType":"micro","locationTypeDisplay":"Micro Brewery","countryIsoCode":"US","yearOpened":"1992","status":"verified","statusDisplay":"Verified","createDate":"2012-01-18 11:26:07","updateDate":"2014-07-23 19:11:34","country":{"isoCode":"US","name":"UNITED STATES","displayName":"United States","isoThree":"USA","numberCode":840,"createDate":"2012-01-03 02:41:33"}},{"id":"OMyQoC","name":"Main Brewery","streetAddress":"3859 Buffalo Road","locality":"Rochester","region":"New York","postalCode":"14624","phone":"585-594-9800","website":"http://www.rohrbachs.com/","latitude":43.137269,"longitude":-77.761756,"isPrimary":"Y","inPlanning":"N","isClosed":"N","openToPublic":"Y","locationType":"micro","locationTypeDisplay":"Micro Brewery","countryIsoCode":"US","yearOpened":"1992","status":"verified","statusDisplay":"Verified","createDate":"2012-01-03 02:42:07","updateDate":"2014-07-23 19:11:34","country":{"isoCode":"US","name":"UNITED STATES","displayName":"United States","isoThree":"USA","numberCode":840,"createDate":"2012-01-03 02:41:33"}},{"id":"ZALU9y","name":"Main Brewery","streetAddress":"29 Sunday River Road","locality":"Bethel","region":"Maine","postalCode":"04217","phone":"207-824-3541","website":"http://www.stonecoast.com/","latitude":44.4467818,"longitude":-70.8090286,"isPrimary":"Y","inPlanning":"N","isClosed":"N","openToPublic":"Y","locationType":"brewpub","locationTypeDisplay":"Brewpub","countryIsoCode":"US","status":"verified","statusDisplay":"Verified","createDate":"2012-01-03 02:42:09","updateDate":"2014-07-23 19:11:34","country":{"isoCode":"US","name":"UNITED STATES","displayName":"United States","isoThree":"USA","numberCode":840,"createDate":"2012-01-03 02:41:33"}},{"id":"dFD020","name":"Main Brewery","streetAddress":"Dunsley Farm, London Road","locality":"Tring","postalCode":"HP23 6HA","phone":"+44 (0)1442 890721","website":"http://www.tringbrewery.co.uk/","latitude":51.794756,"longitude":-0.65669,"isPrimary":"Y","inPlanning":"N","isClosed":"N","openToPublic":"Y","locationType":"micro","locationTypeDisplay":"Micro Brewery","countryIsoCode":"GB","yearOpened":"1992","status":"verified","statusDisplay":"Verified","createDate":"2012-01-03 02:42:10","updateDate":"2014-07-23 19:11:34","country":{"isoCode":"GB","name":"UNITED KINGDOM","displayName":"United Kingdom","isoThree":"GBR","numberCode":826,"createDate":"2012-01-03 02:41:33"}},{"id":"l8TT3x","name":"Main Brewery","streetAddress":"Walther-Rathenau-Str. 9-10","locality":"Gommern","region":"Sachsen-Anhalt","postalCode":"39245","latitude":52.07045,"longitude":11.830995,"isPrimary":"N","inPlanning":"N","isClosed":"N","openToPublic":"Y","locationType":"micro","locationTypeDisplay":"Micro Brewery","countryIsoCode":"DE","status":"verified","statusDisplay":"Verified","createDate":"2012-08-12 14:39:53","updateDate":"2014-07-23 19:11:34","country":{"isoCode":"DE","name":"GERMANY","displayName":"Germany","isoThree":"DEU","numberCode":276,"createDate":"2012-01-03 02:41:33"}}]