[{"id":"DJcbV1","name":"Main Brewery","streetAddress":"520 W. 75th St.","locality":"Kansas City","region":"Missouri","postalCode":"64114","phone":"816-523-4677","website":"http://75thstreet.com/","latitude":38.9926143,"longitude":-94.5960364,"isPrimary":"Y","inPlanning":"N","isClosed":"N","openToPublic":"Y","locationType":"brewpub","locationTypeDisplay":"Brewpub","countryIsoCode":"US","yearOpened":"1993","status":"verified","statusDisplay":"Verified","createDate":"2012-01-03 02:41:43","updateDate":"2014-07-23 19:11:34","country":{"isoCode":"US","name":"UNITED STATES","displayName":"United States","isoThree":"USA","numberCode":840,"createDate":"2012-01-03 02:41:33"}},{"id":"yAvTZ6","name":"Main Brewery","streetAddress":"100 Borland Avenue","locality":"Auburn","region":"California","postalCode":"95603","phone":"530-889-0841","latitude":38.9040439,"longitude":-121.0656216,"isPrimary":"Y","inPlanning":"N","isClosed":"Y","openToPublic":"Y","locationType":"micro","locationTypeDisplay":"Micro Brewery","countryIsoCode":"US","yearOpened":"1993","status":"verified","statusDisplay":"Verified","createDate":"2012-01-03 02:41:44","updateDate":"2014-07-23 19:11:34","country":{"isoCode":"US","name":"UNITED STATES","displayName":"United States","isoThree":"USA","numberCode":840,"createDate":"2012-01-03 02:41:33"}},{"id":"QwZCXn","name":"Main Brewery","streetAddress":"5763 Arapahoe Avenue","locality":"Boulder","region":"Colorado","postalCode":"80303","phone":"877-844-5679","website":"http://www.averybrewing.com/","hoursOfOperation":"Avery Tap Room Hours: 11AM to 11PM - 7 days a week.\r\nBrewery Tours are at 4PM weekdays and 2PM on weekends.","latitude":40.0161556,"longitude":-105.2187145,"isPrimary":"Y","inPlanning":"N","isClosed":"N","openToPublic":"Y","locationType":"micro","locationTypeDisplay":"Micro Brewery","countryIsoCode":"US","yearOpened":"1993","status":"verified","statusDisplay":"Verified","createDate":"2012-01-03 02:41:44","updateDate":"2014-09-29 20:33:36","country":{"isoCode":"US","name":"UNITED STATES","displayName":"United States","isoThree":"USA","numberCode":840,"createDate":"2012-01-03 02:41:33"}},{"id":"oE1miM","name":"Main Brewery","streetAddress":"89 Pascoe St","region":"Nelson","postalCode":"7010","phone":"+64 3-547 8097","website":"http://baysbrewery.co.nz/","hoursOfOperation":"Mon - Thu: 11:00 am - 5:30 pm\r\nFri - Sat: 11:00 am - 6:00 pm\r\nSun: 12:00 pm - 5:30 pm","latitude":-41.2954656,"longitude":173.2411911,"isPrimary":"Y","inPlanning":"N","isClosed":"N","openToPublic":"Y","locationType":"micro","locationTypeDisplay":"Micro Brewery","countryIsoCode":"NZ","yearOpened":"1993","status":"verified","statusDisplay":"Verified","createDate":"2014-02-06 16:06:17","updateDate":"2014-07-23 19:11:34","country":{"isoCode":"NZ","name":"NEW ZEALAND","displayName":"New Zealand","isoThree":"NZL","numberCode":554,"createDate":"2012-01-03 02:41:33"}},{"id":"8yIWus","name":"BBC East St Matthews","streetAddress":"3929 Shelbyville Rd.","locality":"Louisville","region":"Kentucky","postalCode":"40207","phone":"502-899-7070","hoursOfOperation":"Sunday -Thursday: 11 AM -11 PM (kitchen closes at 10)\r\nFriday and Saturday: 11 AM -1 PM (kitchen closes at 11)","latitude":38.252999,"longitude":-85.654044,"isPrimary":"Y","inPlanning":"N","isClosed":"N","openToPublic":"Y","locationType":"brewpub","locationTypeDisplay":"Brewpub","countryIsoCode":"US","yearOpened":"1993","status":"verified","statusDisplay":"Verified","createDate":"2012-01-03 02:41:47","updateDate":"2014-07-23 19:11:34","country":{"isoCode":"US","name":"UNITED STATES","displayName":"United States","isoThree":"USA","numberCode":840,"createDate":"2012-01-03 02:41:33"}},{"id":"f78xIY","name":"BBC Theatre Square","streetAddress":"660 South 4th Street","locality":"Louisville","region":"Kentucky","postalCode":"40202","phone":"502-568-2224","hoursOfOperation":"Monday - Thursday: 11 AM -10 PM\r\nFriday - Saturday: 11 AM -11 PM\r\nClosed Sunday","latitude":38.246998,"longitude":-85.758183,"isPrimary":"N","inPlanning":"N","isClosed":"N","openToPublic":"Y","locationType":"brewpub","locationTypeDisplay":"Brewpub","countryIsoCode":"US","yearOpened":"2006","status":"verified","statusDisplay":"Verified","createDate":"2012-04-15 19:11:15","updateDate":"2014-07-23 19:11:34","country":{"isoCode":"US","name":"UNITED STATES","displayName":"United States","isoThree":"USA","numberCode":840,"createDate":"2012-01-03 02:41:33"}},{"id":"HQrlRz","name":"BBC 3rd and Main","streetAddress":"300 West Main Street","locality":"Louisville","region":"Kentucky","postalCode":"40202","phone":"502-562-0007","hoursOfOperation":"Monday - Thursday: 11 AM – Midnight\r\nFriday - Saturday: 11 AM – 1 AM\r\nSunday: Noon – 9PM","latitude":38.256433,"longitude":-85.755058,"isPrimary":"N","inPlanning":"N","isClosed":"N","openToPublic":"Y","locationType":"brewpub","locationTypeDisplay":"Brewpub","countryIsoCode":"US","yearOpened":"2010","status":"verified","statusDisplay":"Verified","createDate":"2012-04-15 19:12:22","updateDate":"2014-07-23 19:11:34","country":{"isoCode":"US","name":"UNITED STATES","displayName":"United States","isoThree":"USA","numberCode":840,"createDate":"2012-01-03 02:41:33"}},{"id":"d1bs9X","name":"Main Brewery","streetAddress":"Warfer Landstraße 73","region":"Bremen","postalCode":"28357","latitude":53.134655,"longitude":8.898924,"isPrimary":"N","inPlanning":"N","isClosed":"N","openToPublic":"Y","locationType":"micro","locationTypeDisplay":"Micro Brewery","countryIsoCode":"DE","status":"verified","statusDisplay":"Verified","createDate":"2012-08-12 14:47:54","updateDate":"2014-07-23 19:11:34","country":{"isoCode":"DE","name":"GERMANY","displayName":"Germany","isoThree":"DEU","numberCode":276,"createDate":"2012-01-03 02:41:33"}},{"id":"mlcTPZ","name":"Main Brewery","streetAddress":"Ulricherstr 24","locality":"Soest","region":"North Rhine-Westphalia","postalCode":"59494","latitude":51.568662,"longitude":8.107626,"isPrimary":"N","inPlanning":"N","isClosed":"N","openToPublic":"Y","locationType":"brewpub","locationTypeDisplay":"Brewpub","countryIsoCode":"DE","status":"verified","statusDisplay":"Verified","createDate":"2012-08-12 14:45:49","updateDate":"2014-07-23 19:11:34","country":{"isoCode":"DE","name":"GERMANY","displayName":"Germany","isoThree":"DEU","numberCode":276,"createDate":"2012-01-03 02:41:33"}},{"id":"wadu38","name":"Main Brewery","streetAddress":"417-419 River Street","locality":"Troy","region":"New York","postalCode":"12180","phone":"518-273-2337","website":"http://www.brownsbrewing.com/","latitude":42.735771,"longitude":-73.687704,"isPrimary":"Y","inPlanning":"N","isClosed":"N","openToPublic":"Y","locationType":"micro","locationTypeDisplay":"Micro Brewery","countryIsoCode":"US","yearOpened":"1993","status":"verified","statusDisplay":"Verified","createDate":"2012-01-03 02:41:49","updateDate":"2014-07-23 19:11:34","country":{"isoCode":"US","name":"UNITED STATES","displayName":"United States","isoThree":"USA","numberCode":840,"createDate":"2012-01-03 02:41:33"}},{"id":"iZqGpm","name":"Main Brewery","streetAddress":"602 Clinton St.","extendedAddress":"Po Box 877","locality":"Ridgway","region":"Colorado","postalCode":"81432","phone":"970-626-5333","website":"http://www.coloradoboy.com/","latitude":38.1524267,"longitude":-107.7577437,"isPrimary":"Y","inPlanning":"N","isClosed":"N","openToPublic":"Y","locationType":"micro","locationTypeDisplay":"Micro Brewery","countryIsoCode":"US","yearOpened":"1993","status":"verified","statusDisplay":"Verified","createDate":"2012-01-03 02:41:51","updateDate":"2014-07-23 19:11:34","country":{"isoCode":"US","name":"UNITED STATES","displayName":"United States","isoThree":"USA","numberCode":840,"createDate":"2012-01-03 02:41:33"}},{"id":"fQwjb1","name":"Main Brewery","streetAddress":"184 Glen Street","extendedAddress":"Route 9","locality":"Glens Falls","region":"New York","postalCode":"12801","phone":"518-743-9026","website":"http://www.davidsonbrothers.com/","hoursOfOperation":"Mon - Thu: 11:30 am - 9:00 pm\r\nFri: 11:30 am - 10:00 pm\r\nSat: 12:00 pm - 10:00 pm\r\nSun: 12:00 pm - 8:00 pm","latitude":43.570027,"longitude":-73.9145421,"isPrimary":"Y","inPlanning":"N","isClosed":"N","openToPublic":"Y","locationType":"brewpub","locationTypeDisplay":"Brewpub","countryIsoCode":"US","yearOpened":"1993","status":"verified","statusDisplay":"Verified","createDate":"2012-01-03 02:41:52","updateDate":"2014-07-23 19:11:34","country":{"isoCode":"US","name":"UNITED STATES","displayName":"United States","isoThree":"USA","numberCode":840,"createDate":"2012-01-03 02:41:33"}},{"id":"AKyyYN","name":"Main Brewery","streetAddress":"902 Main Street","locality":"Napa","region":"California","postalCode":"94559","phone":"707-258-2337","website":"http://www.downtownjoes.com/","latitude":38.298781,"longitude":-122.284801,"isPrimary":"Y","inPlanning":"N","isClosed":"N","openToPublic":"Y","locationType":"brewpub","locationTypeDisplay":"Brewpub","countryIsoCode":"US","yearOpened":"1993","status":"verified","statusDisplay":"Verified","createDate":"2012-01-03 02:41:53","updateDate":"2014-07-23 19:11:34","country":{"isoCode":"US","name":"UNITED STATES","displayName":"United States","isoThree":"USA","numberCode":840,"createDate":"2012-01-03 02:41:33"}},{"id":"AeIy68","name":"Main Brewery","streetAddress":"1213 Veshecco Drive","locality":"Erie","region":"Pennsylvania","postalCode":"16501","phone":"814-459-7741","website":"http://www.eriebrewingco.com/","hoursOfOperation":"Wed - Fri:\t12:00 pm - 5:00 pm\r\nSat:\t1:00 pm - 4:00 pm","latitude":42.111185,"longitude":-80.112978,"isPrimary":"Y","inPlanning":"N","isClosed":"N","openToPublic":"Y","locationType":"micro","locationTypeDisplay":"Micro Brewery","countryIsoCode":"US","status":"verified","statusDisplay":"Verified","createDate":"2012-01-03 02:41:54","updateDate":"2014-07-23 19:11:34","country":{"isoCode":"US","name":"UNITED STATES","displayName":"United States","isoThree":"USA","numberCode":840,"createDate":"2012-01-03 02:41:33"}},{"id":"vVbqAD","name":"Main Brewery","streetAddress":"515 Jefferson Street SE","locality":"Olympia","region":"Washington","postalCode":"98501","phone":"360-943-3650","website":"http://www.fishbrewing.com/","latitude":47.043721,"longitude":-122.89658,"isPrimary":"Y","inPlanning":"N","isClosed":"N","openToPublic":"Y","locationType":"micro","locationTypeDisplay":"Micro Brewery","countryIsoCode":"US","yearOpened":"1993","status":"verified","statusDisplay":"Verified","createDate":"2012-01-03 02:41:54","updateDate":"2014-07-23 19:11:34","country":{"isoCode":"US","name":"UNITED STATES","displayName":"United States","isoThree":"USA","numberCode":840,"createDate":"2012-01-03 02:41:33"}},{"id":"T3I6jH","name":"Main Brewery","streetAddress":"40 Andover Road","locality":"New London","region":"New Hampshire","postalCode":"03257","phone":"603-526-6899","website":"http://www.flyinggoose.com/","hoursOfOperation":"Mon - Sat: 11:30 am - 9:00 pm\r\nSun: 11:30 am - 8:00 pm","latitude":43.3995653,"longitude":-71.9603467,"isPrimary":"Y","inPlanning":"N","isClosed":"N","openToPublic":"Y","locationType":"brewpub","locationTypeDisplay":"Brewpub","countryIsoCode":"US","yearOpened":"1993","status":"verified","statusDisplay":"Verified","createDate":"2012-01-03 02:41:55","updateDate":"2014-09-26 13:23:20","country":{"isoCode":"US","name":"UNITED STATES","displayName":"United States","isoThree":"USA","numberCode":840,"createDate":"2012-01-03 02:41:33"}},{"id":"MSB2i0","name":"Main Brewery","streetAddress":"980 Northeast 4th Street","locality":"McMinnville","region":"Oregon","postalCode":"97128","phone":"503-472-2739","website":"http://www.goldenvalleybrewery.com/","hoursOfOperation":"Mon - Thu: 11:00 am - 10:00 pm\r\nFri - Sat: 11:00 am - 11:00 pm\r\nSun: 11:00 am - 9:00 pm","latitude":45.21039,"longitude":-123.189017,"isPrimary":"Y","inPlanning":"N","isClosed":"N","openToPublic":"Y","locationType":"micro","locationTypeDisplay":"Micro Brewery","countryIsoCode":"US","yearOpened":"1993","status":"verified","statusDisplay":"Verified","createDate":"2012-01-03 02:41:56","updateDate":"2014-07-23 19:11:34","country":{"isoCode":"US","name":"UNITED STATES","displayName":"United States","isoThree":"USA","numberCode":840,"createDate":"2012-01-03 02:41:33"}},{"id":"yBdVqr","name":"Beaverton","streetAddress":"1520 NW Bethany BLVD","locality":"Beaverton","region":"Oregon","postalCode":"97006","phone":"503-972-1599","website":"http://goldenvalleybrewery.com","hoursOfOperation":"Monday 11:00 am – 10:00 pm\r\nTuesday 11:00 am – 10:00 pm\r\nWednesday 11:00 am – 11:00 pm\r\nThursday 11:00 am – 10:00 pm\r\nFriday 11:00 am – 11:00 pm\r\nSaturday 11:00 am – 11:00 pm\r\nSunday 11:00 am – 9:00 pm","latitude":45.530156,"longitude":-122.842835,"isPrimary":"N","inPlanning":"N","isClosed":"N","openToPublic":"Y","locationType":"micro","locationTypeDisplay":"Micro Brewery","countryIsoCode":"US","yearOpened":"2012","status":"verified","statusDisplay":"Verified","createDate":"2012-08-23 03:39:48","updateDate":"2014-07-23 19:11:34","country":{"isoCode":"US","name":"UNITED STATES","displayName":"United States","isoThree":"USA","numberCode":840,"createDate":"2012-01-03 02:41:33"}},{"id":"0uIMq6","name":"Main Brewery","streetAddress":"3689 28th St","locality":"Grand Rapids","region":"Michigan","postalCode":"49512","phone":"616-285-5970","website":"http://grandrapidsbrewingcompany.com/","latitude":42.912825,"longitude":-85.577383,"isPrimary":"N","inPlanning":"N","isClosed":"Y","openToPublic":"N","locationType":"brewpub","locationTypeDisplay":"Brewpub","countryIsoCode":"US","yearOpened":"1993","yearClosed":"2012","status":"verified","statusDisplay":"Verified","createDate":"2012-01-03 02:41:56","updateDate":"2014-07-23 19:11:34","country":{"isoCode":"US","name":"UNITED STATES","displayName":"United States","isoThree":"USA","numberCode":840,"createDate":"2012-01-03 02:41:33"}},{"id":"VGvhcW","name":"Main Brewery","streetAddress":"1 Ionia Ave","locality":"Grand Rapids","region":"Michigan","postalCode":"49503","phone":"6164587000","website":"http://grbrewingcompany.com/","hoursOfOperation":"Sun - Thurs: 11:00 am - 12:00 am\r\nFri & Sat: 11:00 am - 2:00 am","latitude":42.9632582,"longitude":-85.6702947,"isPrimary":"Y","inPlanning":"N","isClosed":"N","openToPublic":"Y","locationType":"micro","locationTypeDisplay":"Micro Brewery","countryIsoCode":"GB","yearOpened":"2013","status":"verified","statusDisplay":"Verified","createDate":"2013-06-25 03:16:58","updateDate":"2014-07-23 19:11:34","country":{"isoCode":"GB","name":"UNITED KINGDOM","displayName":"United Kingdom","isoThree":"GBR","numberCode":826,"createDate":"2012-01-03 02:41:33"}},{"id":"5zetyE","name":"Main Brewery","streetAddress":"61 SE Yamhill Street","locality":"Portland","region":"Oregon","postalCode":"97214","phone":"503-232-6585","website":"http://hairofthedog.com/","latitude":45.5159094,"longitude":-122.6655299,"isPrimary":"Y","inPlanning":"N","isClosed":"N","openToPublic":"Y","locationType":"brewpub","locationTypeDisplay":"Brewpub","countryIsoCode":"US","yearOpened":"1993","status":"verified","statusDisplay":"Verified","createDate":"2012-01-03 02:41:56","updateDate":"2014-07-23 19:11:34","country":{"isoCode":"US","name":"UNITED STATES","displayName":"United States","isoThree":"USA","numberCode":840,"createDate":"2012-01-03 02:41:33"}},{"id":"1qGLTN","name":"Main Brewery","streetAddress":"325 Main Street","locality":"Norwich","region":"Vermont","postalCode":"05055","phone":"802-649-1143","website":"http://www.norwichinn.com/","latitude":43.7151179,"longitude":-72.308907,"isPrimary":"Y","inPlanning":"N","isClosed":"N","openToPublic":"Y","locationType":"brewpub","locationTypeDisplay":"Brewpub","countryIsoCode":"US","yearOpened":"1993","status":"verified","statusDisplay":"Verified","createDate":"2012-01-03 02:41:58","updateDate":"2014-09-26 13:30:24","country":{"isoCode":"US","name":"UNITED STATES","displayName":"United States","isoThree":"USA","numberCode":840,"createDate":"2012-01-03 02:41:33"}},{"id":"C0zPjd","name":"Main Brewery","streetAddress":"1280 North McDowell Boulevard","locality":"Petaluma","region":"California","postalCode":"94954","phone":"707 769-4495","website":"http://www.lagunitas.com/","hoursOfOperation":"Wed thru Friday 3:00-9:00.\r\nSat & Sun: 1:00-7:00","latitude":38.272435,"longitude":-122.662346,"isPrimary":"N","inPlanning":"N","isClosed":"N","openToPublic":"Y","locationType":"micro","locationTypeDisplay":"Micro Brewery","countryIsoCode":"US","yearOpened":"1993","status":"verified","statusDisplay":"Verified","createDate":"2012-01-03 02:42:00","updateDate":"2014-08-25 12:10:04","country":{"isoCode":"US","name":"UNITED STATES","displayName":"United States","isoThree":"USA","numberCode":840,"createDate":"2012-01-03 02:41:33"}},{"id":"g2d9B7","name":"Chicago","streetAddress":"1843 S. Washtenaw Ave.","locality":"Chicago","region":"Illinois","postalCode":"60608","phone":"(773) 522-2503","website":"http://lagunitas.com/","latitude":41.8574122,"longitude":-87.6924901,"isPrimary":"Y","inPlanning":"N","isClosed":"N","openToPublic":"Y","locationType":"tasting","locationTypeDisplay":"Tasting Room","countryIsoCode":"US","status":"verified","statusDisplay":"Verified","createDate":"2014-08-25 12:10:03","updateDate":"2014-11-20 13:50:41","country":{"isoCode":"US","name":"UNITED STATES","displayName":"United States","isoThree":"USA","numberCode":840,"createDate":"2012-01-03 02:41:33"}},{"id":"3mjLMk","name":"Main Brewery","streetAddress":"1265 Boston Avenue","locality":"Longmont","region":"Colorado","postalCode":"80501","phone":"1-303-772-0258","website":"http://www.lefthandbrewing.com/","latitude":40.1587451,"longitude":-105.1128246,"isPrimary":"Y","inPlanning":"N","isClosed":"N","openToPublic":"Y","locationType":"micro","locationTypeDisplay":"Micro Brewery","countryIsoCode":"US","yearOpened":"1993","status":"verified","statusDisplay":"Verified","createDate":"2012-01-03 02:42:00","updateDate":"2014-07-23 19:11:34","country":{"isoCode":"US","name":"UNITED STATES","displayName":"United States","isoThree":"USA","numberCode":840,"createDate":"2012-01-03 02:41:33"}},{"id":"pSbibd","name":"Main Brewery","streetAddress":"17825 NE 65th St","extendedAddress":"b110","locality":"Redmond","region":"Washington","postalCode":"98052","phone":"425-558-9697","website":"http://www.macandjacks.com/","latitude":47.663422,"longitude":-122.102388,"isPrimary":"Y","inPlanning":"N","isClosed":"N","openToPublic":"Y","locationType":"micro","locationTypeDisplay":"Micro Brewery","countryIsoCode":"US","status":"verified","statusDisplay":"Verified","createDate":"2012-01-03 02:42:01","updateDate":"2014-07-23 19:11:34","country":{"isoCode":"US","name":"UNITED STATES","displayName":"United States","isoThree":"USA","numberCode":840,"createDate":"2012-01-03 02:41:33"}},{"id":"q5Fhh9","name":"Main Brewery","streetAddress":"1535 Pearl Street","locality":"Boulder","region":"Colorado","postalCode":"80302","phone":"303-546-0886","website":"http://www.mountainsunpub.com/","latitude":40.0189979,"longitude":-105.2752141,"isPrimary":"Y","inPlanning":"N","isClosed":"N","openToPublic":"Y","locationType":"brewpub","locationTypeDisplay":"Brewpub","countryIsoCode":"US","yearOpened":"1993","status":"verified","statusDisplay":"Verified","createDate":"2012-01-03 02:42:03","updateDate":"2014-07-23 19:11:34","country":{"isoCode":"US","name":"UNITED STATES","displayName":"United States","isoThree":"USA","numberCode":840,"createDate":"2012-01-03 02:41:33"}},{"id":"ycplbn","name":"Main Brewery","streetAddress":"2400 State Highway 69","locality":"New Glarus","region":"Wisconsin","postalCode":"53574","phone":"608-527-5850","website":"http://www.newglarusbrewing.com/","hoursOfOperation":"Gift Shop / Tours / Tastings: Monday - Sunday 10:00 a.m. - 4:00 p.m.\r\n\r\nOffice Hours: Monday - Friday 9:00 a.m. - 5:00 p.m.","latitude":42.8170693,"longitude":-89.6306133,"isPrimary":"Y","inPlanning":"N","isClosed":"N","openToPublic":"Y","locationType":"micro","locationTypeDisplay":"Micro Brewery","countryIsoCode":"US","yearOpened":"1993","status":"verified","statusDisplay":"Verified","createDate":"2012-01-03 02:42:03","updateDate":"2014-07-23 19:11:34","country":{"isoCode":"US","name":"UNITED STATES","displayName":"United States","isoThree":"USA","numberCode":840,"createDate":"2012-01-03 02:41:33"}},{"id":"vzBk05","name":"Main Brewery","streetAddress":"1003 E Trent Ave","extendedAddress":"#170","locality":"Spokane","region":"Washington","postalCode":"99202","phone":"509-242-2739","website":"http://www.northernlightsbrewing.com/","hoursOfOperation":"Mon - Thu: 11:00 am - 10:00 pm\r\nFri - Sat: 11:00 am - 11:00 pm\r\nSun: 11:00 am - 9:00 pm","latitude":47.6619001,"longitude":-117.3951705,"isPrimary":"Y","inPlanning":"N","isClosed":"N","openToPublic":"Y","locationType":"micro","locationTypeDisplay":"Micro Brewery","countryIsoCode":"US","yearOpened":"1993","status":"verified","statusDisplay":"Verified","createDate":"2012-01-03 02:42:04","updateDate":"2014-07-23 19:11:34","country":{"isoCode":"US","name":"UNITED STATES","displayName":"United States","isoThree":"USA","numberCode":840,"createDate":"2012-01-03 02:41:33"}},{"id":"Wz5XLf","name":"Main Brewery","streetAddress":"2050 Yavapai Dr.","locality":"Sedona","region":"Arizona","postalCode":"86336","phone":"928-203-9441","website":"http://oakcreekbrew.com/","latitude":34.8663909,"longitude":-111.7962527,"isPrimary":"Y","inPlanning":"N","isClosed":"N","openToPublic":"Y","locationType":"micro","locationTypeDisplay":"Micro Brewery","countryIsoCode":"US","yearOpened":"1993","status":"verified","statusDisplay":"Verified","createDate":"2012-01-03 02:42:04","updateDate":"2014-07-23 19:11:34","country":{"isoCode":"US","name":"UNITED STATES","displayName":"United States","isoThree":"USA","numberCode":840,"createDate":"2012-01-03 02:41:33"}},{"id":"BkWr1W","name":"Main Brewery","streetAddress":"289 Huger Street","locality":"Charleston","region":"South Carolina","postalCode":"29403","phone":"843-937-0903","website":"http://www.palmettobrewingco.com/","hoursOfOperation":"Tue:  3:00pm - 7:00pm\r\nWed:  3:00pm - 7:00pm\r\nThu:  3:00pm - 9:00pm\r\nFri:  1:00pm - 9:00pm\r\nSat:  1:00pm - 9:00pm\r\nSun:  1:00pm - 5:00pm\r\n\r\nTours are offered every hour, on the hour. Walk-ins only. If you are interested in a private tour, please email us to schedule.","latitude":32.8017374,"longitude":-79.945522,"isPrimary":"Y","inPlanning":"N","isClosed":"N","openToPublic":"Y","locationType":"micro","locationTypeDisplay":"Micro Brewery","countryIsoCode":"US","yearOpened":"1994","status":"verified","statusDisplay":"Verified","createDate":"2012-01-03 02:42:05","updateDate":"2014-10-27 14:46:52","country":{"isoCode":"US","name":"UNITED STATES","displayName":"United States","isoThree":"USA","numberCode":840,"createDate":"2012-01-03 02:41:33"}},{"id":"fpzao4","name":"Main Brewery","streetAddress":"2 East Pikes Peak Ave","locality":"Colorado Springs","region":"Colorado","postalCode":"80903","phone":"719-635-2800","website":"http://www.phantomcanyon.com/","latitude":38.8341656,"longitude":-104.8251011,"isPrimary":"Y","inPlanning":"N","isClosed":"N","openToPublic":"Y","locationType":"micro","locationTypeDisplay":"Micro Brewery","countryIsoCode":"US","yearOpened":"1993","status":"verified","statusDisplay":"Verified","createDate":"2012-01-03 02:42:05","updateDate":"2014-07-23 19:11:34","country":{"isoCode":"US","name":"UNITED STATES","displayName":"United States","isoThree":"USA","numberCode":840,"createDate":"2012-01-03 02:41:33"}},{"id":"4oQBfJ","name":"Oliver Breweries","streetAddress":"206 W. Pratt St.","locality":"Baltimore","region":"Maryland","postalCode":"21201","phone":"410-244-8900","website":"http://www.prattstreetalehouse.com/oliver-breweries/","latitude":39.2866,"longitude":-76.618154,"isPrimary":"Y","inPlanning":"N","isClosed":"N","openToPublic":"N","locationType":"brewpub","locationTypeDisplay":"Brewpub","countryIsoCode":"US","yearOpened":"1993","status":"verified","statusDisplay":"Verified","createDate":"2012-01-03 02:42:15","updateDate":"2014-07-23 19:11:34","country":{"isoCode":"US","name":"UNITED STATES","displayName":"United States","isoThree":"USA","numberCode":840,"createDate":"2012-01-03 02:41:33"}},{"id":"TeGU1c","name":"Main Office","streetAddress":"200 Hanscom Dr","locality":"Bedford","region":"Massachusetts","postalCode":"01773","phone":"617-877-0164","website":"http://www.drinkrapscallion.com/","latitude":42.462924,"longitude":-71.291474,"isPrimary":"N","inPlanning":"N","isClosed":"N","openToPublic":"N","locationType":"office","locationTypeDisplay":"Office","countryIsoCode":"US","status":"verified","statusDisplay":"Verified","createDate":"2012-01-03 02:42:06","updateDate":"2014-07-23 19:11:34","country":{"isoCode":"US","name":"UNITED STATES","displayName":"United States","isoThree":"USA","numberCode":840,"createDate":"2012-01-03 02:41:33"}},{"id":"O9NIvj","name":"Main Brewery","streetAddress":"195 Arnold Rd","locality":"Fiskdale","region":"Massachusetts","postalCode":"01518","website":"http://www.drinkrapscallion.com/","latitude":42.136914,"longitude":-72.106586,"isPrimary":"Y","inPlanning":"N","isClosed":"N","openToPublic":"Y","locationType":"production","locationTypeDisplay":"Production Facility","countryIsoCode":"US","status":"verified","statusDisplay":"Verified","createDate":"2012-04-18 02:01:31","updateDate":"2014-07-23 19:11:34","country":{"isoCode":"US","name":"UNITED STATES","displayName":"United States","isoThree":"USA","numberCode":840,"createDate":"2012-01-03 02:41:33"}},{"id":"QC2xF6","name":"Main Brewery","streetAddress":"2323 Defoor Hills Road","locality":"Atlanta","region":"Georgia","postalCode":"30318","phone":"404-355-5558","website":"http://www.redbrickbrewing.com/","latitude":33.818002,"longitude":-84.435253,"isPrimary":"Y","inPlanning":"N","isClosed":"N","openToPublic":"Y","locationType":"micro","locationTypeDisplay":"Micro Brewery","countryIsoCode":"US","yearOpened":"1993","status":"verified","statusDisplay":"Verified","createDate":"2012-01-03 02:42:06","updateDate":"2014-07-23 19:11:34","country":{"isoCode":"US","name":"UNITED STATES","displayName":"United States","isoThree":"USA","numberCode":840,"createDate":"2012-01-03 02:41:33"}},{"id":"3KLGZL","name":"Main Brewery","streetAddress":"9 South Brown Street","locality":"Rhinelander","region":"Wisconsin","postalCode":"54501","phone":"715-550-2337","website":"http://www.rhinelanderbrewery.com/","latitude":45.6379278,"longitude":-89.4127812,"isPrimary":"Y","inPlanning":"N","isClosed":"N","openToPublic":"Y","locationType":"micro","locationTypeDisplay":"Micro Brewery","countryIsoCode":"US","yearOpened":"1993","status":"verified","statusDisplay":"Verified","createDate":"2012-01-03 02:42:07","updateDate":"2014-07-23 19:11:34","country":{"isoCode":"US","name":"UNITED STATES","displayName":"United States","isoThree":"USA","numberCode":840,"createDate":"2012-01-03 02:41:33"}},{"id":"lY071i","name":"Main Brewery","streetAddress":"10450-L Friars Road","locality":"San Diego","region":"California","postalCode":"92120","phone":"1-619-284-2739","latitude":32.792159,"longitude":-117.098768,"isPrimary":"Y","inPlanning":"N","isClosed":"N","openToPublic":"Y","locationType":"micro","locationTypeDisplay":"Micro Brewery","countryIsoCode":"US","status":"verified","statusDisplay":"Verified","createDate":"2012-01-03 02:42:07","updateDate":"2014-07-23 19:11:34","country":{"isoCode":"US","name":"UNITED STATES","displayName":"United States","isoThree":"USA","numberCode":840,"createDate":"2012-01-03 02:41:33"}},{"id":"oUy8BB","name":"Bangor","streetAddress":"26 Front Street","locality":"Bangor","region":"Maine","postalCode":"04401","phone":"207.871.7000","hoursOfOperation":"Mon-Sun: 11:00am- 1am","latitude":44.796724,"longitude":-68.7700606,"isPrimary":"N","inPlanning":"N","isClosed":"N","openToPublic":"Y","locationType":"brewpub","locationTypeDisplay":"Brewpub","countryIsoCode":"US","status":"verified","statusDisplay":"Verified","createDate":"2012-01-03 02:42:08","updateDate":"2014-09-26 13:50:41","country":{"isoCode":"US","name":"UNITED STATES","displayName":"United States","isoThree":"USA","numberCode":840,"createDate":"2012-01-03 02:41:33"}},{"id":"3dBTMO","name":"Clearwater","streetAddress":"26200 us Highway 19 N","locality":"Clearwater","region":"Florida","postalCode":"33761","phone":"727.466.4916","hoursOfOperation":"Mon-Sun: 11:00am- 2am","latitude":28.009907,"longitude":-82.732752,"isPrimary":"N","inPlanning":"N","isClosed":"N","openToPublic":"Y","locationType":"brewpub","locationTypeDisplay":"Brewpub","countryIsoCode":"US","status":"verified","statusDisplay":"Verified","createDate":"2013-07-14 01:01:15","updateDate":"2014-07-23 19:11:34","country":{"isoCode":"US","name":"UNITED STATES","displayName":"United States","isoThree":"USA","numberCode":840,"createDate":"2012-01-03 02:41:33"}},{"id":"fwuHVp","name":"Orlando","streetAddress":"8496 Palm Pkwy","locality":"Orlando","region":"Florida","postalCode":"32836","phone":"321.329.5306","website":"http://www.seadogbrewing.com/orlandoLOC.php","hoursOfOperation":"Mon-Thurs: 4:00pm- 1am\r\nFri-Sun: 11:30am- 2am","latitude":28.3847,"longitude":-81.49929,"isPrimary":"N","inPlanning":"N","isClosed":"N","openToPublic":"Y","locationType":"brewpub","locationTypeDisplay":"Brewpub","countryIsoCode":"US","status":"verified","statusDisplay":"Verified","createDate":"2013-07-14 01:02:21","updateDate":"2014-07-23 19:11:34","country":{"isoCode":"US","name":"UNITED STATES","displayName":"United States","isoThree":"USA","numberCode":840,"createDate":"2012-01-03 02:41:33"}},{"id":"IGd5fG","name":"South Portland","streetAddress":"125 Western Ave","locality":"South Portland","region":"Maine","postalCode":"04106","phone":"207.871.7000","hoursOfOperation":"Mon-Fri: 11:00am- 1am\r\nSat-Sun: 9:00am- 1am","latitude":43.6351676,"longitude":-70.3190105,"isPrimary":"N","inPlanning":"N","isClosed":"N","openToPublic":"Y","locationType":"brewpub","locationTypeDisplay":"Brewpub","countryIsoCode":"US","status":"verified","statusDisplay":"Verified","createDate":"2013-07-14 01:03:17","updateDate":"2014-07-23 19:11:34","country":{"isoCode":"US","name":"UNITED STATES","displayName":"United States","isoThree":"USA","numberCode":840,"createDate":"2012-01-03 02:41:33"}},{"id":"uaLtoh","name":"Topsham","streetAddress":"1 Main St.","locality":"Topsham","region":"Maine","postalCode":"04086","phone":"207.725.0162","hoursOfOperation":"Mon-Sat: 11:00am- 1am\r\nSun: 10:00am- 1am","latitude":43.9224457,"longitude":-69.9651967,"isPrimary":"N","inPlanning":"N","isClosed":"N","openToPublic":"Y","locationType":"micro","locationTypeDisplay":"Micro Brewery","countryIsoCode":"US","status":"verified","statusDisplay":"Verified","createDate":"2013-07-14 01:04:09","updateDate":"2014-07-23 19:11:34","country":{"isoCode":"US","name":"UNITED STATES","displayName":"United States","isoThree":"USA","numberCode":840,"createDate":"2012-01-03 02:41:33"}},{"id":"JVv3qI","name":"Hull","streetAddress":"2 A Street","locality":"Hull","region":"Massachusetts","postalCode":"02045","phone":"(781) 773-1840","website":"http://seadoghull.com/","hoursOfOperation":"Monday & Tuesday\r\nClosed\r\n\r\nWed - Thurs\r\n11:00 am - 12:00 am\r\n\r\nFri - Sat\r\n11:30 am - 1:00 am\r\n\r\nSunday\r\n11:00 (Reggae Brunch) - 11pm","latitude":42.2909978,"longitude":-70.8832188,"isPrimary":"Y","inPlanning":"N","isClosed":"N","openToPublic":"Y","locationType":"brewpub","locationTypeDisplay":"Brewpub","countryIsoCode":"US","status":"verified","statusDisplay":"Verified","createDate":"2013-11-14 13:38:00","updateDate":"2014-07-23 19:11:34","country":{"isoCode":"US","name":"UNITED STATES","displayName":"United States","isoThree":"USA","numberCode":840,"createDate":"2012-01-03 02:41:33"}},{"id":"qScx71","name":"Main Brewery","streetAddress":"Marienstraße 28","locality":"Stuttgart","postalCode":"D-70178","latitude":48.767675,"longitude":9.171925,"isPrimary":"Y","inPlanning":"N","isClosed":"N","openToPublic":"Y","locationType":"micro","locationTypeDisplay":"Micro Brewery","countryIsoCode":"DE","status":"verified","statusDisplay":"Verified","createDate":"2012-08-16 15:11:24","updateDate":"2014-07-23 19:11:34","country":{"isoCode":"DE","name":"GERMANY","displayName":"Germany","isoThree":"DEU","numberCode":276,"createDate":"2012-01-03 02:41:33"}},{"id":"DcSoI4","name":"Main Brewery","streetAddress":"320 South Clinton Street","locality":"Syracuse","region":"New York","postalCode":"13202","phone":"315-471-2253","website":"http://www.sudsfactory.com/","latitude":43.0480734,"longitude":-76.1536694,"isPrimary":"Y","inPlanning":"N","isClosed":"N","openToPublic":"Y","locationType":"micro","locationTypeDisplay":"Micro Brewery","countryIsoCode":"US","yearOpened":"1993","status":"verified","statusDisplay":"Verified","createDate":"2012-01-03 02:42:09","updateDate":"2014-07-23 19:11:34","country":{"isoCode":"US","name":"UNITED STATES","displayName":"United States","isoThree":"USA","numberCode":840,"createDate":"2012-01-03 02:41:33"}},{"id":"yn5ftu","name":"Main Brewery","streetAddress":"1156 Speers Road","locality":"Oakville","region":"Ontario","postalCode":"L6L 2X4","phone":"905-337-0133","website":"http://www.alesandmeads.com/","latitude":43.4292638,"longitude":-79.7066917,"isPrimary":"Y","inPlanning":"N","isClosed":"N","openToPublic":"Y","locationType":"micro","locationTypeDisplay":"Micro Brewery","countryIsoCode":"CA","yearOpened":"1993","status":"verified","statusDisplay":"Verified","createDate":"2012-01-03 02:42:10","updateDate":"2014-07-23 19:11:34","country":{"isoCode":"CA","name":"CANADA","displayName":"Canada","isoThree":"CAN","numberCode":124,"createDate":"2012-01-03 02:41:33"}},{"id":"X9LRdm","name":"Main Brewery","streetAddress":"1722 South Fremont Drive","extendedAddress":"(2375 West)","locality":"Salt Lake City","region":"Utah","postalCode":"84104","phone":"1-801-467-0909","website":"http://www.uintabrewing.com/","latitude":40.732632,"longitude":-111.954091,"isPrimary":"Y","inPlanning":"N","isClosed":"N","openToPublic":"Y","locationType":"micro","locationTypeDisplay":"Micro Brewery","countryIsoCode":"US","yearOpened":"1993","status":"verified","statusDisplay":"Verified","createDate":"2012-01-03 02:42:11","updateDate":"2014-07-23 19:11:34","country":{"isoCode":"US","name":"UNITED STATES","displayName":"United States","isoThree":"USA","numberCode":840,"createDate":"2012-01-03 02:41:33"}}]