[{"id":"55MX88","name":"Main Brewery","streetAddress":"500 Alakawa Street","extendedAddress":"#220","locality":"Honolulu","region":"Hawaii","postalCode":"97817","latitude":21.318624,"longitude":-157.873044,"isPrimary":"Y","inPlanning":"N","isClosed":"Y","openToPublic":"Y","locationType":"micro","locationTypeDisplay":"Micro Brewery","countryIsoCode":"US","yearOpened":"1994","status":"verified","statusDisplay":"Verified","createDate":"2012-01-03 02:41:44","updateDate":"2014-07-23 19:11:34","country":{"isoCode":"US","name":"UNITED STATES","displayName":"United States","isoThree":"USA","numberCode":840,"createDate":"2012-01-03 02:41:33"}},{"id":"Gwo4rP","name":"Alley Kat Brewing Company","streetAddress":"9929 60 Ave. NW","locality":"Edmonton","region":"Alberta","postalCode":"T6E 0C7","phone":"780-436-8922","website":"http://www.alleykatbeer.com","hoursOfOperation":"Mon:  10:00am - 4:30pm\nTue:  10:00am - 4:30pm\nWed:  10:00am - 4:30pm\nThu:  10:00am - 5:30pm\nFri:  10:00am - 5:30pm\n\nMon - Wed: 10:00 am - 4:30 pm\r\nThu - Fri: 10:00 am - 5:30 pm","latitude":53.495389,"longitude":-113.487933,"isPrimary":"Y","inPlanning":"N","isClosed":"N","openToPublic":"Y","locationType":"micro","locationTypeDisplay":"Micro Brewery","countryIsoCode":"CA","yearOpened":"1994","status":"verified","statusDisplay":"Verified","createDate":"2013-07-27 00:35:58","updateDate":"2014-08-25 19:12:33","country":{"isoCode":"CA","name":"CANADA","displayName":"Canada","isoThree":"CAN","numberCode":124,"createDate":"2012-01-03 02:41:33"}},{"id":"O4qGIu","name":"Main Brewery","streetAddress":"Ackergasse 13","locality":"Oberursel","region":"Hesse","postalCode":"61440","latitude":50.202866,"longitude":8.578868,"isPrimary":"N","inPlanning":"N","isClosed":"N","openToPublic":"Y","locationType":"micro","locationTypeDisplay":"Micro Brewery","countryIsoCode":"DE","status":"verified","statusDisplay":"Verified","createDate":"2012-08-12 14:46:58","updateDate":"2014-07-23 19:11:34","country":{"isoCode":"DE","name":"GERMANY","displayName":"Germany","isoThree":"DEU","numberCode":276,"createDate":"2012-01-03 02:41:33"}},{"id":"iItvMx","name":"Main Brewery","streetAddress":"Altenrüthener Straße 7","locality":"Altenrüthen Rüthen","region":"Nordrhein-Westfalen","postalCode":"D-59602","latitude":51.491564,"longitude":8.431295,"isPrimary":"N","inPlanning":"N","isClosed":"N","openToPublic":"Y","locationType":"micro","locationTypeDisplay":"Micro Brewery","countryIsoCode":"DE","status":"verified","statusDisplay":"Verified","createDate":"2012-08-12 14:47:03","updateDate":"2014-07-23 19:11:34","country":{"isoCode":"DE","name":"GERMANY","displayName":"Germany","isoThree":"DEU","numberCode":276,"createDate":"2012-01-03 02:41:33"}},{"id":"9M9Z5S","name":"Main Brewery","streetAddress":"320 Commercial Avenue","locality":"Anacortes","region":"Washington","postalCode":"98221","phone":"360-588-1720","website":"http://www.anacortesrockfish.com/","latitude":48.51933,"longitude":-122.6125703,"isPrimary":"Y","inPlanning":"N","isClosed":"N","openToPublic":"Y","locationType":"micro","locationTypeDisplay":"Micro Brewery","countryIsoCode":"US","yearOpened":"1994","status":"verified","statusDisplay":"Verified","createDate":"2012-01-03 02:41:44","updateDate":"2014-07-23 19:11:34","country":{"isoCode":"US","name":"UNITED STATES","displayName":"United States","isoThree":"USA","numberCode":840,"createDate":"2012-01-03 02:41:33"}},{"id":"xyzxTo","name":"Main Brewery","streetAddress":"11 Beaver St","extendedAddress":"#1","locality":"Flagstaff","region":"Arizona","postalCode":"86001","phone":"928-779-0079","website":"http://www.beaverstreetbrewery.com/","latitude":35.1964148,"longitude":-111.651023,"isPrimary":"Y","inPlanning":"N","isClosed":"N","openToPublic":"Y","locationType":"brewpub","locationTypeDisplay":"Brewpub","countryIsoCode":"US","status":"verified","statusDisplay":"Verified","createDate":"2012-01-03 02:41:45","updateDate":"2014-07-23 19:11:34","country":{"isoCode":"US","name":"UNITED STATES","displayName":"United States","isoThree":"USA","numberCode":840,"createDate":"2012-01-03 02:41:33"}},{"id":"eZVnaZ","name":"Main Brewery","streetAddress":"12 Railroad Street","locality":"South Deerfield","region":"Massachusetts","postalCode":"01373","phone":"413- 665-6600","website":"http://www.berkshirebrewingcompany.com/","latitude":42.478684,"longitude":-72.609409,"isPrimary":"Y","inPlanning":"N","isClosed":"N","openToPublic":"Y","locationType":"micro","locationTypeDisplay":"Micro Brewery","countryIsoCode":"US","yearOpened":"1994","status":"verified","statusDisplay":"Verified","createDate":"2012-01-03 02:41:45","updateDate":"2014-07-23 19:11:34","country":{"isoCode":"US","name":"UNITED STATES","displayName":"United States","isoThree":"USA","numberCode":840,"createDate":"2012-01-03 02:41:33"}},{"id":"89j1k4","name":"Main Brewery","streetAddress":"1918 West End Avenue","locality":"Nashville","region":"Tennessee","postalCode":"37203","phone":"615-327-9969","website":"http://blackstonebrewery.com/","hoursOfOperation":"Sunday: 11:00 AM – 10:00 PM\r\nMonday: 11:00 AM – 12:00 AM\r\nTuesday: 11:00 AM – 12:00 AM\r\nWednesday: 11:00 AM – 12:00 AM\r\nThursday: 11:00 AM – 12:00 AM\r\nFriday: 11:00 AM – 1:00 AM\r\nSaturday: 11:00 AM – 1:00 AM","latitude":36.1517407,"longitude":-86.7989106,"isPrimary":"Y","inPlanning":"N","isClosed":"N","openToPublic":"Y","locationType":"brewpub","locationTypeDisplay":"Brewpub","countryIsoCode":"US","status":"verified","statusDisplay":"Verified","createDate":"2012-01-03 02:41:46","updateDate":"2014-07-23 19:11:34","country":{"isoCode":"US","name":"UNITED STATES","displayName":"United States","isoThree":"USA","numberCode":840,"createDate":"2012-01-03 02:41:33"}},{"id":"SXYoLW","name":"Main Brewery","streetAddress":"Königstr. 27","locality":"Schleswig","region":"Schlewsig-Holstein","postalCode":"24837","latitude":54.515701,"longitude":9.566571,"isPrimary":"N","inPlanning":"N","isClosed":"N","openToPublic":"Y","locationType":"micro","locationTypeDisplay":"Micro Brewery","countryIsoCode":"DE","status":"verified","statusDisplay":"Verified","createDate":"2012-08-12 14:45:45","updateDate":"2014-07-23 19:11:34","country":{"isoCode":"DE","name":"GERMANY","displayName":"Germany","isoThree":"DEU","numberCode":276,"createDate":"2012-01-03 02:41:33"}},{"id":"mGMxmW","name":"Main Brewery","streetAddress":"Neuendorfer Straße 1","locality":"Spandau","region":"Berlin","postalCode":"D-13585","latitude":52.540806,"longitude":13.206135,"isPrimary":"N","inPlanning":"N","isClosed":"N","openToPublic":"Y","locationType":"micro","locationTypeDisplay":"Micro Brewery","countryIsoCode":"DE","status":"verified","statusDisplay":"Verified","createDate":"2012-08-12 14:46:24","updateDate":"2014-07-23 19:11:34","country":{"isoCode":"DE","name":"GERMANY","displayName":"Germany","isoThree":"DEU","numberCode":276,"createDate":"2012-01-03 02:41:33"}},{"id":"unx1hA","name":"Main Brewery","streetAddress":"Jokuschstraße 3","locality":"Lüdenscheid","region":"Nordrhein-Westfalen","postalCode":"D-58511","latitude":51.213745,"longitude":7.63174,"isPrimary":"N","inPlanning":"N","isClosed":"N","openToPublic":"Y","locationType":"micro","locationTypeDisplay":"Micro Brewery","countryIsoCode":"DE","status":"verified","statusDisplay":"Verified","createDate":"2012-08-12 14:46:55","updateDate":"2014-07-23 19:11:34","country":{"isoCode":"DE","name":"GERMANY","displayName":"Germany","isoThree":"DEU","numberCode":276,"createDate":"2012-01-03 02:41:33"}},{"id":"40KTFD","name":"Main Brewery","streetAddress":"1647 South Tejon Street","locality":"Colorado Springs","region":"Colorado","postalCode":"80906","phone":"719-633-2555","website":"http://www.bristolbrewing.com/","latitude":38.8097336,"longitude":-104.8261746,"isPrimary":"N","inPlanning":"N","isClosed":"N","openToPublic":"Y","locationType":"micro","locationTypeDisplay":"Micro Brewery","countryIsoCode":"US","yearOpened":"1994","yearClosed":"2013","status":"verified","statusDisplay":"Verified","createDate":"2012-01-03 02:41:48","updateDate":"2014-07-23 19:11:34","country":{"isoCode":"US","name":"UNITED STATES","displayName":"United States","isoThree":"USA","numberCode":840,"createDate":"2012-01-03 02:41:33"}},{"id":"glTmgd","name":"Main Brewery","streetAddress":"1604 South Cascade","locality":"Colorado Springs","region":"Colorado","postalCode":"80905","phone":"(719) 633-2555","website":"http://www.bristolbrewing.com/","hoursOfOperation":"Monday-Thursday, 11am - 10pm; \r\nFriday, 11am - 11pm;\r\nSaturday, 9am - 11pm; \r\nSunday 11am - 8pm.","latitude":38.810924,"longitude":-104.827297,"isPrimary":"Y","inPlanning":"N","isClosed":"N","openToPublic":"Y","locationType":"micro","locationTypeDisplay":"Micro Brewery","countryIsoCode":"US","yearOpened":"2013","status":"verified","statusDisplay":"Verified","createDate":"2013-07-27 15:29:17","updateDate":"2014-07-23 19:11:34","country":{"isoCode":"US","name":"UNITED STATES","displayName":"United States","isoThree":"USA","numberCode":840,"createDate":"2012-01-03 02:41:33"}},{"id":"FBYYlZ","name":"Main Brewery","streetAddress":"Steenbrugestraat 187","locality":"Harelbeke-Stasegem","postalCode":"8530","phone":"+32 (0)56 25 86 70","website":"http://www.tgaverhopke.be/","hoursOfOperation":"The tasting room of 't Gaverhopke is open every saturday, sunday and holidays from 15h until 22h. (Saturday till 23h)","latitude":50.835459,"longitude":3.334268,"isPrimary":"Y","inPlanning":"N","isClosed":"N","openToPublic":"Y","locationType":"micro","locationTypeDisplay":"Micro Brewery","countryIsoCode":"BE","yearOpened":"1994","status":"verified","statusDisplay":"Verified","createDate":"2012-01-03 02:41:48","updateDate":"2014-07-23 19:11:34","country":{"isoCode":"BE","name":"BELGIUM","displayName":"Belgium","isoThree":"BEL","numberCode":56,"createDate":"2012-01-03 02:41:33"}},{"id":"qBSM79","name":"Main Brewery","streetAddress":"Brugsstraat 43","locality":"Wevelgem","region":"West-Vlaanderen","phone":"32-056-41-82-41","website":"http://deranke.be/","latitude":50.8104527,"longitude":3.1857196,"isPrimary":"Y","inPlanning":"N","isClosed":"N","openToPublic":"Y","locationType":"micro","locationTypeDisplay":"Micro Brewery","countryIsoCode":"BE","yearOpened":"1994","status":"verified","statusDisplay":"Verified","createDate":"2012-01-03 02:41:49","updateDate":"2014-07-23 19:11:34","country":{"isoCode":"BE","name":"BELGIUM","displayName":"Belgium","isoThree":"BEL","numberCode":56,"createDate":"2012-01-03 02:41:33"}},{"id":"kuAItj","name":"Main Brewery","streetAddress":"2064 Gravenstein Highway North","extendedAddress":"Building 4","locality":"Sebastopol","region":"California","postalCode":"95472","phone":"707-829-1101","website":"http://www.acecider.com/","hoursOfOperation":"ACE- in-the-HOLE Pub is open on Fridays only from 2pm-5pm.","latitude":38.424961,"longitude":-122.848101,"isPrimary":"Y","inPlanning":"N","isClosed":"N","openToPublic":"Y","locationType":"micro","locationTypeDisplay":"Micro Brewery","countryIsoCode":"US","status":"verified","statusDisplay":"Verified","createDate":"2012-01-03 02:41:50","updateDate":"2014-07-23 19:11:34","country":{"isoCode":"US","name":"UNITED STATES","displayName":"United States","isoThree":"USA","numberCode":840,"createDate":"2012-01-03 02:41:33"}},{"id":"kFqi12","name":"Main Brewery","streetAddress":"2381 Aztec Road Northeast","locality":"Albuquerque","region":"New Mexico","postalCode":"87107","phone":"505-830-4629","website":"http://ilvicino.com/","latitude":35.1206699,"longitude":-106.617864,"isPrimary":"Y","inPlanning":"N","isClosed":"N","openToPublic":"Y","locationType":"micro","locationTypeDisplay":"Micro Brewery","countryIsoCode":"US","status":"verified","statusDisplay":"Verified","createDate":"2012-01-03 02:41:58","updateDate":"2014-07-23 19:11:34","country":{"isoCode":"US","name":"UNITED STATES","displayName":"United States","isoThree":"USA","numberCode":840,"createDate":"2012-01-03 02:41:33"}},{"id":"O2ScDy","name":"Main Brewery","streetAddress":"2141 SW First Street","locality":"Redmond","region":"Oregon","postalCode":"97756","phone":"541-923-3110","website":"http://cascadelakes.com/","latitude":44.256031,"longitude":-121.169251,"isPrimary":"N","inPlanning":"N","isClosed":"N","openToPublic":"Y","locationType":"micro","locationTypeDisplay":"Micro Brewery","countryIsoCode":"US","yearOpened":"1994","status":"verified","statusDisplay":"Verified","createDate":"2012-01-03 02:41:50","updateDate":"2014-07-23 19:11:34","country":{"isoCode":"US","name":"UNITED STATES","displayName":"United States","isoThree":"USA","numberCode":840,"createDate":"2012-01-03 02:41:33"}},{"id":"C7u6RO","name":"7th Street Brew House","streetAddress":"855 SW 7th Street","locality":"Redmond","region":"Oregon","postalCode":"97756","phone":"541-923-1795","website":"http://www.cascadelakes.com/pubs/7th-street/","hoursOfOperation":"Mon:  11:30am - 11:00pm\nTue:  11:30am - 11:00pm\nWed:  11:30am - 11:00pm\nThu:  11:30am - 11:00pm\nFri:  11:30am - 12:00am\nSat:  11:30am - 12:00am\nSun:  12:00pm - 9:00pm\n\nOpen Monday – Thursday 11:30 am – 11:00 pm\r\nFriday- Saturday 11:30 am – 12:00 am\r\nSunday 12:00 pm – 9:00 pm","latitude":44.268783,"longitude":-121.175632,"isPrimary":"N","inPlanning":"N","isClosed":"N","openToPublic":"Y","locationType":"restaurant","locationTypeDisplay":"Restaurant/Ale House","countryIsoCode":"US","yearOpened":"1996","status":"verified","statusDisplay":"Verified","createDate":"2012-10-23 14:05:35","updateDate":"2014-09-29 20:12:08","country":{"isoCode":"US","name":"UNITED STATES","displayName":"United States","isoThree":"USA","numberCode":840,"createDate":"2012-01-03 02:41:33"}},{"id":"oRcuap","name":"Cascade Lakes Lodge","streetAddress":"1441 SW Chandler Ave Suite 100","locality":"Bend","region":"Oregon","postalCode":"97702","phone":"541-388-4998","website":"http://www.cascadelakes.com/pubs/lodge/","hoursOfOperation":"Open 11:30 am seven days a week\r\n\r\nBar closes at 12:00 am Sunday – Thursday, 1:00 am Friday and Saturday","latitude":44.041604,"longitude":-121.332722,"isPrimary":"N","inPlanning":"N","isClosed":"N","openToPublic":"Y","locationType":"restaurant","locationTypeDisplay":"Restaurant/Ale House","countryIsoCode":"US","status":"verified","statusDisplay":"Verified","createDate":"2012-10-23 14:06:49","updateDate":"2014-09-29 20:12:08","country":{"isoCode":"US","name":"UNITED STATES","displayName":"United States","isoThree":"USA","numberCode":840,"createDate":"2012-01-03 02:41:33"}},{"id":"QlLikG","name":"Tumalo Tavern","streetAddress":"64670 Stricker #103","locality":"Bend","region":"Oregon","postalCode":"97701","phone":"541.330.2323","website":"http://www.cascadelakes.com/pubs/tumalo-tavern/","hoursOfOperation":"Mon:  11:00am - 12:00am\nTue:  11:00am - 12:00am\nWed:  11:00am - 12:00am\nThu:  11:00am - 12:00am\nFri:  11:00am - 12:00am\nSat:  11:00am - 12:00am\nSun:  11:00am - 12:00am\n\nOpen seven days a week from 11:00 am to 12:00 am","latitude":44.148158,"longitude":-121.333679,"isPrimary":"N","inPlanning":"N","isClosed":"N","openToPublic":"Y","locationType":"restaurant","locationTypeDisplay":"Restaurant/Ale House","countryIsoCode":"US","yearOpened":"2002","status":"verified","statusDisplay":"Verified","createDate":"2012-10-23 14:07:57","updateDate":"2014-09-29 20:12:09","country":{"isoCode":"US","name":"UNITED STATES","displayName":"United States","isoThree":"USA","numberCode":840,"createDate":"2012-01-03 02:41:33"}},{"id":"354Wth","name":"Cascade West","streetAddress":"64 SW Century Drive","locality":"Bend","region":"Oregon","postalCode":"97702","phone":"541-389-1853","website":"http://www.cascadelakes.com/pubs/cascade-west/","hoursOfOperation":"Sun:  11:00am - 12:00pm\nFri:  11:00am - 1:00am\nSat:  11:00am - 1:00am\n\nOpen seven days a week\r\n\r\nSunday – Thursday from 11:00 am – 12:00 pm\r\n\r\nFriday – Saturday from 11:00 am – 1:00 am","latitude":44.0504569,"longitude":-121.3313758,"isPrimary":"N","inPlanning":"N","isClosed":"N","openToPublic":"Y","locationType":"restaurant","locationTypeDisplay":"Restaurant/Ale House","countryIsoCode":"US","status":"verified","statusDisplay":"Verified","createDate":"2012-10-23 14:08:50","updateDate":"2014-09-29 20:12:10","country":{"isoCode":"US","name":"UNITED STATES","displayName":"United States","isoThree":"USA","numberCode":840,"createDate":"2012-01-03 02:41:33"}},{"id":"fOnL38","name":"Red Dog Depot","streetAddress":"3716 SW 21st Place","locality":"Redmond","region":"Oregon","postalCode":"97756","website":"http://www.cascadelakes.com/pubs/red-dog-depot/","latitude":44.241805,"longitude":-121.190974,"isPrimary":"Y","inPlanning":"N","isClosed":"N","openToPublic":"Y","locationType":"restaurant","locationTypeDisplay":"Restaurant/Ale House","countryIsoCode":"US","yearOpened":"2007","status":"verified","statusDisplay":"Verified","createDate":"2012-10-23 14:09:33","updateDate":"2014-07-23 19:11:34","country":{"isoCode":"US","name":"UNITED STATES","displayName":"United States","isoThree":"USA","numberCode":840,"createDate":"2012-01-03 02:41:33"}},{"id":"cfuEWq","name":"Main Brewery","streetAddress":"57 Industrial Way","locality":"Portland","region":"Maine","postalCode":"04103","phone":"207-797-2020","website":"http://www.mainebrewersguild.org/casco.php","latitude":43.702668,"longitude":-70.3179908,"isPrimary":"Y","inPlanning":"N","isClosed":"N","openToPublic":"N","locationType":"micro","locationTypeDisplay":"Micro Brewery","countryIsoCode":"US","yearOpened":"1994","status":"verified","statusDisplay":"Verified","createDate":"2012-01-03 02:41:50","updateDate":"2014-07-23 19:11:34","country":{"isoCode":"US","name":"UNITED STATES","displayName":"United States","isoThree":"USA","numberCode":840,"createDate":"2012-01-03 02:41:33"}},{"id":"hG1G1v","name":"Main Brewery","streetAddress":"110 River Street","extendedAddress":"P.O. Box 276","locality":"Milford","region":"New York","postalCode":"13807","phone":"607-286-9330","website":"http://www.cooperstownbrewing.com/","latitude":42.605397,"longitude":-74.981902,"isPrimary":"Y","inPlanning":"N","isClosed":"N","openToPublic":"Y","locationType":"micro","locationTypeDisplay":"Micro Brewery","countryIsoCode":"US","yearOpened":"1994","status":"verified","statusDisplay":"Verified","createDate":"2012-01-03 02:41:51","updateDate":"2014-07-23 19:11:34","country":{"isoCode":"US","name":"UNITED STATES","displayName":"United States","isoThree":"USA","numberCode":840,"createDate":"2012-01-03 02:41:33"}},{"id":"F71W8k","name":"Main Brewery","streetAddress":"621A Front Street","locality":"Mukilteo","region":"Washington","postalCode":"98275","phone":"425-355-4488","website":"http://www.diamondknot.com/","latitude":47.94845,"longitude":-122.304687,"isPrimary":"Y","inPlanning":"N","isClosed":"N","openToPublic":"Y","locationType":"brewpub","locationTypeDisplay":"Brewpub","countryIsoCode":"US","yearOpened":"1994","status":"verified","statusDisplay":"Verified","createDate":"2012-01-03 02:41:52","updateDate":"2014-07-23 19:11:34","country":{"isoCode":"US","name":"UNITED STATES","displayName":"United States","isoThree":"USA","numberCode":840,"createDate":"2012-01-03 02:41:33"}},{"id":"eBAyfH","name":"B2 Brewery &amp; Taproom","streetAddress":"4602 Chennault Beach Rd","locality":"Mukilteo","region":"Washington","postalCode":"98275","phone":"425-315-0703","website":"http://www.diamondknot.com/","latitude":47.895478,"longitude":-122.295697,"isPrimary":"N","inPlanning":"N","isClosed":"N","openToPublic":"N","locationType":"micro","locationTypeDisplay":"Micro Brewery","countryIsoCode":"US","yearOpened":"1994","status":"verified","statusDisplay":"Verified","createDate":"2012-01-03 02:42:14","updateDate":"2014-07-23 19:11:34","country":{"isoCode":"US","name":"UNITED STATES","displayName":"United States","isoThree":"USA","numberCode":840,"createDate":"2012-01-03 02:41:33"}},{"id":"KY5gtZ","name":"Main Brewery","streetAddress":"445 Saint Paul Street","locality":"Rochester","region":"New York","postalCode":"14605","website":"http://www.dundeebeer.com/","latitude":43.1646,"longitude":-77.61394,"isPrimary":"Y","inPlanning":"N","isClosed":"N","openToPublic":"N","locationType":"production","locationTypeDisplay":"Production Facility","countryIsoCode":"US","status":"verified","statusDisplay":"Verified","createDate":"2012-09-03 13:29:06","updateDate":"2014-07-23 19:11:34","country":{"isoCode":"US","name":"UNITED STATES","displayName":"United States","isoThree":"USA","numberCode":840,"createDate":"2012-01-03 02:41:33"}},{"id":"oHqn3Q","name":"Colony Mill Marketplace","streetAddress":"222 West Street","locality":"Keene","region":"New Hampshire","postalCode":"03431","phone":"603-355-3335","website":"http://www.elmcitybrewing.com/","hoursOfOperation":"Monday - Thursday \r\n11:30 AM - 11:00 PM\r\n\r\nFriday & Saturday\r\n11:30 AM - 12:00 AM\r\n\r\nSunday\r\n11:30 AM - 9:00 PM\r\n\r\nHappy Hour \r\nSunday - Thursday\r\n4:00 PM - 6:00 PM","latitude":42.9324075,"longitude":-72.2867013,"isPrimary":"Y","inPlanning":"N","isClosed":"N","openToPublic":"Y","locationType":"brewpub","locationTypeDisplay":"Brewpub","countryIsoCode":"US","yearOpened":"1994","status":"verified","statusDisplay":"Verified","createDate":"2012-01-03 02:41:53","updateDate":"2014-09-26 13:20:41","country":{"isoCode":"US","name":"UNITED STATES","displayName":"United States","isoThree":"USA","numberCode":840,"createDate":"2012-01-03 02:41:33"}},{"id":"8VuS7T","name":"Main Brewery","streetAddress":"120 Walton St","locality":"Syracuse","region":"New York","postalCode":"13202","phone":"315-475-beer","website":"http://www.empirebrew.com/","hoursOfOperation":"Mon - Thurs: 11:30 am - 10:00 pm\r\nFri - Sat: 11:30 am - 11:00 pm\r\nSun: 11:30 am - 9:00 pm","latitude":43.0479825,"longitude":-76.1545994,"isPrimary":"Y","inPlanning":"N","isClosed":"N","openToPublic":"Y","locationType":"micro","locationTypeDisplay":"Micro Brewery","countryIsoCode":"US","status":"verified","statusDisplay":"Verified","createDate":"2012-01-03 02:41:54","updateDate":"2014-07-23 19:11:34","country":{"isoCode":"US","name":"UNITED STATES","displayName":"United States","isoThree":"USA","numberCode":840,"createDate":"2012-01-03 02:41:33"}},{"id":"yPEdjK","name":"Sunnyvale","streetAddress":"1235 Oakmead Parkway","locality":"Sunnyvale","region":"California","postalCode":"94085","phone":"408-736-2739","website":"http://www.faultlinebrewing.com/","hoursOfOperation":"Mon - Fri: 11:00 am - 10:30 pm\r\nSat:\t5:00 pm 10:00 pm","latitude":37.3876601,"longitude":-121.9925094,"isPrimary":"Y","inPlanning":"N","isClosed":"N","openToPublic":"N","locationType":"micro","locationTypeDisplay":"Micro Brewery","countryIsoCode":"US","yearOpened":"1994","status":"verified","statusDisplay":"Verified","createDate":"2012-01-03 02:42:15","updateDate":"2014-07-23 19:11:34","country":{"isoCode":"US","name":"UNITED STATES","displayName":"United States","isoThree":"USA","numberCode":840,"createDate":"2012-01-03 02:41:33"}},{"id":"s3OJNh","name":"Main Brewery","streetAddress":"16 East Route 66","locality":"Flagstaff","region":"Arizona","postalCode":"86001","phone":"1-520-773-1442","latitude":35.197603,"longitude":-111.64836,"isPrimary":"Y","inPlanning":"N","isClosed":"N","openToPublic":"Y","locationType":"micro","locationTypeDisplay":"Micro Brewery","countryIsoCode":"US","status":"verified","statusDisplay":"Verified","createDate":"2012-01-03 02:41:54","updateDate":"2014-07-23 19:11:34","country":{"isoCode":"US","name":"UNITED STATES","displayName":"United States","isoThree":"USA","numberCode":840,"createDate":"2012-01-03 02:41:33"}},{"id":"0ayNIL","name":"Main Brewery","streetAddress":"245 East Main Street","locality":"Fredericksburg","region":"Texas","postalCode":"78624","phone":"830-997-1646","website":"http://www.yourbrewery.com/","latitude":30.27257,"longitude":-98.869619,"isPrimary":"Y","inPlanning":"N","isClosed":"N","openToPublic":"Y","locationType":"micro","locationTypeDisplay":"Micro Brewery","countryIsoCode":"US","yearOpened":"1994","status":"verified","statusDisplay":"Verified","createDate":"2012-01-03 02:41:55","updateDate":"2014-07-23 19:11:34","country":{"isoCode":"US","name":"UNITED STATES","displayName":"United States","isoThree":"USA","numberCode":840,"createDate":"2012-01-03 02:41:33"}},{"id":"tzrJH4","name":"Main Brewery","streetAddress":"2201 Arapahoe Street","locality":"Denver","region":"Colorado","postalCode":"80205","phone":"303-296-9460","website":"http://www.greatdivide.com/","latitude":39.753646,"longitude":-104.9884698,"isPrimary":"Y","inPlanning":"N","isClosed":"N","openToPublic":"Y","locationType":"micro","locationTypeDisplay":"Micro Brewery","countryIsoCode":"US","yearOpened":"1994","status":"verified","statusDisplay":"Verified","createDate":"2012-01-03 02:41:56","updateDate":"2014-07-23 19:11:34","country":{"isoCode":"US","name":"UNITED STATES","displayName":"United States","isoThree":"USA","numberCode":840,"createDate":"2012-01-03 02:41:33"}},{"id":"kx1jjN","name":"Main Brewery","streetAddress":"2 Central Avenue Suite 1","locality":"Whitefish","region":"Montana","postalCode":"59937","phone":"406.863.1000","website":"http://www.greatnorthernbrewing.com/","latitude":48.412369,"longitude":-114.336768,"isPrimary":"Y","inPlanning":"N","isClosed":"N","openToPublic":"Y","locationType":"micro","locationTypeDisplay":"Micro Brewery","countryIsoCode":"US","yearOpened":"1994","status":"verified","statusDisplay":"Verified","createDate":"2012-01-03 02:41:56","updateDate":"2014-07-23 19:11:34","country":{"isoCode":"US","name":"UNITED STATES","displayName":"United States","isoThree":"USA","numberCode":840,"createDate":"2012-01-03 02:41:33"}},{"id":"VJ56AP","name":"Main Brewery","streetAddress":"624 Ludington Street","locality":"Escanaba","region":"Michigan","postalCode":"49829","phone":"906-789-1945","website":"http://herefordandhops.com/","latitude":45.7458587,"longitude":-87.0564803,"isPrimary":"Y","inPlanning":"N","isClosed":"N","openToPublic":"Y","locationType":"brewpub","locationTypeDisplay":"Brewpub","countryIsoCode":"US","yearOpened":"1994","status":"verified","statusDisplay":"Verified","createDate":"2012-01-03 02:41:57","updateDate":"2014-07-23 19:11:34","country":{"isoCode":"US","name":"UNITED STATES","displayName":"United States","isoThree":"USA","numberCode":840,"createDate":"2012-01-03 02:41:33"}},{"id":"luBXP7","name":"Wausau","streetAddress":"2201 Sherman Street","locality":"Wausau","region":"Wisconsin","postalCode":"54401","phone":"1-715-849-3700","latitude":44.9518397,"longitude":-89.6621525,"isPrimary":"N","inPlanning":"N","isClosed":"Y","openToPublic":"N","locationType":"micro","locationTypeDisplay":"Micro Brewery","countryIsoCode":"US","yearOpened":"1994","yearClosed":"2008","status":"verified","statusDisplay":"Verified","createDate":"2012-01-03 02:42:15","updateDate":"2014-11-14 19:13:12","country":{"isoCode":"US","name":"UNITED STATES","displayName":"United States","isoThree":"USA","numberCode":840,"createDate":"2012-01-03 02:41:33"}},{"id":"m4vERw","name":"Main Brewery","streetAddress":"12 Old Charlotte Highway","extendedAddress":"Suite H","locality":"Asheville","region":"North Carolina","postalCode":"28803","phone":"828-299-3370","website":"http://www.highlandbrewing.com/","hoursOfOperation":"Monday - Friday 4-8pm, Saturday 2-8pm. Tours are daily at 4pm and 4:45. Additional tours at 2:45 and 3:30 on Saturday.","latitude":35.571062,"longitude":-82.4981899,"isPrimary":"Y","inPlanning":"N","isClosed":"N","openToPublic":"Y","locationType":"micro","locationTypeDisplay":"Micro Brewery","countryIsoCode":"US","yearOpened":"1994","status":"verified","statusDisplay":"Verified","createDate":"2012-01-03 02:41:57","updateDate":"2014-07-23 19:11:34","country":{"isoCode":"US","name":"UNITED STATES","displayName":"United States","isoThree":"USA","numberCode":840,"createDate":"2012-01-03 02:41:33"}},{"id":"77YOgn","name":"Main Brewery","streetAddress":"6300 Folsom Boulevard","locality":"Sacramento","region":"California","postalCode":"95819","phone":"916-451-4677","website":"http://www.hoppy.com/","latitude":38.5547558,"longitude":-121.4297029,"isPrimary":"Y","inPlanning":"N","isClosed":"N","openToPublic":"Y","locationType":"brewpub","locationTypeDisplay":"Brewpub","countryIsoCode":"US","yearOpened":"1999","status":"verified","statusDisplay":"Verified","createDate":"2012-01-03 02:41:58","updateDate":"2014-09-11 10:33:33","country":{"isoCode":"US","name":"UNITED STATES","displayName":"United States","isoThree":"USA","numberCode":840,"createDate":"2012-01-03 02:41:33"}},{"id":"lNGPyt","name":"Main Brewery","streetAddress":"In den Erlen 29","locality":"Kreuztal","postalCode":"57223","latitude":51.005371,"longitude":7.989901,"isPrimary":"Y","inPlanning":"N","isClosed":"N","openToPublic":"Y","locationType":"micro","locationTypeDisplay":"Micro Brewery","countryIsoCode":"DE","status":"verified","statusDisplay":"Verified","createDate":"2012-08-16 13:26:06","updateDate":"2014-07-23 19:11:34","country":{"isoCode":"DE","name":"GERMANY","displayName":"Germany","isoThree":"DEU","numberCode":276,"createDate":"2012-01-03 02:41:33"}},{"id":"WQyasy","name":"Main Brewery","streetAddress":"106 Main St","extendedAddress":"Suite C","locality":"Littleton","region":"New Hampshire","postalCode":"03561","phone":"603-444-6995","website":"http://www.italianoasis.com/","latitude":44.3069526,"longitude":-71.7739634,"isPrimary":"Y","inPlanning":"N","isClosed":"N","openToPublic":"Y","locationType":"brewpub","locationTypeDisplay":"Brewpub","countryIsoCode":"US","status":"verified","statusDisplay":"Verified","createDate":"2012-01-03 02:41:58","updateDate":"2014-07-23 19:11:34","country":{"isoCode":"US","name":"UNITED STATES","displayName":"United States","isoThree":"USA","numberCode":840,"createDate":"2012-01-03 02:41:33"}},{"id":"WF34ng","name":"Main Brewery","streetAddress":"2711 West Superior Street","locality":"Duluth","region":"Minnesota","postalCode":"55806","phone":"(218) 723-4000","website":"http://www.lakesuperiorbrewing.com/index.html","hoursOfOperation":"Growler sales, M-F, 8am-4pm","latitude":46.760892,"longitude":-92.1321893,"isPrimary":"Y","inPlanning":"N","isClosed":"N","openToPublic":"Y","locationType":"micro","locationTypeDisplay":"Micro Brewery","countryIsoCode":"US","yearOpened":"1994","status":"verified","statusDisplay":"Verified","createDate":"2012-01-03 02:42:00","updateDate":"2014-07-23 19:11:34","country":{"isoCode":"US","name":"UNITED STATES","displayName":"United States","isoThree":"USA","numberCode":840,"createDate":"2012-01-03 02:41:33"}},{"id":"ujtlp3","name":"Main Brewery","streetAddress":"321 West 7th Street","locality":"Richmond","region":"Virginia","postalCode":"23224","phone":"804-232-3446","website":"http://www.legendbrewing.com/","hoursOfOperation":"Mon - Thu:\t11:30 am - 11:00 pm\r\nFri - Sat:\t11:30 am - 12:00 am\r\nSun:\t12:30 pm - 10:00 pm","latitude":37.526596,"longitude":-77.442841,"isPrimary":"Y","inPlanning":"N","isClosed":"N","openToPublic":"Y","locationType":"brewpub","locationTypeDisplay":"Brewpub","countryIsoCode":"US","yearOpened":"1994","status":"verified","statusDisplay":"Verified","createDate":"2012-01-03 02:42:00","updateDate":"2014-07-23 19:11:34","country":{"isoCode":"US","name":"UNITED STATES","displayName":"United States","isoThree":"USA","numberCode":840,"createDate":"2012-01-03 02:41:33"}},{"id":"Bp3teL","name":"Main Brewery","streetAddress":"5 Bartlett Bay Road","locality":"South Burlington","region":"Vermont","postalCode":"05403","phone":"1-802-658-2739","website":"http://www.magichat.net/","latitude":44.428405,"longitude":-73.213148,"isPrimary":"Y","inPlanning":"N","isClosed":"N","openToPublic":"Y","locationType":"micro","locationTypeDisplay":"Micro Brewery","countryIsoCode":"US","yearOpened":"1994","status":"verified","statusDisplay":"Verified","createDate":"2012-01-03 02:42:01","updateDate":"2014-09-26 11:56:30","country":{"isoCode":"US","name":"UNITED STATES","displayName":"United States","isoThree":"USA","numberCode":840,"createDate":"2012-01-03 02:41:33"}},{"id":"tdC68x","name":"Main Brewery","streetAddress":"102 Eden Street","locality":"Bar Harbor","region":"Maine","postalCode":"04609","phone":"207-288-4914","website":"http://bhmaine.com/","latitude":44.3999982,"longitude":-68.2311747,"isPrimary":"Y","inPlanning":"N","isClosed":"N","openToPublic":"N","locationType":"brewpub","locationTypeDisplay":"Brewpub","countryIsoCode":"US","status":"verified","statusDisplay":"Verified","createDate":"2012-01-03 02:42:15","updateDate":"2014-07-23 19:11:34","country":{"isoCode":"US","name":"UNITED STATES","displayName":"United States","isoThree":"USA","numberCode":840,"createDate":"2012-01-03 02:41:33"}},{"id":"x8H3l7","name":"Main Brewery","streetAddress":"Didierstraße 25","locality":"Lahnstein","region":"Rheinland-Pfalz","postalCode":"56112","latitude":50.31875,"longitude":7.60195,"isPrimary":"N","inPlanning":"N","isClosed":"N","openToPublic":"Y","locationType":"micro","locationTypeDisplay":"Micro Brewery","countryIsoCode":"DE","status":"verified","statusDisplay":"Verified","createDate":"2012-08-12 14:45:35","updateDate":"2014-07-23 19:11:34","country":{"isoCode":"DE","name":"GERMANY","displayName":"Germany","isoThree":"DEU","numberCode":276,"createDate":"2012-01-03 02:41:33"}},{"id":"J2owl8","name":"Main Brewery","streetAddress":"412 North Milwaukee Avenue","locality":"Libertyville","region":"Illinois","postalCode":"60048","phone":"847-362-6688","website":"http://www.mickeyfinnsbrewery.com/","hoursOfOperation":"Mon - Thu:\t11:30 am -11:00 pm\r\nFri - Sat:\t11:30 am - 1:00 am\r\nSun:\t11:30 am - 9:00 pm","latitude":42.286992,"longitude":-87.95417,"isPrimary":"Y","inPlanning":"N","isClosed":"N","openToPublic":"Y","locationType":"micro","locationTypeDisplay":"Micro Brewery","countryIsoCode":"US","yearOpened":"1994","status":"verified","statusDisplay":"Verified","createDate":"2012-01-03 02:42:02","updateDate":"2014-07-23 19:11:34","country":{"isoCode":"US","name":"UNITED STATES","displayName":"United States","isoThree":"USA","numberCode":840,"createDate":"2012-01-03 02:41:33"}},{"id":"FabPyc","name":"Main Brewery","streetAddress":"8111 Dimond Hook Drive","locality":"Anchorage","region":"Alaska","postalCode":"99507","phone":"907-344-1179","website":"http://www.midnightsunbrewing.com/","hoursOfOperation":"Mon - Sun: 11:00 am - 8:00 pm","latitude":61.147268,"longitude":-149.844339,"isPrimary":"Y","inPlanning":"N","isClosed":"N","openToPublic":"Y","locationType":"micro","locationTypeDisplay":"Micro Brewery","countryIsoCode":"US","yearOpened":"1994","status":"verified","statusDisplay":"Verified","createDate":"2012-01-03 02:42:02","updateDate":"2014-07-23 19:11:34","country":{"isoCode":"US","name":"UNITED STATES","displayName":"United States","isoThree":"USA","numberCode":840,"createDate":"2012-01-03 02:41:33"}},{"id":"3u7opD","name":"Main Brewery","streetAddress":"113 North Broadway","locality":"Billings","region":"Montana","postalCode":"59101","phone":"(406) 252-9200","website":"http://www.montanabrewingcompany.com/","hoursOfOperation":"Mon - Sun: 11:00 am - 2:00 am","latitude":45.7825445,"longitude":-108.5061681,"isPrimary":"Y","inPlanning":"N","isClosed":"N","openToPublic":"Y","locationType":"micro","locationTypeDisplay":"Micro Brewery","countryIsoCode":"US","yearOpened":"1994","status":"verified","statusDisplay":"Verified","createDate":"2012-01-03 02:42:02","updateDate":"2014-07-23 19:11:34","country":{"isoCode":"US","name":"UNITED STATES","displayName":"United States","isoThree":"USA","numberCode":840,"createDate":"2012-01-03 02:41:33"}},{"id":"2aIo1M","name":"Main Brewery","streetAddress":"470 West Canfield","locality":"Detroit","region":"Michigan","postalCode":"48201","phone":"313-832-2700","website":"http://motorcitybeer.com/","latitude":42.3516649,"longitude":-83.065841,"isPrimary":"Y","inPlanning":"N","isClosed":"N","openToPublic":"Y","locationType":"micro","locationTypeDisplay":"Micro Brewery","countryIsoCode":"US","yearOpened":"1994","status":"verified","statusDisplay":"Verified","createDate":"2012-01-03 02:42:02","updateDate":"2014-07-23 19:11:34","country":{"isoCode":"US","name":"UNITED STATES","displayName":"United States","isoThree":"USA","numberCode":840,"createDate":"2012-01-03 02:41:33"}},{"id":"oZVAo0","name":"Olde Hickory Taproom","streetAddress":"222 Union Square","locality":"Hickory","region":"North Carolina","postalCode":"28601","phone":"828.322.1965","website":"http://www.oldehickorytaproom.com/","hoursOfOperation":"7 Days a Week 11am - 2am","latitude":35.732019,"longitude":-81.340443,"isPrimary":"Y","inPlanning":"N","isClosed":"N","openToPublic":"Y","locationType":"restaurant","locationTypeDisplay":"Restaurant/Ale House","countryIsoCode":"US","yearOpened":"1994","status":"verified","statusDisplay":"Verified","createDate":"2012-01-03 02:42:04","updateDate":"2014-07-23 19:11:34","country":{"isoCode":"US","name":"UNITED STATES","displayName":"United States","isoThree":"USA","numberCode":840,"createDate":"2012-01-03 02:41:33"}},{"id":"U7qNrU","name":"Amos Howards Brew Pub","streetAddress":"2828 US Hwy 70 SW","locality":"Hickory","region":"North Carolina","postalCode":"28602","phone":"828.323.8753","hoursOfOperation":"Mon.-Thurs. 11am-11pm\r\nFri. & Sat. 11am-12midnight\r\nSun. 12pm-10pm","latitude":35.72121,"longitude":-81.387083,"isPrimary":"N","inPlanning":"N","isClosed":"N","openToPublic":"Y","locationType":"restaurant","locationTypeDisplay":"Restaurant/Ale House","countryIsoCode":"US","yearOpened":"1994","status":"verified","statusDisplay":"Verified","createDate":"2012-01-10 04:20:02","updateDate":"2014-07-23 19:11:34","country":{"isoCode":"US","name":"UNITED STATES","displayName":"United States","isoThree":"USA","numberCode":840,"createDate":"2012-01-03 02:41:33"}},{"id":"tYf3W8","name":"Production Facility","streetAddress":"2 3rd Street Southwest","locality":"Hickory","region":"North Carolina","postalCode":"28602","phone":"(828) 322-1422","latitude":35.731722,"longitude":-81.341977,"isPrimary":"N","inPlanning":"N","isClosed":"N","openToPublic":"N","locationType":"production","locationTypeDisplay":"Production Facility","countryIsoCode":"US","yearOpened":"1994","status":"verified","statusDisplay":"Verified","createDate":"2012-04-26 01:01:42","updateDate":"2014-07-23 19:11:34","country":{"isoCode":"US","name":"UNITED STATES","displayName":"United States","isoThree":"USA","numberCode":840,"createDate":"2012-01-03 02:41:33"}},{"id":"WHuVdK","name":"Main Brewery","streetAddress":"130 W Gurley St","locality":"Prescott","region":"Arizona","postalCode":"86301","phone":"(928) 771-2795","website":"http://prescottbrewingcompany.com/","latitude":34.5420177,"longitude":-112.469666,"isPrimary":"Y","inPlanning":"N","isClosed":"N","openToPublic":"Y","locationType":"micro","locationTypeDisplay":"Micro Brewery","countryIsoCode":"US","status":"verified","statusDisplay":"Verified","createDate":"2012-01-03 02:42:06","updateDate":"2014-07-23 19:11:34","country":{"isoCode":"US","name":"UNITED STATES","displayName":"United States","isoThree":"USA","numberCode":840,"createDate":"2012-01-03 02:41:33"}},{"id":"4jPMHm","name":"Red Rock Brewing","streetAddress":"254 South 200 West","locality":"Salt Lake City","region":"Utah","postalCode":"84105","phone":"(801) 521-7446","website":"http://redrockbrewing.com","latitude":40.763648,"longitude":-111.89724,"isPrimary":"Y","inPlanning":"N","isClosed":"N","openToPublic":"Y","locationType":"brewpub","locationTypeDisplay":"Brewpub","countryIsoCode":"US","status":"verified","statusDisplay":"Verified","createDate":"2014-07-25 14:52:49","updateDate":"2014-07-25 14:52:49","country":{"isoCode":"US","name":"UNITED STATES","displayName":"United States","isoThree":"USA","numberCode":840,"createDate":"2012-01-03 02:41:33"}},{"id":"RpBxai","name":"Main Brewery","streetAddress":"401 Main St","locality":"Grand Junction","region":"Colorado","postalCode":"81501","phone":"970-241-9311","website":"http://rockslidebrewpub.com/","hoursOfOperation":"Mon - Tue: 11:00 am - 12:00 am\r\nWed - Sat: 11:00 am - 2:00 am\r\nSun: 9:00 am - 12:00 am","latitude":39.067003,"longitude":-108.565948,"isPrimary":"Y","inPlanning":"N","isClosed":"N","openToPublic":"Y","locationType":"brewpub","locationTypeDisplay":"Brewpub","countryIsoCode":"US","status":"verified","statusDisplay":"Verified","createDate":"2012-01-03 02:42:07","updateDate":"2014-07-23 19:11:34","country":{"isoCode":"US","name":"UNITED STATES","displayName":"United States","isoThree":"USA","numberCode":840,"createDate":"2012-01-03 02:41:33"}},{"id":"6HJHio","name":"Layton","streetAddress":"748 Heritage Park Blvd","locality":"Layton","region":"Utah","postalCode":"84041","phone":"(801) 627-6171","website":"http://roostersbrewingco.com/","latitude":41.083443,"longitude":-111.978976,"isPrimary":"Y","inPlanning":"N","isClosed":"N","openToPublic":"Y","locationType":"brewpub","locationTypeDisplay":"Brewpub","countryIsoCode":"US","yearOpened":"1994","status":"verified","statusDisplay":"Verified","createDate":"2012-01-03 02:42:07","updateDate":"2014-07-23 19:11:34","country":{"isoCode":"US","name":"UNITED STATES","displayName":"United States","isoThree":"USA","numberCode":840,"createDate":"2012-01-03 02:41:33"}},{"id":"7ma1rF","name":"Ogden","streetAddress":"253 Historic 25th Street","locality":"Ogden","region":"Utah","postalCode":"84401","phone":"801.627.6171","website":"http://roostersbrewingco.com/","latitude":41.220424,"longitude":-111.9558404,"isPrimary":"N","inPlanning":"N","isClosed":"N","openToPublic":"Y","locationType":"micro","locationTypeDisplay":"Micro Brewery","countryIsoCode":"US","status":"verified","statusDisplay":"Verified","createDate":"2013-05-03 00:26:03","updateDate":"2014-07-23 19:11:34","country":{"isoCode":"US","name":"UNITED STATES","displayName":"United States","isoThree":"USA","numberCode":840,"createDate":"2012-01-03 02:41:33"}},{"id":"jPbb33","name":"Main Brewery","streetAddress":"2000 Lyons Avenue","locality":"Houston","region":"Texas","postalCode":"77020","phone":"713-686-9494","website":"http://www.saintarnold.com/","latitude":29.7715192,"longitude":-95.3484972,"isPrimary":"Y","inPlanning":"N","isClosed":"N","openToPublic":"Y","locationType":"micro","locationTypeDisplay":"Micro Brewery","countryIsoCode":"US","yearOpened":"1994","status":"verified","statusDisplay":"Verified","createDate":"2012-01-03 02:42:07","updateDate":"2014-07-23 19:11:34","country":{"isoCode":"US","name":"UNITED STATES","displayName":"United States","isoThree":"USA","numberCode":840,"createDate":"2012-01-03 02:41:33"}},{"id":"3dfG76","name":"Main Brewery","streetAddress":"108 West Evergreen Boulevard","locality":"Vancouver","region":"Washington","postalCode":"98660","phone":"360-993-1827","website":"http://salmoncreekbrewpub.com/","hoursOfOperation":"Tuesday – Saturday: 3pm to 10pm","latitude":45.628786,"longitude":-122.6718,"isPrimary":"Y","inPlanning":"N","isClosed":"N","openToPublic":"Y","locationType":"brewpub","locationTypeDisplay":"Brewpub","countryIsoCode":"US","status":"verified","statusDisplay":"Verified","createDate":"2012-01-03 02:42:07","updateDate":"2014-07-23 19:11:34","country":{"isoCode":"US","name":"UNITED STATES","displayName":"United States","isoThree":"USA","numberCode":840,"createDate":"2012-01-03 02:41:33"}},{"id":"8j1nFE","name":"Main Brewery","streetAddress":"5 Airport Road","locality":"West Lebanon","region":"New Hampshire","postalCode":"03784","phone":"603-298-5566","website":"http://www.7barrel.com/","hoursOfOperation":"Mon - Sun: 11:00 am - 1:00 am","latitude":43.6296341,"longitude":-72.3200515,"isPrimary":"Y","inPlanning":"N","isClosed":"N","openToPublic":"Y","locationType":"micro","locationTypeDisplay":"Micro Brewery","countryIsoCode":"US","status":"verified","statusDisplay":"Verified","createDate":"2012-01-03 02:42:08","updateDate":"2014-07-23 19:11:34","country":{"isoCode":"US","name":"UNITED STATES","displayName":"United States","isoThree":"USA","numberCode":840,"createDate":"2012-01-03 02:41:33"}},{"id":"8WcUPE","name":"Main Brewery","streetAddress":"Pityme Business Centre","region":"Wadebridge","postalCode":"PL27 6NU","phone":"+44 1208 862121","website":"http://www.sharpsbrewery.co.uk/","latitude":50.5521065,"longitude":-4.8913929,"isPrimary":"Y","inPlanning":"N","isClosed":"N","openToPublic":"Y","locationType":"micro","locationTypeDisplay":"Micro Brewery","countryIsoCode":"GB","yearOpened":"1994","status":"verified","statusDisplay":"Verified","createDate":"2013-08-17 14:35:12","updateDate":"2014-07-23 19:11:34","country":{"isoCode":"GB","name":"UNITED KINGDOM","displayName":"United Kingdom","isoThree":"GBR","numberCode":826,"createDate":"2012-01-03 02:41:33"}},{"id":"V5TyHw","name":"Main Brewery","streetAddress":"86 Newbury Street","locality":"Portland","region":"Maine","postalCode":"04101","phone":"1-800-789-0684","website":"http://www.shipyard.com/","latitude":43.6618784,"longitude":-70.2489402,"isPrimary":"Y","inPlanning":"N","isClosed":"N","openToPublic":"Y","locationType":"micro","locationTypeDisplay":"Micro Brewery","countryIsoCode":"US","yearOpened":"1994","status":"verified","statusDisplay":"Verified","createDate":"2012-01-03 02:42:08","updateDate":"2014-09-26 13:52:19","country":{"isoCode":"US","name":"UNITED STATES","displayName":"United States","isoThree":"USA","numberCode":840,"createDate":"2012-01-03 02:41:33"}},{"id":"1JLE39","name":"Main Brewery","streetAddress":"225 Heritage Ave","locality":"Portsmouth","region":"New Hampshire","postalCode":"03801","phone":"603-436-4026","website":"http://www.smuttynose.com/","latitude":43.0323999,"longitude":-70.7956193,"isPrimary":"N","inPlanning":"N","isClosed":"N","openToPublic":"Y","locationType":"micro","locationTypeDisplay":"Micro Brewery","countryIsoCode":"US","yearOpened":"1994","status":"verified","statusDisplay":"Verified","createDate":"2012-01-03 02:42:08","updateDate":"2014-09-26 13:53:49","country":{"isoCode":"US","name":"UNITED STATES","displayName":"United States","isoThree":"USA","numberCode":840,"createDate":"2012-01-03 02:41:33"}},{"id":"Vp2e5D","name":"Smuttynose Brewing Co.","streetAddress":"105 Towle Farm Road","locality":"Hampton","region":"New Hampshire","postalCode":"03801","phone":"603-436-4026","website":"http://www.smuttynose.com","hoursOfOperation":"To Be Determined","latitude":42.9456995,"longitude":-70.8501917,"isPrimary":"Y","inPlanning":"N","isClosed":"N","openToPublic":"Y","locationType":"micro","locationTypeDisplay":"Micro Brewery","countryIsoCode":"US","status":"verified","statusDisplay":"Verified","createDate":"2014-01-02 16:32:27","updateDate":"2014-07-23 19:11:34","country":{"isoCode":"US","name":"UNITED STATES","displayName":"United States","isoThree":"USA","numberCode":840,"createDate":"2012-01-03 02:41:33"}},{"id":"dd42Ca","name":"Main Brewery","streetAddress":"265 South Millward Street","locality":"Jackson Hole","region":"Wyoming","postalCode":"83001","phone":"307-739-2337","website":"http://snakeriverbrewing.com/","hoursOfOperation":"Mon - Thurs: 11:30 am - 1:00 am\r\nFri - Sat: 11:30 am - 1:30 am\r\nSun: 11:30 am - 1:00 am","latitude":43.4768201,"longitude":-110.7650637,"isPrimary":"Y","inPlanning":"N","isClosed":"N","openToPublic":"Y","locationType":"micro","locationTypeDisplay":"Micro Brewery","countryIsoCode":"US","yearOpened":"1994","status":"verified","statusDisplay":"Verified","createDate":"2012-01-03 02:42:08","updateDate":"2014-07-23 19:11:34","country":{"isoCode":"US","name":"UNITED STATES","displayName":"United States","isoThree":"USA","numberCode":840,"createDate":"2012-01-03 02:41:33"}},{"id":"y8m51D","name":"Main Brewery","streetAddress":"Taybeh, Ramallah","locality":"West Bank","region":"Palestine","latitude":31.899205,"longitude":35.203356,"isPrimary":"Y","inPlanning":"N","isClosed":"N","openToPublic":"N","locationType":"micro","locationTypeDisplay":"Micro Brewery","countryIsoCode":"IL","status":"verified","statusDisplay":"Verified","createDate":"2012-07-30 21:53:08","updateDate":"2014-07-23 19:11:34","country":{"isoCode":"IL","name":"ISRAEL","displayName":"Israel","isoThree":"ISR","numberCode":376,"createDate":"2012-01-03 02:41:33"}},{"id":"bUBjTD","name":"Main Brewery","streetAddress":"The Durham Brewery Ltd","extendedAddress":"Unit 6a","locality":"Bowburn North Industrial Estate","region":"Durham","postalCode":"DH6 5PF","phone":"0191 3771991","website":"http://www.durhambrewery.co.uk/","hoursOfOperation":"Saturdays 10.00am - 4.00pm\r\nWeekdays 9.00am - 4.00pm\r\nOpen on Bank Holidays","latitude":54.7377195,"longitude":-1.5329159,"isPrimary":"Y","inPlanning":"N","isClosed":"N","openToPublic":"Y","locationType":"micro","locationTypeDisplay":"Micro Brewery","countryIsoCode":"GB","status":"verified","statusDisplay":"Verified","createDate":"2013-08-05 19:56:31","updateDate":"2014-07-23 19:11:34","country":{"isoCode":"GB","name":"UNITED KINGDOM","displayName":"United Kingdom","isoThree":"GBR","numberCode":826,"createDate":"2012-01-03 02:41:33"}},{"id":"weh9vF","name":"Main Brewery","streetAddress":"1401 Miner Street","locality":"Idaho Springs","region":"Colorado","postalCode":"80452","phone":"303-567-4419","website":"http://www.tommyknocker.com/","hoursOfOperation":"Mon-Sat 11:00am- 2:00am\r\nSun 11:00am-12:00am","latitude":39.7417648,"longitude":-105.5177703,"isPrimary":"Y","inPlanning":"N","isClosed":"N","openToPublic":"Y","locationType":"brewpub","locationTypeDisplay":"Brewpub","countryIsoCode":"US","yearOpened":"1994","status":"verified","statusDisplay":"Verified","createDate":"2012-01-03 02:42:10","updateDate":"2014-07-23 19:11:34","country":{"isoCode":"US","name":"UNITED STATES","displayName":"United States","isoThree":"USA","numberCode":840,"createDate":"2012-01-03 02:41:33"}},{"id":"FYvoBR","name":"Main Brewery","streetAddress":"186 Fountain St.","locality":"Providence","region":"Rhode Island","postalCode":"02903","phone":"401-453-2337","website":"http://trinitybrewhouse.com/","hoursOfOperation":"Monday - Thursday : 11:30AM-1:00AM\r\nFriday 11:30AM-2:00AM\r\nSaturday Noon-2:00AM\r\nSunday Noon to 1:00 AM","latitude":41.8224129,"longitude":-71.4168362,"isPrimary":"Y","inPlanning":"N","isClosed":"N","openToPublic":"Y","locationType":"brewpub","locationTypeDisplay":"Brewpub","countryIsoCode":"US","status":"verified","statusDisplay":"Verified","createDate":"2012-01-03 02:42:10","updateDate":"2014-09-26 13:57:19","country":{"isoCode":"US","name":"UNITED STATES","displayName":"United States","isoThree":"USA","numberCode":840,"createDate":"2012-01-03 02:41:33"}},{"id":"a6JSnF","name":"Main Brewery","streetAddress":"234 W Dallas St","locality":"Dallas","region":"Wisconsin","postalCode":"54733","phone":"715-837-1824","website":"http://www.valkyriebrewery.com/","hoursOfOperation":"Tours: Saturdays at 1PM","latitude":45.259106,"longitude":-91.817345,"isPrimary":"Y","inPlanning":"N","isClosed":"N","openToPublic":"Y","locationType":"micro","locationTypeDisplay":"Micro Brewery","countryIsoCode":"US","status":"verified","statusDisplay":"Verified","createDate":"2012-01-03 02:42:12","updateDate":"2014-07-23 19:11:34","country":{"isoCode":"US","name":"UNITED STATES","displayName":"United States","isoThree":"USA","numberCode":840,"createDate":"2012-01-03 02:41:33"}},{"id":"NbGMT2","name":"Main Brewery","streetAddress":"175 State Road East","locality":"Westminster","region":"Massachusetts","postalCode":"01473","phone":"978-874-9965","website":"http://www.wachusettbrew.com/","latitude":42.558624,"longitude":-71.8715256,"isPrimary":"Y","inPlanning":"N","isClosed":"N","openToPublic":"Y","locationType":"micro","locationTypeDisplay":"Micro Brewery","countryIsoCode":"US","yearOpened":"1994","status":"verified","statusDisplay":"Verified","createDate":"2012-01-03 02:42:12","updateDate":"2014-09-26 14:00:00","country":{"isoCode":"US","name":"UNITED STATES","displayName":"United States","isoThree":"USA","numberCode":840,"createDate":"2012-01-03 02:41:33"}},{"id":"rLjUue","name":"Main Brewery","streetAddress":"Rhodaer Chaussee 12","locality":"Erfurt","region":"Thüringen","postalCode":"99094","latitude":50.926167,"longitude":10.993356,"isPrimary":"N","inPlanning":"N","isClosed":"N","openToPublic":"Y","locationType":"micro","locationTypeDisplay":"Micro Brewery","countryIsoCode":"DE","status":"verified","statusDisplay":"Verified","createDate":"2012-08-12 14:47:01","updateDate":"2014-07-23 19:11:34","country":{"isoCode":"DE","name":"GERMANY","displayName":"Germany","isoThree":"DEU","numberCode":276,"createDate":"2012-01-03 02:41:33"}},{"id":"GgLW9I","name":"Main Brewpub","streetAddress":"40 Marcus Clarke st","locality":"Canberra","region":"Australian Capital Territory","postalCode":"2601","website":"https://www.facebook.com/wigandpen.canberra/","hoursOfOperation":"Mon - Tue: 11:30 am - 10:00 pm\r\nWed - Thu: 11:30 am - 11:00 pm\r\nFri: 11:30 am - 12:00 am\r\nSat: 2:00 pm - 12:00 am\r\nSun: 2:00 pm - 8:00 pm","latitude":-35.2783921,"longitude":149.1264256,"isPrimary":"Y","inPlanning":"N","isClosed":"N","openToPublic":"Y","locationType":"brewpub","locationTypeDisplay":"Brewpub","countryIsoCode":"AU","yearOpened":"1994","status":"verified","statusDisplay":"Verified","createDate":"2014-01-22 02:15:24","updateDate":"2014-07-23 19:11:34","country":{"isoCode":"AU","name":"AUSTRALIA","displayName":"Australia","isoThree":"AUS","numberCode":36,"createDate":"2012-01-03 02:41:33"}},{"id":"jST1sh","name":"Main Brewery","streetAddress":"111 Bryan Road","locality":"Wilmington","region":"North Carolina","postalCode":"28412","latitude":34.170868,"longitude":-77.946875,"isPrimary":"Y","inPlanning":"N","isClosed":"Y","openToPublic":"N","locationType":"micro","locationTypeDisplay":"Micro Brewery","countryIsoCode":"US","yearOpened":"1994","yearClosed":"1997","status":"verified","statusDisplay":"Verified","createDate":"2012-01-03 02:42:13","updateDate":"2014-07-23 19:11:34","country":{"isoCode":"US","name":"UNITED STATES","displayName":"United States","isoThree":"USA","numberCode":840,"createDate":"2012-01-03 02:41:33"}},{"id":"yuU9MN","name":"Main Brewery","streetAddress":"1111 Mainland Street","locality":"Vancouver","region":"British Columbia","postalCode":"V6B 2T9","phone":"604-688-0039","website":"http://www.markjamesgroup.com/yaletown.html","hoursOfOperation":"Sun - 11:30am - Midnight\r\nMon - 11:30am - Midnight\r\nTues - 11:30am - Midnight\r\nWed - 11:30am - Midnight\r\nThur - 11:30am - 1am\r\nFri - 11:30am - 3am\r\nSat - 11:30am - 3am","latitude":49.2754449,"longitude":-123.1207075,"isPrimary":"Y","inPlanning":"N","isClosed":"N","openToPublic":"Y","locationType":"brewpub","locationTypeDisplay":"Brewpub","countryIsoCode":"CA","yearOpened":"1994","status":"verified","statusDisplay":"Verified","createDate":"2012-01-03 02:42:13","updateDate":"2014-07-23 19:11:34","country":{"isoCode":"CA","name":"CANADA","displayName":"Canada","isoThree":"CAN","numberCode":124,"createDate":"2012-01-03 02:41:33"}},{"id":"DXvlfF","name":"Main Brewery","streetAddress":"901 N. Delaware Avenue","locality":"Philadelphia","region":"Pennsylvania","postalCode":"19123","phone":"215-634-2600","website":"http://www.yardsbrewing.com/","hoursOfOperation":"Mon: 12:00 pm - 7:00 pm\r\nTues - Wed: 12:00 am - 7:00 pm\r\nThurs - Sat: 12:00 pm - 7:00 pm\r\nSun: 12:00 pm - 4:00 pm","latitude":39.962616,"longitude":-75.136253,"isPrimary":"Y","inPlanning":"N","isClosed":"N","openToPublic":"Y","locationType":"micro","locationTypeDisplay":"Micro Brewery","countryIsoCode":"US","yearOpened":"1994","status":"verified","statusDisplay":"Verified","createDate":"2012-01-03 02:42:13","updateDate":"2014-07-23 19:11:34","country":{"isoCode":"US","name":"UNITED STATES","displayName":"United States","isoThree":"USA","numberCode":840,"createDate":"2012-01-03 02:41:33"}}]