[{"id":"9rP4iV","name":"Main Brewery","streetAddress":"1115 16th St","locality":"Miami Beach","region":"Florida","postalCode":"33139","phone":"305-538-8110","website":"http://abbeybrewinginc.com/","hoursOfOperation":"Mon:  1:00pm - 5:00am\nTue:  1:00pm - 5:00am\nWed:  1:00pm - 5:00am\nThu:  1:00pm - 5:00am\nFri:  1:00pm - 5:00am\nSat:  1:00pm - 5:00am\nSun:  1:00pm - 5:00am\n\n","latitude":25.7890852,"longitude":-80.1403462,"isPrimary":"Y","inPlanning":"N","isClosed":"N","openToPublic":"Y","locationType":"micro","locationTypeDisplay":"Micro Brewery","countryIsoCode":"US","yearOpened":"1995","status":"verified","statusDisplay":"Verified","createDate":"2012-01-03 02:41:43","updateDate":"2014-07-23 19:38:47","country":{"isoCode":"US","name":"UNITED STATES","displayName":"United States","isoThree":"USA","numberCode":840,"createDate":"2012-01-03 02:41:33"}},{"id":"qRuupG","name":"Main Location","streetAddress":"9368 Cabot Dr","locality":"San Diego","region":"California","postalCode":"92126-4311","phone":"858-549-9888","website":"http://alesmith.com/","hoursOfOperation":"Thu:  2:00pm - 7:00pm\r\nFri:  2:00pm - 7:00pm\r\nSat:  12:00pm - 6:00pm\r\nSun:  12:00pm - 4:00pm\r\n\r\nThu:  2:00pm - 7:00pm\r\nFri:  2:00pm - 7:00pm\r\nSat:  12:00pm - 6:00pm\r\nSun:  12:00pm - 4:00pm\r\n\r\nTasting Room Hours\r\nThursday & Friday: 2-7pm\r\nSaturday: 12-6pm\r\nSunday: 12-4pm","latitude":32.8924532,"longitude":-117.1447157,"isPrimary":"Y","inPlanning":"N","isClosed":"N","openToPublic":"Y","locationType":"micro","locationTypeDisplay":"Micro Brewery","countryIsoCode":"US","yearOpened":"1995","status":"verified","statusDisplay":"Verified","createDate":"2012-01-03 02:41:44","updateDate":"2014-11-18 19:59:31","country":{"isoCode":"US","name":"UNITED STATES","displayName":"United States","isoThree":"USA","numberCode":840,"createDate":"2012-01-03 02:41:33"}},{"id":"hP5LHZ","name":"Main Brewery","streetAddress":"50 Industrial Way","locality":"Portland","region":"Maine","postalCode":"04103","phone":"800-330-5385","website":"http://www.allagash.com/","hoursOfOperation":"Mon:  9:30am - 5:30pm\nTue:  9:30am - 5:30pm\nWed:  9:30am - 5:30pm\nThu:  9:30am - 5:30pm\nFri:  9:30am - 5:30pm\n\nMon - Fri: 9:30 am - 5:30 pm","latitude":43.703215,"longitude":-70.317677,"isPrimary":"Y","inPlanning":"N","isClosed":"N","openToPublic":"Y","locationType":"micro","locationTypeDisplay":"Micro Brewery","countryIsoCode":"US","yearOpened":"1995","status":"verified","statusDisplay":"Verified","createDate":"2012-01-03 02:41:44","updateDate":"2014-08-25 19:12:32","country":{"isoCode":"US","name":"UNITED STATES","displayName":"United States","isoThree":"USA","numberCode":840,"createDate":"2012-01-03 02:41:33"}},{"id":"iDeqSN","name":"Main Brewery","streetAddress":"322 West Johnson Street","locality":"Madison","region":"Wisconsin","postalCode":"53703","phone":"608-257-2707","latitude":43.0740322,"longitude":-89.39127,"isPrimary":"Y","inPlanning":"N","isClosed":"Y","openToPublic":"Y","locationType":"micro","locationTypeDisplay":"Micro Brewery","countryIsoCode":"US","yearOpened":"1995","status":"verified","statusDisplay":"Verified","createDate":"2012-01-03 02:41:44","updateDate":"2014-07-23 19:11:34","country":{"isoCode":"US","name":"UNITED STATES","displayName":"United States","isoThree":"USA","numberCode":840,"createDate":"2012-01-03 02:41:33"}},{"id":"tOsvyj","name":"Main Brewery","streetAddress":"114 East Washington","locality":"Ann Arbor","region":"Michigan","postalCode":"48104","phone":"734-213-1393","website":"http://www.arborbrewing.com/","latitude":42.2804754,"longitude":-83.7483644,"isPrimary":"Y","inPlanning":"N","isClosed":"N","openToPublic":"Y","locationType":"brewpub","locationTypeDisplay":"Brewpub","countryIsoCode":"US","yearOpened":"1995","status":"verified","statusDisplay":"Verified","createDate":"2012-01-03 02:41:44","updateDate":"2014-07-23 19:11:34","country":{"isoCode":"US","name":"UNITED STATES","displayName":"United States","isoThree":"USA","numberCode":840,"createDate":"2012-01-03 02:41:33"}},{"id":"JDYdnx","name":"North Asheville","streetAddress":"675 Merrimon Avenue","locality":"Asheville","region":"North Carolina","postalCode":"28804","phone":"828-254-1281","website":"http://www.ashevillebrewing.com/","hoursOfOperation":"Open 7 Days a week 11am until Midnight","latitude":35.6221051,"longitude":-82.5537092,"isPrimary":"Y","inPlanning":"N","isClosed":"N","openToPublic":"Y","locationType":"brewpub","locationTypeDisplay":"Brewpub","countryIsoCode":"US","yearOpened":"1995","status":"verified","statusDisplay":"Verified","createDate":"2012-01-03 02:41:44","updateDate":"2014-09-29 20:33:32","country":{"isoCode":"US","name":"UNITED STATES","displayName":"United States","isoThree":"USA","numberCode":840,"createDate":"2012-01-03 02:41:33"}},{"id":"IwcIL8","name":"Downtown Asheville","streetAddress":"77 Coxe Avenue","locality":"Asheville","region":"North Carolina","postalCode":"28804","phone":"828-255-4077","website":"http://ashevillebrewing.com/","hoursOfOperation":"Monday - Thursday 11am until Midnight\r\nFriday 11am until 2am\r\nSaturday Noon until 2am, Sunday Noon until Midnight","latitude":35.5917433,"longitude":-82.5553572,"isPrimary":"N","inPlanning":"N","isClosed":"N","openToPublic":"Y","locationType":"brewpub","locationTypeDisplay":"Brewpub","countryIsoCode":"US","yearOpened":"1995","status":"verified","statusDisplay":"Verified","createDate":"2012-01-03 19:29:20","updateDate":"2014-09-29 20:33:32","country":{"isoCode":"US","name":"UNITED STATES","displayName":"United States","isoThree":"USA","numberCode":840,"createDate":"2012-01-03 02:41:33"}},{"id":"K288yl","name":"Main Brewery","streetAddress":"Box 310","locality":"Rose City","region":"Michigan","postalCode":"48654","latitude":44.46396,"longitude":-84.147624,"isPrimary":"Y","inPlanning":"N","isClosed":"Y","openToPublic":"Y","locationType":"micro","locationTypeDisplay":"Micro Brewery","countryIsoCode":"US","yearOpened":"1995","status":"verified","statusDisplay":"Verified","createDate":"2012-01-03 02:41:45","updateDate":"2014-07-23 19:11:34","country":{"isoCode":"US","name":"UNITED STATES","displayName":"United States","isoThree":"USA","numberCode":840,"createDate":"2012-01-03 02:41:33"}},{"id":"lzCMme","name":"Main Brewery","streetAddress":"One Camelback Road","locality":"Tannersville","region":"Pennsylvania","postalCode":"18372","phone":"570-629-9399","website":"http://www.barleycreek.com/","latitude":41.0545259,"longitude":-75.358402,"isPrimary":"Y","inPlanning":"N","isClosed":"N","openToPublic":"Y","locationType":"brewpub","locationTypeDisplay":"Brewpub","countryIsoCode":"US","yearOpened":"1995","status":"verified","statusDisplay":"Verified","createDate":"2012-01-03 02:41:45","updateDate":"2014-07-23 19:11:34","country":{"isoCode":"US","name":"UNITED STATES","displayName":"United States","isoThree":"USA","numberCode":840,"createDate":"2012-01-03 02:41:33"}},{"id":"iWyq08","name":"Main Brewery","streetAddress":"544B W. Liberty St.","locality":"Cincinnati","region":"Ohio","postalCode":"45214","phone":"513-421-2337","latitude":39.1135967,"longitude":-84.526017,"isPrimary":"Y","inPlanning":"N","isClosed":"Y","openToPublic":"Y","locationType":"micro","locationTypeDisplay":"Micro Brewery","countryIsoCode":"US","status":"verified","statusDisplay":"Verified","createDate":"2012-01-03 02:41:45","updateDate":"2014-07-23 19:11:34","country":{"isoCode":"US","name":"UNITED STATES","displayName":"United States","isoThree":"USA","numberCode":840,"createDate":"2012-01-03 02:41:33"}},{"id":"xAQSJ0","name":"Main Brewery","streetAddress":"420 Stockbridge Road","locality":"Great Barrington","region":"Massachusetts","postalCode":"01203","phone":"413-528-8282","website":"http://barringtonbrewery.net/","hoursOfOperation":"Mon - Thurs:\t11:30 am - 9:30 pm\r\nFri:\t11:30 pm - 10:00 pm\r\nSat:\t11:30 am - 10:00 pm\r\nSun: 11:30 am - 9:00 pm","latitude":42.2134704,"longitude":-73.3443739,"isPrimary":"Y","inPlanning":"N","isClosed":"N","openToPublic":"Y","locationType":"brewpub","locationTypeDisplay":"Brewpub","countryIsoCode":"US","yearOpened":"1995","status":"verified","statusDisplay":"Verified","createDate":"2012-01-03 02:41:45","updateDate":"2014-07-23 19:11:34","country":{"isoCode":"US","name":"UNITED STATES","displayName":"United States","isoThree":"USA","numberCode":840,"createDate":"2012-01-03 02:41:33"}},{"id":"kfNLyn","name":"Main Brewery","streetAddress":"4187 Plank Rd","locality":"Fredericksburg","region":"Virginia","postalCode":"22407","phone":"540-785-216","website":"http://brewpubfredericksburg.com/","hoursOfOperation":"Hours:\r\nMon-Thu 11am-11pm\r\nFri-Sat 11am-12am\r\nSun 12-8pm","latitude":38.2900416,"longitude":-77.535962,"isPrimary":"Y","inPlanning":"N","isClosed":"N","openToPublic":"Y","locationType":"brewpub","locationTypeDisplay":"Brewpub","countryIsoCode":"US","yearOpened":"1995","status":"verified","statusDisplay":"Verified","createDate":"2012-01-03 02:41:45","updateDate":"2014-07-23 19:11:34","country":{"isoCode":"US","name":"UNITED STATES","displayName":"United States","isoThree":"USA","numberCode":840,"createDate":"2012-01-03 02:41:33"}},{"id":"hD9pCH","name":"Main Brewery","streetAddress":"2000 Main Street","extendedAddress":"Suite A","locality":"Irvine","region":"California","postalCode":"92614","phone":"949-442-7565","website":"http://www.bayhawkales.com/","latitude":33.684566,"longitude":-117.8507925,"isPrimary":"Y","inPlanning":"N","isClosed":"N","openToPublic":"Y","locationType":"micro","locationTypeDisplay":"Micro Brewery","countryIsoCode":"US","yearOpened":"1995","status":"verified","statusDisplay":"Verified","createDate":"2012-01-03 02:41:45","updateDate":"2014-07-23 19:11:34","country":{"isoCode":"US","name":"UNITED STATES","displayName":"United States","isoThree":"USA","numberCode":840,"createDate":"2012-01-03 02:41:33"}},{"id":"Ui6is4","name":"Bear Republic - Pub & Restaurant","streetAddress":"345 Healdsburg Avenue","locality":"Healdsburg","region":"California","postalCode":"95448","phone":"707-433-2337","website":"http://www.bearrepublic.com/","hoursOfOperation":"Mon - Thu: 11:00 am - 9:00 pm\r\nFri - Sat: 11:00 am - 9:30 pm\r\nSun: 11:00 am - 9:00 pm","latitude":38.6112447,"longitude":-122.870982,"isPrimary":"Y","inPlanning":"N","isClosed":"N","openToPublic":"Y","locationType":"brewpub","locationTypeDisplay":"Brewpub","countryIsoCode":"US","status":"verified","statusDisplay":"Verified","createDate":"2012-01-03 02:41:45","updateDate":"2014-07-23 19:11:34","country":{"isoCode":"US","name":"UNITED STATES","displayName":"United States","isoThree":"USA","numberCode":840,"createDate":"2012-01-03 02:41:33"}},{"id":"2NtVBM","name":"Bear Republic - Factory Five","streetAddress":"110 Sandholm Ln.","extendedAddress":"Suite 10","locality":"Cloverdale","region":"California","postalCode":"95425","phone":"707-894-2722","website":"http://www.bearrepublic.com/","latitude":38.781585,"longitude":-123.0106943,"isPrimary":"N","inPlanning":"N","isClosed":"N","openToPublic":"N","locationType":"production","locationTypeDisplay":"Production Facility","countryIsoCode":"US","status":"verified","statusDisplay":"Verified","createDate":"2013-02-08 12:23:16","updateDate":"2014-07-23 19:11:34","country":{"isoCode":"US","name":"UNITED STATES","displayName":"United States","isoThree":"USA","numberCode":840,"createDate":"2012-01-03 02:41:33"}},{"id":"ncLN8G","name":"Main Brewery","streetAddress":"1019 NW Brooks St.","locality":"Bend","region":"Oregon","postalCode":"97701","phone":"541-383-1599","website":"http://www.bendbrewingco.com/","hoursOfOperation":"Mon - Sat: 11:30 am - 11:00 pm\r\nSun: 11:30 am - 10:00 pm","latitude":44.060438,"longitude":-121.313842,"isPrimary":"Y","inPlanning":"N","isClosed":"N","openToPublic":"Y","locationType":"micro","locationTypeDisplay":"Micro Brewery","countryIsoCode":"US","yearOpened":"1995","status":"verified","statusDisplay":"Verified","createDate":"2012-01-03 02:41:45","updateDate":"2014-07-23 19:11:34","country":{"isoCode":"US","name":"UNITED STATES","displayName":"United States","isoThree":"USA","numberCode":840,"createDate":"2012-01-03 02:41:33"}},{"id":"kyhLWY","name":"Main Brewery","streetAddress":"5417 Trumpeter Way","locality":"Missoula","region":"Montana","postalCode":"59808","phone":"1-800-559-2774","latitude":46.922331,"longitude":-114.072833,"isPrimary":"Y","inPlanning":"N","isClosed":"N","openToPublic":"Y","locationType":"micro","locationTypeDisplay":"Micro Brewery","countryIsoCode":"US","status":"verified","statusDisplay":"Verified","createDate":"2012-01-03 02:41:46","updateDate":"2014-10-29 16:02:11","country":{"isoCode":"US","name":"UNITED STATES","displayName":"United States","isoThree":"USA","numberCode":840,"createDate":"2012-01-03 02:41:33"}},{"id":"4hVUxY","name":"Main Brewery","streetAddress":"417 SW 37th St.","locality":"Topeka","region":"Kansas","postalCode":"66611","phone":"785-267-BREW","website":"http://www.blindtiger.com/","latitude":39.0006084,"longitude":-95.6844998,"isPrimary":"Y","inPlanning":"N","isClosed":"N","openToPublic":"Y","locationType":"brewpub","locationTypeDisplay":"Brewpub","countryIsoCode":"US","yearOpened":"1995","status":"verified","statusDisplay":"Verified","createDate":"2012-01-03 02:41:46","updateDate":"2014-07-23 19:11:34","country":{"isoCode":"US","name":"UNITED STATES","displayName":"United States","isoThree":"USA","numberCode":840,"createDate":"2012-01-03 02:41:33"}},{"id":"bSW7g2","name":"Main Brewery","streetAddress":"13th and Ford Street","locality":"Golden","region":"Colorado","postalCode":"80401","website":"http://www.bluemoonbrewingcompany.com/","latitude":39.7557697,"longitude":-105.2184385,"isPrimary":"Y","inPlanning":"N","isClosed":"N","openToPublic":"N","locationType":"macro","locationTypeDisplay":"Macro Brewery","countryIsoCode":"US","status":"verified","statusDisplay":"Verified","createDate":"2014-07-25 14:36:05","updateDate":"2014-07-25 14:36:05","country":{"isoCode":"US","name":"UNITED STATES","displayName":"United States","isoThree":"USA","numberCode":840,"createDate":"2012-01-03 02:41:33"}},{"id":"I186SZ","name":"Main Brewery","streetAddress":"217 North Main Street","locality":"Greenville","region":"South Carolina","postalCode":"29601","phone":"864-232-4677","website":"http://www.blueridgebrewing.com/","latitude":34.8530045,"longitude":-82.3981334,"isPrimary":"Y","inPlanning":"N","isClosed":"N","openToPublic":"Y","locationType":"brewpub","locationTypeDisplay":"Brewpub","countryIsoCode":"US","yearOpened":"1995","status":"verified","statusDisplay":"Verified","createDate":"2012-01-03 02:41:47","updateDate":"2014-07-23 19:11:34","country":{"isoCode":"US","name":"UNITED STATES","displayName":"United States","isoThree":"USA","numberCode":840,"createDate":"2012-01-03 02:41:33"}},{"id":"OQJeOY","name":"Main Brewery","streetAddress":"1107 Railroad Avenue","locality":"Bellingham","region":"Washington","postalCode":"98225","phone":"360-647-5593","website":"http://www.bbaybrewery.com/","latitude":48.7474879,"longitude":-122.4806586,"isPrimary":"Y","inPlanning":"N","isClosed":"N","openToPublic":"Y","locationType":"brewpub","locationTypeDisplay":"Brewpub","countryIsoCode":"US","yearOpened":"1995","status":"verified","statusDisplay":"Verified","createDate":"2012-01-03 02:41:47","updateDate":"2014-07-23 19:11:34","country":{"isoCode":"US","name":"UNITED STATES","displayName":"United States","isoThree":"USA","numberCode":840,"createDate":"2012-01-03 02:41:33"}},{"id":"ivXuST","name":"Main Brewpub","streetAddress":"Kleine Hohe Str. 15","locality":"Wismar","region":"Mecklenburg-Vorpommern","postalCode":"23966","latitude":53.895343,"longitude":11.461131,"isPrimary":"Y","inPlanning":"N","isClosed":"N","openToPublic":"Y","locationType":"micro","locationTypeDisplay":"Micro Brewery","countryIsoCode":"DE","status":"verified","statusDisplay":"Verified","createDate":"2012-08-13 01:35:23","updateDate":"2014-07-23 19:11:34","country":{"isoCode":"DE","name":"GERMANY","displayName":"Germany","isoThree":"DEU","numberCode":276,"createDate":"2012-01-03 02:41:33"}},{"id":"A6C1dR","name":"Main Brewery","streetAddress":"678 Roosevelt Trl","locality":"Naples","region":"Maine","postalCode":"04055","phone":"207-693-6806","website":"http://braysbrewpub.com/","latitude":43.9572916,"longitude":-70.56193,"isPrimary":"Y","inPlanning":"N","isClosed":"N","openToPublic":"Y","locationType":"brewpub","locationTypeDisplay":"Brewpub","countryIsoCode":"US","yearOpened":"1995","status":"verified","statusDisplay":"Verified","createDate":"2012-01-03 02:41:48","updateDate":"2014-07-23 19:11:34","country":{"isoCode":"US","name":"UNITED STATES","displayName":"United States","isoThree":"USA","numberCode":840,"createDate":"2012-01-03 02:41:33"}},{"id":"xb8vJE","name":"Main Brewery","streetAddress":"1020 North Rengstorff","locality":"Mountain View","region":"California","postalCode":"94043","latitude":37.4190937,"longitude":-122.0933796,"isPrimary":"Y","inPlanning":"N","isClosed":"Y","openToPublic":"Y","locationType":"micro","locationTypeDisplay":"Micro Brewery","countryIsoCode":"US","yearOpened":"1995","status":"verified","statusDisplay":"Verified","createDate":"2012-01-03 02:41:48","updateDate":"2014-07-23 19:11:34","country":{"isoCode":"US","name":"UNITED STATES","displayName":"United States","isoThree":"USA","numberCode":840,"createDate":"2012-01-03 02:41:33"}},{"id":"GJS3U8","name":"Main Brewery","streetAddress":"99 Castleton Street","locality":"Pleasantville","region":"New York","postalCode":"10570","phone":"914-741-BEER","website":"http://www.captainlawrencebrewing.com/","latitude":41.126041,"longitude":-73.7896449,"isPrimary":"N","inPlanning":"N","isClosed":"Y","openToPublic":"Y","locationType":"micro","locationTypeDisplay":"Micro Brewery","countryIsoCode":"US","yearOpened":"1995","yearClosed":"2012","status":"verified","statusDisplay":"Verified","createDate":"2012-01-03 02:41:50","updateDate":"2014-07-23 19:11:34","country":{"isoCode":"US","name":"UNITED STATES","displayName":"United States","isoThree":"USA","numberCode":840,"createDate":"2012-01-03 02:41:33"}},{"id":"zQvU1t","name":"Main Brewery","streetAddress":"444 Saw Mill River Rd","locality":"Elmsford","region":"New York","postalCode":"10523","phone":"(914) 741-2337","website":"http://www.captainlawrencebrewing.com/","hoursOfOperation":"Tue:  2:00pm - 7:00pm\nWed:  2:00pm - 7:00pm\nThu:  2:00pm - 7:00pm\nFri:  2:00pm - 7:00pm\nSat:  12:00pm - 6:00pm\n\nTue - Fri: 2:00 pm - 7:00 pm\r\nSat: 12:00 pm - 6:00 pm","latitude":41.0700703,"longitude":-73.815193,"isPrimary":"Y","inPlanning":"N","isClosed":"N","openToPublic":"Y","locationType":"micro","locationTypeDisplay":"Micro Brewery","countryIsoCode":"US","yearOpened":"2012","status":"verified","statusDisplay":"Verified","createDate":"2013-01-11 11:58:25","updateDate":"2014-09-29 20:12:05","country":{"isoCode":"US","name":"UNITED STATES","displayName":"United States","isoThree":"USA","numberCode":840,"createDate":"2012-01-03 02:41:33"}},{"id":"CrEWhc","name":"Main Brewery","streetAddress":"1044 Harkins Road","locality":"Salinas","region":"California","postalCode":"93901","latitude":36.6520006,"longitude":-121.6278057,"isPrimary":"Y","inPlanning":"N","isClosed":"Y","openToPublic":"Y","locationType":"micro","locationTypeDisplay":"Micro Brewery","countryIsoCode":"US","yearOpened":"1995","status":"verified","statusDisplay":"Verified","createDate":"2012-01-03 02:41:50","updateDate":"2014-07-23 19:11:34","country":{"isoCode":"US","name":"UNITED STATES","displayName":"United States","isoThree":"USA","numberCode":840,"createDate":"2012-01-03 02:41:33"}},{"id":"RUg90U","name":"Chapel Hill","streetAddress":"460 West Franklin Street","locality":"Chapel Hill","region":"North Carolina","postalCode":"27516","phone":"919-942-1800","website":"http://www.carolinabrewery.com/","hoursOfOperation":"Mon:  11:30am - 12:00am\nTue:  11:30am - 12:00am\nWed:  11:30am - 12:00am\nThu:  11:30am - 12:00am\nFri:  11:30am - 1:00am\nSat:  11:30am - 1:00am\nSun:  11:00am - 11:00pm\n\nMon-Thurs: 11:30am - midnight\r\nFri & Sat:  11:30am - 1:00am\r\nSun:  11:00 am - 11:00pm","latitude":35.9107497,"longitude":-79.0628267,"isPrimary":"Y","inPlanning":"N","isClosed":"N","openToPublic":"Y","locationType":"brewpub","locationTypeDisplay":"Brewpub","countryIsoCode":"US","yearOpened":"2003","status":"verified","statusDisplay":"Verified","createDate":"2012-01-03 02:41:50","updateDate":"2014-09-29 20:12:06","country":{"isoCode":"US","name":"UNITED STATES","displayName":"United States","isoThree":"USA","numberCode":840,"createDate":"2012-01-03 02:41:33"}},{"id":"AuHk3X","name":"Pittsboro","streetAddress":"120 Lowes Dr","extendedAddress":"Ste 100","locality":"Pittsboro","region":"North Carolina","postalCode":"27312","phone":"919-545-2330","website":"http://www.carolinabrewery.com/","hoursOfOperation":"Sun:  11:00am - 10:00pm\nMon:  11:00am - 11:00pm\nTue:  11:00am - 11:00pm\nWed:  11:00am - 11:00pm\nThu:  11:00am - 11:00pm\nFri:  11:00am - 12:00am\nSat:  11:00am - 12:00am\n\nSun:  11:00am - 10:00pm\r\nMon-Thurs:  11:00am - 11:00pm\r\nFri & Sat:  11:00am - midnight","latitude":35.743611,"longitude":-79.164712,"isPrimary":"N","inPlanning":"N","isClosed":"N","openToPublic":"Y","locationType":"brewpub","locationTypeDisplay":"Brewpub","countryIsoCode":"US","yearOpened":"2003","status":"verified","statusDisplay":"Verified","createDate":"2012-01-03 02:42:14","updateDate":"2014-09-29 20:12:07","country":{"isoCode":"US","name":"UNITED STATES","displayName":"United States","isoThree":"USA","numberCode":840,"createDate":"2012-01-03 02:41:33"}},{"id":"3oOx9v","name":"Main Brewery","streetAddress":"140 Thomas Mill Road","locality":"Holly Springs","region":"North Carolina","postalCode":"27540","phone":"919-557-2337","website":"http://www.carolinabrew.com/","hoursOfOperation":"Fri:  12:00pm - 6:00pm\nSat:  12:00pm - 4:00pm\n\nFriday: Noon - 6pm\r\nSaturday: Noon - 4pm\r\n\r\nTours are every Saturday at 1:00pm","latitude":35.6557346,"longitude":-78.8543188,"isPrimary":"Y","inPlanning":"N","isClosed":"N","openToPublic":"Y","locationType":"micro","locationTypeDisplay":"Micro Brewery","countryIsoCode":"US","yearOpened":"1995","status":"verified","statusDisplay":"Verified","createDate":"2012-01-03 02:41:50","updateDate":"2014-09-29 20:12:07","country":{"isoCode":"US","name":"UNITED STATES","displayName":"United States","isoThree":"USA","numberCode":840,"createDate":"2012-01-03 02:41:33"}},{"id":"fIagd8","name":"Main Brewery","streetAddress":"Rua: Minas, 394","locality":"Campos Elíseos","region":"Ribeirão Preto","postalCode":"14080-190","phone":"+55 16 3441-5090","website":"http://www.cervejariacolorado.com.br","latitude":-21.1675088,"longitude":-47.8087942,"isPrimary":"Y","inPlanning":"N","isClosed":"N","openToPublic":"Y","locationType":"micro","locationTypeDisplay":"Micro Brewery","countryIsoCode":"BR","yearOpened":"1995","status":"verified","statusDisplay":"Verified","createDate":"2014-04-10 09:48:58","updateDate":"2014-07-23 19:11:34","country":{"isoCode":"BR","name":"BRAZIL","displayName":"Brazil","isoThree":"BRA","numberCode":76,"createDate":"2012-01-03 02:41:33"}},{"id":"uGJrzB","name":"Main Brewery","streetAddress":"59 Chelsea Piers","extendedAddress":"Pier 59","locality":"New York","region":"New York","postalCode":"10011","phone":"212-336-6440","website":"http://www.chelseabrewingco.com/","latitude":40.7457037,"longitude":-74.0085731,"isPrimary":"Y","inPlanning":"N","isClosed":"N","openToPublic":"Y","locationType":"micro","locationTypeDisplay":"Micro Brewery","countryIsoCode":"US","yearOpened":"1995","status":"verified","statusDisplay":"Verified","createDate":"2012-01-03 02:41:50","updateDate":"2014-07-23 19:11:34","country":{"isoCode":"US","name":"UNITED STATES","displayName":"United States","isoThree":"USA","numberCode":840,"createDate":"2012-01-03 02:41:33"}},{"id":"m23ncI","name":"Main Brewery","streetAddress":"210 Coddington Highway","locality":"Middletown","region":"Rhode Island","postalCode":"02842","phone":"401-847-6690","website":"http://www.coddbrew.com/","latitude":41.518515,"longitude":-71.305642,"isPrimary":"Y","inPlanning":"N","isClosed":"N","openToPublic":"Y","locationType":"brewpub","locationTypeDisplay":"Brewpub","countryIsoCode":"US","yearOpened":"1995","status":"verified","statusDisplay":"Verified","createDate":"2012-01-03 02:41:51","updateDate":"2014-09-26 13:17:44","country":{"isoCode":"US","name":"UNITED STATES","displayName":"United States","isoThree":"USA","numberCode":840,"createDate":"2012-01-03 02:41:33"}},{"id":"wvrkv7","name":"Main Brewery","streetAddress":"Rua Minas 394","locality":"Campos Eliseos","region":"Ribeirao Preto-CEP","postalCode":"14080-190","phone":"551634415090","isPrimary":"Y","inPlanning":"N","isClosed":"N","openToPublic":"N","locationType":"production","locationTypeDisplay":"Production Facility","countryIsoCode":"BR","status":"verified","statusDisplay":"Verified","createDate":"2014-10-07 19:17:01","updateDate":"2014-10-07 19:17:01","country":{"isoCode":"BR","name":"BRAZIL","displayName":"Brazil","isoThree":"BRA","numberCode":76,"createDate":"2012-01-03 02:41:33"}},{"id":"Dz81QB","name":"Main Brewery","streetAddress":"2 Sagamore Street","locality":"Glens Falls","region":"New York","postalCode":"12801","phone":"518-792-0007","website":"http://www.cooperscaveale.com/","latitude":43.317706,"longitude":-73.63997,"isPrimary":"Y","inPlanning":"N","isClosed":"N","openToPublic":"Y","locationType":"micro","locationTypeDisplay":"Micro Brewery","countryIsoCode":"US","yearOpened":"1995","status":"verified","statusDisplay":"Verified","createDate":"2012-01-03 02:41:51","updateDate":"2014-07-23 19:11:34","country":{"isoCode":"US","name":"UNITED STATES","displayName":"United States","isoThree":"USA","numberCode":840,"createDate":"2012-01-03 02:41:33"}},{"id":"Mq24sa","name":"Main Brewery","streetAddress":"6 Cannery Village Center","locality":"Milton","region":"Delaware","postalCode":"19968","phone":"302-684-1000","website":"http://www.dogfish.com/","latitude":38.770622,"longitude":-75.310893,"isPrimary":"Y","inPlanning":"N","isClosed":"N","openToPublic":"Y","locationType":"micro","locationTypeDisplay":"Micro Brewery","countryIsoCode":"US","yearOpened":"1995","status":"verified","statusDisplay":"Verified","createDate":"2012-01-03 02:41:53","updateDate":"2014-07-23 19:11:34","country":{"isoCode":"US","name":"UNITED STATES","displayName":"United States","isoThree":"USA","numberCode":840,"createDate":"2012-01-03 02:41:33"}},{"id":"57kBD4","name":"Dogfish Head Brewings & Eats","streetAddress":"320 Rehoboth Avenue","locality":"Rehoboth Beach","region":"Delaware","postalCode":"19971","phone":"302-226-2739","website":"http://www.dogfish.com/","hoursOfOperation":"Open 7 Days, Year Round! Open at noon for LUNCH everyday, & we serve DINNER every night!","latitude":38.715362,"longitude":-75.086898,"isPrimary":"N","inPlanning":"N","isClosed":"N","openToPublic":"Y","locationType":"brewpub","locationTypeDisplay":"Brewpub","countryIsoCode":"US","yearOpened":"1995","status":"verified","statusDisplay":"Verified","createDate":"2012-01-24 14:58:17","updateDate":"2014-07-23 19:11:34","country":{"isoCode":"US","name":"UNITED STATES","displayName":"United States","isoThree":"USA","numberCode":840,"createDate":"2012-01-03 02:41:33"}},{"id":"hRSzMV","name":"DFH Alehouse, Gaithersburg","streetAddress":"800 West Diamond Ave.","locality":"Gaithersburg","region":"Maryland","postalCode":"20878","phone":"301-963-4847","website":"http://www.dogfishalehouse.com/dogfish-head-alehouse-gaithersburg.html","hoursOfOperation":"Monday - Wednesday: 11:30am to 11:00pm\r\nThursday: 11:00am to 11:00pm\r\nFriday-Saturday: 11:00am to 12:00am\r\nSunday: 11:30am to 10:00pm","latitude":39.142971,"longitude":-77.215924,"isPrimary":"N","inPlanning":"N","isClosed":"N","openToPublic":"Y","locationType":"restaurant","locationTypeDisplay":"Restaurant/Ale House","countryIsoCode":"US","yearOpened":"1995","status":"verified","statusDisplay":"Verified","createDate":"2012-01-24 15:01:34","updateDate":"2014-07-23 19:11:34","country":{"isoCode":"US","name":"UNITED STATES","displayName":"United States","isoThree":"USA","numberCode":840,"createDate":"2012-01-03 02:41:33"}},{"id":"JlBnVw","name":"DFH Alehouse, Falls Church","streetAddress":"6220 Leesburg Pike","extendedAddress":"Seven Corners Shopping Center","locality":"Falls Church","region":"Virginia","postalCode":"22044","phone":"703-534-3342","website":"http://www.dogfishalehouse.com/dfh-alehouse-falls-church.html","hoursOfOperation":"Monday - Thursday: 11:30am to 11:00pm\r\nFriday - Saturday: 11:30am to 12:00am\r\nSunday: 11:30 am to 10:00pm","latitude":38.870041,"longitude":-77.151446,"isPrimary":"N","inPlanning":"N","isClosed":"N","openToPublic":"Y","locationType":"restaurant","locationTypeDisplay":"Restaurant/Ale House","countryIsoCode":"US","yearOpened":"1995","status":"verified","statusDisplay":"Verified","createDate":"2012-01-24 15:03:04","updateDate":"2014-07-23 19:11:34","country":{"isoCode":"US","name":"UNITED STATES","displayName":"United States","isoThree":"USA","numberCode":840,"createDate":"2012-01-03 02:41:33"}},{"id":"w4ubfN","name":"DFH Alehouse, Fairfax","streetAddress":"13041 Lee Jackson Memorial Hwy","locality":"Fairfax","region":"Virginia","postalCode":"22033","phone":"703-961-1140","website":"http://www.dogfishalehouse.com/dfh-alehouse-fairfax.html","hoursOfOperation":"Monday - Thursday: 11:30am to 11:00pm\r\nFriday - Saturday: 11:30am to 12:00am\r\nSunday: 11:30am to 10:00pm","latitude":38.880695,"longitude":-77.397333,"isPrimary":"N","inPlanning":"N","isClosed":"N","openToPublic":"Y","locationType":"restaurant","locationTypeDisplay":"Restaurant/Ale House","countryIsoCode":"US","yearOpened":"1995","status":"verified","statusDisplay":"Verified","createDate":"2012-01-24 15:04:07","updateDate":"2014-07-23 19:11:34","country":{"isoCode":"US","name":"UNITED STATES","displayName":"United States","isoThree":"USA","numberCode":840,"createDate":"2012-01-03 02:41:33"}},{"id":"GkAWUM","name":"Taproom & Grill","streetAddress":"1777 Alamar Way","locality":"Fortuna","region":"California","postalCode":"95540","phone":"707-725-2739","website":"http://www.eelriverbrewing.com/","hoursOfOperation":"11am to 11pm\tThis is the physical brewery address\r\n7 days a week","latitude":40.57931,"longitude":-124.153046,"isPrimary":"N","inPlanning":"N","isClosed":"N","openToPublic":"Y","locationType":"brewpub","locationTypeDisplay":"Brewpub","countryIsoCode":"US","yearOpened":"1995","status":"verified","statusDisplay":"Verified","createDate":"2012-01-03 02:41:53","updateDate":"2014-07-23 19:11:34","country":{"isoCode":"US","name":"UNITED STATES","displayName":"United States","isoThree":"USA","numberCode":840,"createDate":"2012-01-03 02:41:33"}},{"id":"GIyGjQ","name":"Brewery","streetAddress":"600 K Bridge St.","locality":"Scotia","region":"California","postalCode":"95565","phone":"707-764-1772","website":"http://eelriverbrewing.com/","hoursOfOperation":"While we do provide brewery tours, please call in advance to schedule an appointment. \r\n\r\nTastings are at the Taproom & Grill Location","latitude":40.485157,"longitude":-124.104427,"isPrimary":"Y","inPlanning":"N","isClosed":"N","openToPublic":"Y","locationType":"micro","locationTypeDisplay":"Micro Brewery","countryIsoCode":"US","yearOpened":"1995","status":"verified","statusDisplay":"Verified","createDate":"2012-01-28 15:22:58","updateDate":"2014-07-23 19:11:34","country":{"isoCode":"US","name":"UNITED STATES","displayName":"United States","isoThree":"USA","numberCode":840,"createDate":"2012-01-03 02:41:33"}},{"id":"xKgMb7","name":"Main Brewery","streetAddress":"28A Monroe St","locality":"Ellicottville","region":"New York","postalCode":"14731","phone":"716-699-ALES","website":"http://www.ellicottvillebrewing.com/","latitude":42.2751607,"longitude":-78.6708194,"isPrimary":"Y","inPlanning":"N","isClosed":"N","openToPublic":"Y","locationType":"micro","locationTypeDisplay":"Micro Brewery","countryIsoCode":"US","yearOpened":"1995","status":"verified","statusDisplay":"Verified","createDate":"2012-01-03 02:41:53","updateDate":"2014-07-23 19:11:34","country":{"isoCode":"US","name":"UNITED STATES","displayName":"United States","isoThree":"USA","numberCode":840,"createDate":"2012-01-03 02:41:33"}},{"id":"QbZbCr","name":"Main Brewery","streetAddress":"1221 East Pike Street","locality":"Seattle","region":"Washington","postalCode":"98122","phone":"206-860-3977","website":"http://www.elysianbrewing.com/","latitude":47.614033,"longitude":-122.315716,"isPrimary":"Y","inPlanning":"N","isClosed":"N","openToPublic":"Y","locationType":"micro","locationTypeDisplay":"Micro Brewery","countryIsoCode":"US","yearOpened":"1995","status":"verified","statusDisplay":"Verified","createDate":"2012-01-03 02:41:53","updateDate":"2014-07-23 19:11:34","country":{"isoCode":"US","name":"UNITED STATES","displayName":"United States","isoThree":"USA","numberCode":840,"createDate":"2012-01-03 02:41:33"}},{"id":"7S4DH1","name":"TangleTown","streetAddress":"2106 N 55th St, Seattle, WA 98103","locality":"Seattle","region":"Washington","postalCode":"98103","phone":"206-547-5929","website":"http://www.elysianbrewing.com/","hoursOfOperation":"M-F: Opens 11:30AM\r\nSat:  11AM - 11PM\r\nSun. 11AM - 10PM","latitude":47.668918,"longitude":-122.333473,"isPrimary":"N","inPlanning":"N","isClosed":"N","openToPublic":"N","locationType":"micro","locationTypeDisplay":"Micro Brewery","countryIsoCode":"US","yearOpened":"1995","status":"verified","statusDisplay":"Verified","createDate":"2012-01-03 02:42:14","updateDate":"2014-07-23 19:11:34","country":{"isoCode":"US","name":"UNITED STATES","displayName":"United States","isoThree":"USA","numberCode":840,"createDate":"2012-01-03 02:41:33"}},{"id":"mSmGcW","name":"Main Brewery","streetAddress":"600 E Superior St","locality":"Duluth","region":"Minnesota","postalCode":"55802","phone":"(218) 279-2739","website":"http://brewhouse.net/","hoursOfOperation":"Mon: 11:00 am - 12:00 am\r\nTue - Thu: 11:00 am - 1:00 am\r\nFri - Sat: 11:00 am - 2:00 am\r\nSun: 11:00 am - 12:00 am","latitude":46.7925523,"longitude":-92.0908537,"isPrimary":"Y","inPlanning":"N","isClosed":"N","openToPublic":"Y","locationType":"brewpub","locationTypeDisplay":"Brewpub","countryIsoCode":"US","yearOpened":"1995","status":"verified","statusDisplay":"Verified","createDate":"2012-01-03 02:41:54","updateDate":"2014-07-23 19:11:34","country":{"isoCode":"US","name":"UNITED STATES","displayName":"United States","isoThree":"USA","numberCode":840,"createDate":"2012-01-03 02:41:33"}},{"id":"qjZIZq","name":"Main Brewery","streetAddress":"900 Kennedy Boulevard","locality":"Somerdale","region":"New Jersey","postalCode":"08083","phone":"856-504-3442","website":"http://www.flyingfish.com/","latitude":39.853834,"longitude":-75.019803,"isPrimary":"Y","inPlanning":"N","isClosed":"N","openToPublic":"Y","locationType":"micro","locationTypeDisplay":"Micro Brewery","countryIsoCode":"US","yearOpened":"1995","status":"verified","statusDisplay":"Verified","createDate":"2012-01-03 02:41:55","updateDate":"2014-07-23 19:11:34","country":{"isoCode":"US","name":"UNITED STATES","displayName":"United States","isoThree":"USA","numberCode":840,"createDate":"2012-01-03 02:41:33"}},{"id":"XWih3e","name":"Main Brewery","streetAddress":"Bagots Park","locality":"Abbots Bromley","region":"Staffordshire","postalCode":"WS15 3ER","phone":"+44 (0) 1283 840 721","latitude":52.8366558,"longitude":-1.8697278,"isPrimary":"Y","inPlanning":"N","isClosed":"N","openToPublic":"Y","locationType":"tasting","locationTypeDisplay":"Tasting Room","countryIsoCode":"GB","status":"verified","statusDisplay":"Verified","createDate":"2013-08-12 22:25:23","updateDate":"2014-07-23 19:11:34","country":{"isoCode":"GB","name":"UNITED KINGDOM","displayName":"United Kingdom","isoThree":"GBR","numberCode":826,"createDate":"2012-01-03 02:41:33"}},{"id":"BmCSoh","name":"Main Brewery","streetAddress":"708 North Ypsilanti Road","locality":"Ypsilanti","region":"Michigan","postalCode":"48198","phone":"734-320-2416","website":"http://www.frogislandbeer.com/","latitude":42.249947,"longitude":-83.585119,"isPrimary":"Y","inPlanning":"N","isClosed":"Y","openToPublic":"N","locationType":"micro","locationTypeDisplay":"Micro Brewery","countryIsoCode":"US","yearOpened":"1995","yearClosed":"2009","status":"verified","statusDisplay":"Verified","createDate":"2012-01-03 02:41:55","updateDate":"2014-07-23 19:11:34","country":{"isoCode":"US","name":"UNITED STATES","displayName":"United States","isoThree":"USA","numberCode":840,"createDate":"2012-01-03 02:41:33"}},{"id":"2jMtH0","name":"Main Brewery","streetAddress":"9 N Front St","locality":"Wilmington","region":"North Carolina","postalCode":"28401","phone":"910-251-1935","website":"http://www.frontstreetbrewery.com/","hoursOfOperation":"Open daily for lunch, dinner and late night.","latitude":34.235752,"longitude":-77.949088,"isPrimary":"Y","inPlanning":"N","isClosed":"N","openToPublic":"Y","locationType":"micro","locationTypeDisplay":"Micro Brewery","countryIsoCode":"US","yearOpened":"1995","status":"verified","statusDisplay":"Verified","createDate":"2012-01-03 02:41:55","updateDate":"2014-07-23 19:11:34","country":{"isoCode":"US","name":"UNITED STATES","displayName":"United States","isoThree":"USA","numberCode":840,"createDate":"2012-01-03 02:41:33"}},{"id":"S2n5TB","name":"Main Brewery","streetAddress":"1800 West Fulton Street","locality":"Chicago","region":"Illinois","postalCode":"60612","phone":"1-800-466-7363","website":"http://www.gooseisland.com/","latitude":41.887107,"longitude":-87.6720969,"isPrimary":"Y","inPlanning":"N","isClosed":"N","openToPublic":"N","locationType":"production","locationTypeDisplay":"Production Facility","countryIsoCode":"US","yearOpened":"1995","status":"verified","statusDisplay":"Verified","createDate":"2012-01-03 02:41:56","updateDate":"2014-09-11 10:33:51","country":{"isoCode":"US","name":"UNITED STATES","displayName":"United States","isoThree":"USA","numberCode":840,"createDate":"2012-01-03 02:41:33"}},{"id":"D2gG2C","name":"Clybourn","streetAddress":"1800 North Clybourn Avenue","locality":"Chicago","region":"Illinois","postalCode":"60614","phone":"800-466-7363","latitude":41.9137242,"longitude":-87.65373,"isPrimary":"N","inPlanning":"N","isClosed":"N","openToPublic":"Y","locationType":"brewpub","locationTypeDisplay":"Brewpub","countryIsoCode":"US","yearOpened":"1988","status":"verified","statusDisplay":"Verified","createDate":"2012-01-03 02:42:15","updateDate":"2014-09-11 10:32:55","country":{"isoCode":"US","name":"UNITED STATES","displayName":"United States","isoThree":"USA","numberCode":840,"createDate":"2012-01-03 02:41:33"}},{"id":"qxsSk4","name":"Main Brewery","streetAddress":"Plieninger Strasse 100","locality":"Stuttgart","region":"Baden-Wurttemberg","postalCode":"70567","latitude":48.722836,"longitude":9.162401,"isPrimary":"Y","inPlanning":"N","isClosed":"N","openToPublic":"Y","locationType":"micro","locationTypeDisplay":"Micro Brewery","countryIsoCode":"DE","status":"verified","statusDisplay":"Verified","createDate":"2012-08-16 13:35:50","updateDate":"2014-07-23 19:11:34","country":{"isoCode":"DE","name":"GERMANY","displayName":"Germany","isoThree":"DEU","numberCode":276,"createDate":"2012-01-03 02:41:33"}},{"id":"lGLjH8","name":"Main Brewery","streetAddress":"1285 6th Avenue","locality":"New York","region":"New York","postalCode":"10003","phone":"212-400-2300","website":"http://www.heartlandbrewery.com/","latitude":40.7609737,"longitude":-73.979931,"isPrimary":"Y","inPlanning":"N","isClosed":"Y","openToPublic":"Y","locationType":"micro","locationTypeDisplay":"Micro Brewery","countryIsoCode":"US","yearOpened":"1995","status":"verified","statusDisplay":"Verified","createDate":"2012-01-03 02:41:57","updateDate":"2014-07-23 19:11:34","country":{"isoCode":"US","name":"UNITED STATES","displayName":"United States","isoThree":"USA","numberCode":840,"createDate":"2012-01-03 02:41:33"}},{"id":"yX6twV","name":"Main Brewery","streetAddress":"4615-B Hollins Ferry Road","locality":"Baltimore","region":"Maryland","postalCode":"21227","phone":"410-247-7822","website":"http://www.hsbeer.com/","latitude":39.230827,"longitude":-76.6751309,"isPrimary":"Y","inPlanning":"N","isClosed":"N","openToPublic":"Y","locationType":"micro","locationTypeDisplay":"Micro Brewery","countryIsoCode":"US","yearOpened":"1995","status":"verified","statusDisplay":"Verified","createDate":"2012-01-03 02:41:51","updateDate":"2014-11-20 13:52:46","country":{"isoCode":"US","name":"UNITED STATES","displayName":"United States","isoThree":"USA","numberCode":840,"createDate":"2012-01-03 02:41:33"}},{"id":"vh3ZUn","name":"Heavy Seas Alehouse - Baltimore","streetAddress":"1300 Bank Street","locality":"Baltimore","region":"Maryland","postalCode":"21231","phone":"(410) 753-1403","website":"http://heavyseasalehouse.com/","hoursOfOperation":"Mon:  4:00pm - 12:00am\nTue:  4:00pm - 12:00am\nWed:  4:00pm - 12:00am\nThu:  4:00pm - 12:00am\nFri:  12:00pm - 2:00am\nSat:  12:00pm - 2:00am\nSun:  11:00am - 12:00am\n\n","latitude":39.286626,"longitude":-76.598808,"isPrimary":"N","inPlanning":"N","isClosed":"N","openToPublic":"Y","locationType":"restaurant","locationTypeDisplay":"Restaurant/Ale House","countryIsoCode":"US","status":"verified","statusDisplay":"Verified","createDate":"2012-05-23 22:13:06","updateDate":"2014-11-20 13:51:07","country":{"isoCode":"US","name":"UNITED STATES","displayName":"United States","isoThree":"USA","numberCode":840,"createDate":"2012-01-03 02:41:33"}},{"id":"gmfbj6","name":"Heavy Seas Alehouse - Arlington","streetAddress":"1501 Wilson Blvd","locality":"Arlington","region":"Virginia","postalCode":"22209","phone":"(703) 879-4388","website":"http://heavyseasalehouse.com/","hoursOfOperation":"Mon:  11:00am - 12:00am\nTue:  11:00am - 12:00am\nWed:  11:00am - 12:00am\nThu:  11:00am - 12:00am\nFri:  11:00am - 2:00am\nSat:  11:00am - 2:00am\nSun:  11:00am - 12:00am\n\n","latitude":38.8952016,"longitude":-77.0742466,"isPrimary":"N","inPlanning":"N","isClosed":"N","openToPublic":"Y","locationType":"restaurant","locationTypeDisplay":"Restaurant/Ale House","countryIsoCode":"US","status":"verified","statusDisplay":"Verified","createDate":"2014-11-20 13:52:30","updateDate":"2014-11-20 13:52:46","country":{"isoCode":"US","name":"UNITED STATES","displayName":"United States","isoThree":"USA","numberCode":840,"createDate":"2012-01-03 02:41:33"}},{"id":"KwQVor","name":"Main Brewery","streetAddress":"313 Dousman Street","locality":"Green Bay","region":"Wisconsin","postalCode":"54303","phone":"920-438-8050","website":"http://www.hinterlandbeer.com/","latitude":44.5191303,"longitude":-88.0196139,"isPrimary":"Y","inPlanning":"N","isClosed":"N","openToPublic":"Y","locationType":"micro","locationTypeDisplay":"Micro Brewery","countryIsoCode":"US","yearOpened":"1995","status":"verified","statusDisplay":"Verified","createDate":"2012-01-03 02:41:57","updateDate":"2014-07-23 19:11:34","country":{"isoCode":"US","name":"UNITED STATES","displayName":"United States","isoThree":"USA","numberCode":840,"createDate":"2012-01-03 02:41:33"}},{"id":"2LVr6Q","name":"Main Brewery","streetAddress":"4076 Albany Post Road","locality":"Hyde Park","region":"New York","postalCode":"12538","phone":"845-229-8277","website":"http://www.hydeparkbrewing.moonfruit.com/","latitude":41.769073,"longitude":-73.9294309,"isPrimary":"Y","inPlanning":"N","isClosed":"N","openToPublic":"Y","locationType":"brewpub","locationTypeDisplay":"Brewpub","countryIsoCode":"US","yearOpened":"1995","status":"verified","statusDisplay":"Verified","createDate":"2012-01-03 02:41:58","updateDate":"2014-07-23 19:11:34","country":{"isoCode":"US","name":"UNITED STATES","displayName":"United States","isoThree":"USA","numberCode":840,"createDate":"2012-01-03 02:41:33"}},{"id":"SABYve","name":"Main Brewery","streetAddress":"2565 North Highway 14","locality":"Inyokern","region":"California","postalCode":"93527","phone":"760-377-5989","website":"http://www.mojavered.com/","latitude":35.667473,"longitude":-117.873665,"isPrimary":"Y","inPlanning":"N","isClosed":"N","openToPublic":"Y","locationType":"micro","locationTypeDisplay":"Micro Brewery","countryIsoCode":"US","yearOpened":"1995","status":"verified","statusDisplay":"Verified","createDate":"2012-01-03 02:41:58","updateDate":"2014-07-23 19:11:34","country":{"isoCode":"US","name":"UNITED STATES","displayName":"United States","isoThree":"USA","numberCode":840,"createDate":"2012-01-03 02:41:33"}},{"id":"MstViE","name":"Main Brewery","streetAddress":"304 Poplar Street","locality":"Hanover","region":"Pennsylvania","postalCode":"17331","phone":"717-597-9170","website":"http://www.kclingers.com/","latitude":39.798698,"longitude":-76.992265,"isPrimary":"Y","inPlanning":"N","isClosed":"Y","openToPublic":"Y","locationType":"micro","locationTypeDisplay":"Micro Brewery","countryIsoCode":"US","yearOpened":"1995","status":"verified","statusDisplay":"Verified","createDate":"2012-01-03 02:41:59","updateDate":"2014-07-23 19:11:34","country":{"isoCode":"US","name":"UNITED STATES","displayName":"United States","isoThree":"USA","numberCode":840,"createDate":"2012-01-03 02:41:33"}},{"id":"eTJ9AZ","name":"Main Brewery","streetAddress":"75-5629 Kuakini Highway","locality":"Kailua-Kona","region":"Hawaii","postalCode":"96740","phone":"1-808-334-1133","website":"http://www.konabrewingco.com/","latitude":19.6419767,"longitude":-155.9964298,"isPrimary":"Y","inPlanning":"N","isClosed":"N","openToPublic":"Y","locationType":"micro","locationTypeDisplay":"Micro Brewery","countryIsoCode":"US","yearOpened":"1995","status":"verified","statusDisplay":"Verified","createDate":"2012-01-03 02:41:59","updateDate":"2014-07-23 19:11:34","country":{"isoCode":"US","name":"UNITED STATES","displayName":"United States","isoThree":"USA","numberCode":840,"createDate":"2012-01-03 02:41:33"}},{"id":"ceEcjf","name":"Main Brewery","streetAddress":"1517 Dodge Avenue","locality":"Helena","region":"Montana","postalCode":"59601","phone":"406-442-5960","website":"http://lewisandclarkbrewing.com/","hoursOfOperation":"Mon - Sun: 2:00 pm - 8:00 pm","latitude":46.5977279,"longitude":-112.03726,"isPrimary":"Y","inPlanning":"N","isClosed":"N","openToPublic":"Y","locationType":"micro","locationTypeDisplay":"Micro Brewery","countryIsoCode":"US","yearOpened":"1995","status":"verified","statusDisplay":"Verified","createDate":"2012-01-03 02:42:00","updateDate":"2014-07-23 19:11:34","country":{"isoCode":"US","name":"UNITED STATES","displayName":"United States","isoThree":"USA","numberCode":840,"createDate":"2012-01-03 02:41:33"}},{"id":"t6Gyij","name":"Main Brewery","streetAddress":"Lüben 1","locality":"Wittingen","postalCode":"29378","latitude":52.728455,"longitude":10.735847,"isPrimary":"Y","inPlanning":"N","isClosed":"N","openToPublic":"Y","locationType":"micro","locationTypeDisplay":"Micro Brewery","countryIsoCode":"DE","status":"verified","statusDisplay":"Verified","createDate":"2012-08-16 14:03:09","updateDate":"2014-07-23 19:11:34","country":{"isoCode":"DE","name":"GERMANY","displayName":"Germany","isoThree":"DEU","numberCode":276,"createDate":"2012-01-03 02:41:33"}},{"id":"cSJ6eN","name":"Main Brewery","streetAddress":"27 Broadway","locality":"Toledo","region":"Ohio","postalCode":"43602","phone":"419-243-1302","website":"http://www.oh-maumeebaybrewingco.com/","hoursOfOperation":"Monday – Thursday 3p.m. - 10p.m.\r\nFriday and Saturdays 3p.m.- 11p.m.","latitude":41.6432338,"longitude":-83.5384216,"isPrimary":"Y","inPlanning":"N","isClosed":"N","openToPublic":"Y","locationType":"micro","locationTypeDisplay":"Micro Brewery","countryIsoCode":"US","status":"verified","statusDisplay":"Verified","createDate":"2012-01-03 02:42:01","updateDate":"2014-07-23 19:11:34","country":{"isoCode":"US","name":"UNITED STATES","displayName":"United States","isoThree":"USA","numberCode":840,"createDate":"2012-01-03 02:41:33"}},{"id":"zUGhcF","name":"Main Brewery","streetAddress":"4175 Campus Drive","locality":"Irvine","region":"California","postalCode":"92612","phone":"949-856-2227","website":"http://www.steelheadbrewery.com","hoursOfOperation":"Open daily at 11:30am","latitude":33.649967,"longitude":-117.839463,"isPrimary":"Y","inPlanning":"N","isClosed":"N","openToPublic":"Y","locationType":"brewpub","locationTypeDisplay":"Brewpub","countryIsoCode":"US","yearOpened":"1995","status":"verified","statusDisplay":"Verified","createDate":"2012-01-03 02:42:09","updateDate":"2014-07-23 19:11:34","country":{"isoCode":"US","name":"UNITED STATES","displayName":"United States","isoThree":"USA","numberCode":840,"createDate":"2012-01-03 02:41:33"}},{"id":"5czgq7","name":"Burlingame","streetAddress":"333 California Drive","locality":"Burlingame","region":"California","postalCode":"94010","phone":"650-344-6050","website":"http://www.steelheadbrewery.com/","latitude":37.5799956,"longitude":-122.3457559,"isPrimary":"N","inPlanning":"N","isClosed":"N","openToPublic":"Y","locationType":"brewpub","locationTypeDisplay":"Brewpub","countryIsoCode":"US","yearOpened":"1995","status":"verified","statusDisplay":"Verified","createDate":"2012-01-03 02:42:15","updateDate":"2014-07-23 19:11:34","country":{"isoCode":"US","name":"UNITED STATES","displayName":"United States","isoThree":"USA","numberCode":840,"createDate":"2012-01-03 02:41:33"}},{"id":"hwiUzY","name":"Eugene","streetAddress":"199 East 5th Avenue","locality":"Eugene","region":"Oregon","postalCode":"97401","phone":"541-686-2739","website":"http://www.steelheadbrewery.com/","latitude":44.0544163,"longitude":-123.0901954,"isPrimary":"N","inPlanning":"N","isClosed":"N","openToPublic":"Y","locationType":"brewpub","locationTypeDisplay":"Brewpub","countryIsoCode":"US","yearOpened":"1995","status":"verified","statusDisplay":"Verified","createDate":"2012-01-03 02:42:15","updateDate":"2014-07-23 19:11:34","country":{"isoCode":"US","name":"UNITED STATES","displayName":"United States","isoThree":"USA","numberCode":840,"createDate":"2012-01-03 02:41:33"}},{"id":"mJiBMs","name":"Main Brewery","streetAddress":"120 Wilkinson Street","locality":"Syracuse","region":"New York","postalCode":"13204","phone":"888-289-4250","website":"http://www.middleagesbrewing.com/","hoursOfOperation":"Mon - Fri: 11:30am - 6:00pm\r\nSat: 11:30am - 5:00pm\r\nSun: 12:00pm 5:00pm","latitude":43.050827,"longitude":-76.161711,"isPrimary":"Y","inPlanning":"N","isClosed":"N","openToPublic":"Y","locationType":"micro","locationTypeDisplay":"Micro Brewery","countryIsoCode":"US","yearOpened":"1995","status":"verified","statusDisplay":"Verified","createDate":"2012-01-03 02:42:02","updateDate":"2014-07-23 19:11:34","country":{"isoCode":"US","name":"UNITED STATES","displayName":"United States","isoThree":"USA","numberCode":840,"createDate":"2012-01-03 02:41:33"}},{"id":"wB7G5N","name":"Main Brewery","streetAddress":"7160 Oliver Street","locality":"Mission","region":"British Columbia","postalCode":"V2V 6K5","phone":"(604) 820-1009","website":"http://missionsprings.ca/","hoursOfOperation":"Mon: 11:00 am - 11:00 pm, 11:00 am - 12:00 pm\r\nTue - Thu: 11:00 am - 11:00 pm, 11:00 am - 12:00 am\r\nFri - Sat: 11:00 am - 12:00 am, 11:00 am - 1:00 am\r\nSun: 11:00 am - 11:00 pm, 11:00 am - 12:00 am","latitude":49.1322642,"longitude":-122.3426946,"isPrimary":"Y","inPlanning":"N","isClosed":"N","openToPublic":"Y","locationType":"micro","locationTypeDisplay":"Micro Brewery","countryIsoCode":"CA","yearOpened":"1995","status":"verified","statusDisplay":"Verified","createDate":"2012-01-03 02:42:02","updateDate":"2014-07-23 19:11:34","country":{"isoCode":"CA","name":"CANADA","displayName":"Canada","isoThree":"CAN","numberCode":124,"createDate":"2012-01-03 02:41:33"}},{"id":"JM8wIt","name":"Main Brewery","streetAddress":"15 Rowland Way","locality":"Novato","region":"California","postalCode":"94945","phone":"415-897-0100","hoursOfOperation":"Open Daily: 11:30-12:00 AM\r\nFriday: 11:30- 1:00 AM","latitude":38.094523,"longitude":-122.556869,"isPrimary":"Y","inPlanning":"N","isClosed":"N","openToPublic":"Y","locationType":"brewpub","locationTypeDisplay":"Brewpub","countryIsoCode":"US","yearOpened":"1995","status":"verified","statusDisplay":"Verified","createDate":"2012-01-03 02:42:03","updateDate":"2014-07-23 19:11:34","country":{"isoCode":"US","name":"UNITED STATES","displayName":"United States","isoThree":"USA","numberCode":840,"createDate":"2012-01-03 02:41:33"}},{"id":"wPQQFb","name":"Main Brewery","streetAddress":"Unit 2, Building 64","extendedAddress":"The Historic Dockyard","region":"Chatham","postalCode":"ME4 4TE","phone":"01634 832828","website":"http://www.nelsonbrewery.co.uk/","latitude":51.3943334,"longitude":0.5297882,"isPrimary":"Y","inPlanning":"N","isClosed":"N","openToPublic":"Y","locationType":"micro","locationTypeDisplay":"Micro Brewery","countryIsoCode":"GB","status":"verified","statusDisplay":"Verified","createDate":"2013-06-22 15:01:11","updateDate":"2014-07-23 19:11:34","country":{"isoCode":"GB","name":"UNITED KINGDOM","displayName":"United Kingdom","isoThree":"GBR","numberCode":826,"createDate":"2012-01-03 02:41:33"}},{"id":"m7mfHa","name":"Main Brewery","streetAddress":"2920 Newport Blvd.","locality":"Newport Beach","region":"California","postalCode":"92663","phone":"949-675-8449","website":"http://www.newportbeachbrewingcompany.com/","latitude":33.614479,"longitude":-117.929832,"isPrimary":"Y","inPlanning":"N","isClosed":"N","openToPublic":"Y","locationType":"micro","locationTypeDisplay":"Micro Brewery","countryIsoCode":"US","yearOpened":"1995","status":"verified","statusDisplay":"Verified","createDate":"2012-01-03 02:42:03","updateDate":"2014-07-23 19:11:34","country":{"isoCode":"US","name":"UNITED STATES","displayName":"United States","isoThree":"USA","numberCode":840,"createDate":"2012-01-03 02:41:33"}},{"id":"LnrRpJ","name":"Main Brewery","streetAddress":"211 W. 24th Street","locality":"Norfolk","region":"Virginia","postalCode":"23517","phone":"757-623-2337","website":"http://oconnorbrewing.com/","hoursOfOperation":"Our hours of operation are from 9:00 to 5:00 M-F.","latitude":36.8701064,"longitude":-76.2862252,"isPrimary":"Y","inPlanning":"N","isClosed":"N","openToPublic":"Y","locationType":"micro","locationTypeDisplay":"Micro Brewery","countryIsoCode":"US","yearOpened":"1995","status":"verified","statusDisplay":"Verified","createDate":"2012-01-03 02:42:04","updateDate":"2014-09-11 10:27:25","country":{"isoCode":"US","name":"UNITED STATES","displayName":"United States","isoThree":"USA","numberCode":840,"createDate":"2012-01-03 02:41:33"}},{"id":"69uoGL","name":"Main Brewery","streetAddress":"3400 Padre Boulevard","locality":"South Padre Island","region":"Texas","postalCode":"78597","phone":"956-761-9585","website":"http://pibrewingcompany.com/","latitude":26.109362,"longitude":-97.168222,"isPrimary":"Y","inPlanning":"N","isClosed":"N","openToPublic":"Y","locationType":"brewpub","locationTypeDisplay":"Brewpub","countryIsoCode":"US","status":"verified","statusDisplay":"Verified","createDate":"2012-01-03 02:42:05","updateDate":"2014-07-23 19:11:34","country":{"isoCode":"US","name":"UNITED STATES","displayName":"United States","isoThree":"USA","numberCode":840,"createDate":"2012-01-03 02:41:33"}},{"id":"1NsGfy","name":"Main Brewery","streetAddress":"3038 Beach Blvd","locality":"Gulfport","region":"Florida","postalCode":"33707","phone":"727-328-2720","website":"http://www.pegscantina.com/","latitude":27.7394482,"longitude":-82.7077338,"isPrimary":"Y","inPlanning":"N","isClosed":"N","openToPublic":"Y","locationType":"brewpub","locationTypeDisplay":"Brewpub","countryIsoCode":"US","yearOpened":"1995","status":"verified","statusDisplay":"Verified","createDate":"2012-01-03 02:42:05","updateDate":"2014-07-23 19:11:34","country":{"isoCode":"US","name":"UNITED STATES","displayName":"United States","isoThree":"USA","numberCode":840,"createDate":"2012-01-03 02:41:33"}},{"id":"f8oZ5j","name":"Main Brewery","streetAddress":"3011 Routh Street","locality":"Dallas","region":"Texas","postalCode":"75201","phone":"214-922-8835","latitude":32.799614,"longitude":-96.8056391,"isPrimary":"Y","inPlanning":"N","isClosed":"Y","openToPublic":"Y","locationType":"micro","locationTypeDisplay":"Micro Brewery","countryIsoCode":"US","yearOpened":"1995","status":"verified","statusDisplay":"Verified","createDate":"2012-01-03 02:42:07","updateDate":"2014-07-23 19:11:34","country":{"isoCode":"US","name":"UNITED STATES","displayName":"United States","isoThree":"USA","numberCode":840,"createDate":"2012-01-03 02:41:33"}},{"id":"kjQbqu","name":"Main Brewery","streetAddress":"215 E. Fourth St.","locality":"Royal Oak","region":"Michigan","postalCode":"48067","phone":"248-544-1141","website":"http://www.royaloakbrewery.com/","latitude":42.4873297,"longitude":-83.1428204,"isPrimary":"Y","inPlanning":"N","isClosed":"N","openToPublic":"Y","locationType":"micro","locationTypeDisplay":"Micro Brewery","countryIsoCode":"US","yearOpened":"1995","status":"verified","statusDisplay":"Verified","createDate":"2012-01-03 02:42:07","updateDate":"2014-07-23 19:11:34","country":{"isoCode":"US","name":"UNITED STATES","displayName":"United States","isoThree":"USA","numberCode":840,"createDate":"2012-01-03 02:41:33"}},{"id":"G8iMRJ","name":"Main Brewery","streetAddress":"212 W Main Street","locality":"Sackets Harbor","region":"New York","postalCode":"13685","phone":"315-646-2739","website":"http://www.1812ale.com/","latitude":43.947875,"longitude":-76.120818,"isPrimary":"Y","inPlanning":"N","isClosed":"N","openToPublic":"Y","locationType":"micro","locationTypeDisplay":"Micro Brewery","countryIsoCode":"US","yearOpened":"1995","status":"verified","statusDisplay":"Verified","createDate":"2012-01-03 02:42:07","updateDate":"2014-07-23 19:11:34","country":{"isoCode":"US","name":"UNITED STATES","displayName":"United States","isoThree":"USA","numberCode":840,"createDate":"2012-01-03 02:41:33"}},{"id":"5GoGSi","name":"Main Brewery","streetAddress":"275 West Kaahumanu Avenue","locality":"Kahului","region":"Hawaii","postalCode":"96732","latitude":20.885967,"longitude":-156.474988,"isPrimary":"Y","inPlanning":"N","isClosed":"Y","openToPublic":"Y","locationType":"micro","locationTypeDisplay":"Micro Brewery","countryIsoCode":"US","yearOpened":"1995","status":"verified","statusDisplay":"Verified","createDate":"2012-01-03 02:42:08","updateDate":"2014-07-23 19:11:34","country":{"isoCode":"US","name":"UNITED STATES","displayName":"United States","isoThree":"USA","numberCode":840,"createDate":"2012-01-03 02:41:33"}},{"id":"wDygv1","name":"Main Brewery","streetAddress":"74 Hollywood Boulevard","locality":"Whitefield","region":"Maine","postalCode":"04353","phone":"207-549-5530","website":"http://sheepscotbrewing.com/","latitude":44.1420176,"longitude":-69.6000504,"isPrimary":"Y","inPlanning":"N","isClosed":"N","openToPublic":"Y","locationType":"micro","locationTypeDisplay":"Micro Brewery","countryIsoCode":"US","yearOpened":"1995","status":"verified","statusDisplay":"Verified","createDate":"2012-01-03 02:42:08","updateDate":"2014-07-23 19:11:34","country":{"isoCode":"US","name":"UNITED STATES","displayName":"United States","isoThree":"USA","numberCode":840,"createDate":"2012-01-03 02:41:33"}},{"id":"GS2Lz4","name":"Main Brewery","streetAddress":"61 Bridge Street","locality":"Milford","region":"New Jersey","postalCode":"08848","phone":"800-651-2537","website":"http://shipinn.com/","latitude":40.568249,"longitude":-75.096498,"isPrimary":"Y","inPlanning":"N","isClosed":"N","openToPublic":"Y","locationType":"brewpub","locationTypeDisplay":"Brewpub","countryIsoCode":"US","yearOpened":"1995","status":"verified","statusDisplay":"Verified","createDate":"2012-01-03 02:42:08","updateDate":"2014-09-26 13:51:40","country":{"isoCode":"US","name":"UNITED STATES","displayName":"United States","isoThree":"USA","numberCode":840,"createDate":"2012-01-03 02:41:33"}},{"id":"2dAEr0","name":"Main Brewery","streetAddress":"225 Girard St","locality":"Durango","region":"Colorado","postalCode":"81301","phone":"970-247-5792","website":"http://www.skabrewing.com/","hoursOfOperation":"Mon - Fri: 9:00 am - 8:00 pm\r\nSat: 11:00 am - 7:00 pm","latitude":37.2388,"longitude":-107.876149,"isPrimary":"Y","inPlanning":"N","isClosed":"N","openToPublic":"Y","locationType":"micro","locationTypeDisplay":"Micro Brewery","countryIsoCode":"US","yearOpened":"1995","status":"verified","statusDisplay":"Verified","createDate":"2012-01-03 02:42:08","updateDate":"2014-07-23 19:11:34","country":{"isoCode":"US","name":"UNITED STATES","displayName":"United States","isoThree":"USA","numberCode":840,"createDate":"2012-01-03 02:41:33"}},{"id":"Y2RzRP","name":"Main Brewery","streetAddress":"331 Circle of Progress Drive","locality":"Pottstown","region":"Pennsylvania","postalCode":"19464","phone":"484-524-8210","website":"http://www.slyfoxbeer.com/","hoursOfOperation":"Tours:\r\nSaturdays & Sundays, 2:00pm & 4:00pm \r\nPlease call ahead\r\n\r\nTasting Room:\r\nMon - Tues: CLOSED \r\nWed - Thurs: 11:30 am - 9:00 pm \r\nFri - Sat: 11:30 am - 10:00 pm \r\nSun: 11:30 am - 8:00 pm","latitude":40.265218,"longitude":-75.668637,"isPrimary":"Y","inPlanning":"N","isClosed":"N","openToPublic":"Y","locationType":"micro","locationTypeDisplay":"Micro Brewery","countryIsoCode":"US","yearOpened":"1995","status":"verified","statusDisplay":"Verified","createDate":"2012-01-03 02:42:08","updateDate":"2014-07-23 19:11:34","country":{"isoCode":"US","name":"UNITED STATES","displayName":"United States","isoThree":"USA","numberCode":840,"createDate":"2012-01-03 02:41:33"}},{"id":"WlUPTC","name":"Phoenixville Brewhouse & Eastery","streetAddress":"519 Kimberton Road","locality":"Phoenixville","region":"Pennsylvania","postalCode":"19460","phone":"610-935-4540","website":"http://www.slyfoxbeer.com/","hoursOfOperation":"Mon-Thurs: 11:30 am - 11:00 pm\r\nFri-Sat: 11:30 am-Midnight\r\nSun: Noon-11:00 pm","latitude":40.129771,"longitude":-75.549867,"isPrimary":"N","inPlanning":"N","isClosed":"N","openToPublic":"Y","locationType":"restaurant","locationTypeDisplay":"Restaurant/Ale House","countryIsoCode":"US","yearOpened":"1995","status":"verified","statusDisplay":"Verified","createDate":"2012-01-03 02:42:15","updateDate":"2014-07-23 19:11:34","country":{"isoCode":"US","name":"UNITED STATES","displayName":"United States","isoThree":"USA","numberCode":840,"createDate":"2012-01-03 02:41:33"}},{"id":"02Ne4w","name":"Main Brewery","streetAddress":"2050 Highway 4","locality":"Arnold","region":"California","postalCode":"95223","phone":"209-795-2272","website":"http://www.snowshoebrewing.com/","latitude":38.242202,"longitude":-120.361279,"isPrimary":"Y","inPlanning":"N","isClosed":"N","openToPublic":"N","locationType":"micro","locationTypeDisplay":"Micro Brewery","countryIsoCode":"US","status":"verified","statusDisplay":"Verified","createDate":"2012-01-03 02:42:15","updateDate":"2014-07-23 19:11:34","country":{"isoCode":"US","name":"UNITED STATES","displayName":"United States","isoThree":"USA","numberCode":840,"createDate":"2012-01-03 02:41:33"}},{"id":"6txGoK","name":"Snowy Mountain Pub & Brewery","streetAddress":"601 Pic Pike Rd","extendedAddress":"PO Box 869","locality":"Saratoga","region":"Wyoming","postalCode":"82331","phone":"307-760-2302","website":"http://www.saratogaresortandspa.com/","hoursOfOperation":"Hours: 3 PM â€“ 9 PM","latitude":41.4534072,"longitude":-106.8020015,"isPrimary":"Y","inPlanning":"N","isClosed":"N","openToPublic":"Y","locationType":"brewpub","locationTypeDisplay":"Brewpub","countryIsoCode":"US","status":"verified","statusDisplay":"Verified","createDate":"2012-01-03 02:42:08","updateDate":"2014-07-23 19:11:34","country":{"isoCode":"US","name":"UNITED STATES","displayName":"United States","isoThree":"USA","numberCode":840,"createDate":"2012-01-03 02:41:33"}},{"id":"JiKMgI","name":"Main Brewery","streetAddress":"219 Govenor's Square","locality":"Bear","region":"Delaware","postalCode":"19701","phone":"302-836-2739","website":"http://stewartsbrewingcompany.com/","hoursOfOperation":"Open every day from 11:00am-1:00am","latitude":39.631737,"longitude":-75.662736,"isPrimary":"Y","inPlanning":"N","isClosed":"N","openToPublic":"Y","locationType":"micro","locationTypeDisplay":"Micro Brewery","countryIsoCode":"US","yearOpened":"1995","status":"verified","statusDisplay":"Verified","createDate":"2012-01-03 02:42:09","updateDate":"2014-07-23 19:11:34","country":{"isoCode":"US","name":"UNITED STATES","displayName":"United States","isoThree":"USA","numberCode":840,"createDate":"2012-01-03 02:41:33"}},{"id":"LHQ79n","name":"Main Brewery","streetAddress":"8377 Pearl Road","locality":"Strongsville","region":"Ohio","postalCode":"44136","phone":"440-239-8788","hoursOfOperation":"Brewery:\r\nMon-Fri: 1:30 - 9pm\r\nSat: 9am - 6pm\r\n\r\nRestaurant\r\nMon-Thu: 11:30am - 9pm\r\nFri-Sat: 11:30am - 10pm\r\nSun: 1pm-8pm\r\n\r\nPub\r\nMon-Thu: 11pm or later\r\nFri-Sat: til 12am\r\nSun: 1pm - 9pm","latitude":41.347018,"longitude":-81.822588,"isPrimary":"Y","inPlanning":"N","isClosed":"N","openToPublic":"Y","locationType":"brewpub","locationTypeDisplay":"Brewpub","countryIsoCode":"US","yearOpened":"1995","status":"verified","statusDisplay":"Verified","createDate":"2012-01-03 02:41:48","updateDate":"2014-07-23 19:11:34","country":{"isoCode":"US","name":"UNITED STATES","displayName":"United States","isoThree":"USA","numberCode":840,"createDate":"2012-01-03 02:41:33"}},{"id":"SZEQ8h","name":"Main Brewery","streetAddress":"610 Third Street","locality":"Santa Rosa","region":"California","postalCode":"95404","phone":"707-523-3060","website":"http://www.thirdstreetaleworks.com","hoursOfOperation":"Sunday-Thursday: 11:30 AM - Midnight\r\nFriday-Saturday:  11:30 AM - 1:00 AM","latitude":38.439829,"longitude":-122.712481,"isPrimary":"Y","inPlanning":"N","isClosed":"N","openToPublic":"Y","locationType":"brewpub","locationTypeDisplay":"Brewpub","countryIsoCode":"US","status":"verified","statusDisplay":"Verified","createDate":"2012-01-03 02:42:10","updateDate":"2014-07-23 19:11:34","country":{"isoCode":"US","name":"UNITED STATES","displayName":"United States","isoThree":"USA","numberCode":840,"createDate":"2012-01-03 02:41:33"}},{"id":"MTMrkT","name":"Main Brewery","streetAddress":"850 Kolu Street #7","locality":"Wailuku","region":"Hawaii","postalCode":"96793","latitude":20.903923,"longitude":-156.488025,"isPrimary":"Y","inPlanning":"N","isClosed":"Y","openToPublic":"Y","locationType":"micro","locationTypeDisplay":"Micro Brewery","countryIsoCode":"US","yearOpened":"1995","status":"verified","statusDisplay":"Verified","createDate":"2012-01-03 02:42:10","updateDate":"2014-07-23 19:11:34","country":{"isoCode":"US","name":"UNITED STATES","displayName":"United States","isoThree":"USA","numberCode":840,"createDate":"2012-01-03 02:41:33"}},{"id":"ZmzTFU","name":"Princeton","streetAddress":"138 Nassau Street","locality":"Princeton","region":"New Jersey","postalCode":"08542","phone":"609- 924-7855","website":"http://www.triumphbrewing.com/princeton/","hoursOfOperation":"Monday-Thursday: 11am-1:00am\r\nFriday-Saturday: 11am-2:00am\r\nSunday: Noon-Midnight","latitude":40.350749,"longitude":-74.658328,"isPrimary":"Y","inPlanning":"N","isClosed":"N","openToPublic":"Y","locationType":"brewpub","locationTypeDisplay":"Brewpub","countryIsoCode":"US","status":"verified","statusDisplay":"Verified","createDate":"2012-01-03 02:42:11","updateDate":"2014-09-26 13:57:57","country":{"isoCode":"US","name":"UNITED STATES","displayName":"United States","isoThree":"USA","numberCode":840,"createDate":"2012-01-03 02:41:33"}},{"id":"VRfOfL","name":"New Hope","streetAddress":"400 Union Sq. Drive","locality":"New Hope","region":"Pennsylvania","postalCode":"18938","phone":"215-862-8300","website":"http://www.triumphbrewing.com/new-hope/","hoursOfOperation":"Mon-Wed: 11:30am-1:00am\r\nThurs-Sat: 11:30am-2:00am\r\nSun: Noon-Midnight","latitude":40.366223,"longitude":-74.954367,"isPrimary":"N","inPlanning":"N","isClosed":"N","openToPublic":"Y","locationType":"brewpub","locationTypeDisplay":"Brewpub","countryIsoCode":"US","status":"verified","statusDisplay":"Verified","createDate":"2012-01-03 02:42:16","updateDate":"2014-07-23 19:11:34","country":{"isoCode":"US","name":"UNITED STATES","displayName":"United States","isoThree":"USA","numberCode":840,"createDate":"2012-01-03 02:41:33"}},{"id":"KBuGWA","name":"Old City","streetAddress":"117 Chestnut Street","locality":"Philadelphia","region":"Pennsylvania","postalCode":"19106","phone":"(215) 625-0855","website":"http://www.triumphbrewing.com/philadelphia/","hoursOfOperation":"Mon:  4:00pm - 1:00am\nTue:  4:00pm - 1:00am\nWed:  4:00pm - 1:00am\nThu:  4:00pm - 1:00am\nFri:  11:30am - 2:00am\nSat:  11:30am - 2:00am\nSun:  11:30am - 12:00am\n\n","latitude":39.948506,"longitude":-75.143475,"isPrimary":"N","inPlanning":"N","isClosed":"Y","openToPublic":"N","locationType":"brewpub","locationTypeDisplay":"Brewpub","countryIsoCode":"US","status":"verified","statusDisplay":"Verified","createDate":"2012-06-22 18:06:39","updateDate":"2014-08-23 16:39:42","country":{"isoCode":"US","name":"UNITED STATES","displayName":"United States","isoThree":"USA","numberCode":840,"createDate":"2012-01-03 02:41:33"}},{"id":"shE7Vg","name":"Main Brewery","streetAddress":"3201 Walnut Street","extendedAddress":"Ste A","locality":"Boulder","region":"Colorado","postalCode":"80301","phone":"303-786-9270","website":"http://www.twistedpinebrewing.com/","hoursOfOperation":"Mon - Fri: 11:00 am - 9:00 pm\r\nSat: 12:00 pm - 9:00 pm\r\nSun: 12:00 am - 8:00 pm","latitude":40.0201037,"longitude":-105.2513953,"isPrimary":"Y","inPlanning":"N","isClosed":"N","openToPublic":"Y","locationType":"micro","locationTypeDisplay":"Micro Brewery","countryIsoCode":"US","yearOpened":"1995","status":"verified","statusDisplay":"Verified","createDate":"2012-01-03 02:42:11","updateDate":"2014-07-23 19:11:34","country":{"isoCode":"US","name":"UNITED STATES","displayName":"United States","isoThree":"USA","numberCode":840,"createDate":"2012-01-03 02:41:33"}},{"id":"xmaedo","name":"Main Brewery","streetAddress":"119 South Front Street","locality":"Marquette","region":"Michigan","postalCode":"49855","phone":"906-228-3533","website":"http://thevierling.com/","latitude":46.5430521,"longitude":-87.3928728,"isPrimary":"Y","inPlanning":"N","isClosed":"N","openToPublic":"Y","locationType":"brewpub","locationTypeDisplay":"Brewpub","countryIsoCode":"US","yearOpened":"1995","status":"verified","statusDisplay":"Verified","createDate":"2012-01-03 02:42:12","updateDate":"2014-07-23 19:11:34","country":{"isoCode":"US","name":"UNITED STATES","displayName":"United States","isoThree":"USA","numberCode":840,"createDate":"2012-01-03 02:41:33"}},{"id":"CQ2Gwg","name":"Main Brewery","streetAddress":"1254 7th St W","locality":"St Paul","region":"Minnesota","postalCode":"55102","phone":"651-228-1355","website":"http://www.vinepark.com/","hoursOfOperation":"Tue - Thu:\t12:00 pm - 8:00 pm\r\nFri:\t12:00 pm - 9:00 pm\r\nSat:\t9:00 am - 5:00 pm","latitude":44.922331,"longitude":-93.13448,"isPrimary":"Y","inPlanning":"N","isClosed":"N","openToPublic":"Y","locationType":"micro","locationTypeDisplay":"Micro Brewery","countryIsoCode":"US","status":"verified","statusDisplay":"Verified","createDate":"2012-01-03 02:42:12","updateDate":"2014-07-23 19:11:34","country":{"isoCode":"US","name":"UNITED STATES","displayName":"United States","isoThree":"USA","numberCode":840,"createDate":"2012-01-03 02:41:33"}},{"id":"Zb3xAC","name":"Main Brewery","streetAddress":"905 Line Street","locality":"Easton","region":"Pennsylvania","postalCode":"18042","phone":"(610) 559-5561","website":"http://www.weyerbacher.com/","hoursOfOperation":"Sat:  12:00pm - 3:00pm\n\n","latitude":40.673093,"longitude":-75.225856,"isPrimary":"Y","inPlanning":"N","isClosed":"N","openToPublic":"Y","locationType":"micro","locationTypeDisplay":"Micro Brewery","countryIsoCode":"US","yearOpened":"1995","status":"verified","statusDisplay":"Verified","createDate":"2012-01-03 02:42:13","updateDate":"2014-09-20 15:01:09","country":{"isoCode":"US","name":"UNITED STATES","displayName":"United States","isoThree":"USA","numberCode":840,"createDate":"2012-01-03 02:41:33"}},{"id":"TVCOly","name":"Main Brewery","streetAddress":"135 Main Street North","locality":"Woodstock","region":"New Hampshire","postalCode":"03262","phone":"800-321-3985","website":"http://www.woodstockinnnh.com/","hoursOfOperation":"Open 11:30am-10pm Daily \r\nPlease call ahead for offseason hours","latitude":44.0323926,"longitude":-71.6868168,"isPrimary":"Y","inPlanning":"N","isClosed":"N","openToPublic":"Y","locationType":"brewpub","locationTypeDisplay":"Brewpub","countryIsoCode":"US","yearOpened":"1995","status":"verified","statusDisplay":"Verified","createDate":"2012-01-03 02:42:13","updateDate":"2014-07-23 19:11:34","country":{"isoCode":"US","name":"UNITED STATES","displayName":"United States","isoThree":"USA","numberCode":840,"createDate":"2012-01-03 02:41:33"}}]