[{"id":"WDrFlD","name":"Main Brewery","streetAddress":"4765 NE Fremont St","locality":"Portland","region":"Oregon","postalCode":"97213","phone":"503-460-9025","website":"http://www.alamedabrewhouse.com/","hoursOfOperation":"Mon:  11:00am - 11:00pm\nTue:  11:00am - 11:00pm\nWed:  11:00am - 11:00pm\nThu:  11:00am - 11:00pm\nFri:  11:00am - 12:00am\nSat:  11:00am - 12:00am\nSun:  11:00am - 11:00pm\n\nMon - Thu:11:00 am - 11:00 pm\r\nFri - Sat:11:00 am - 12:00 am\r\nSun:11:00 am - 11:00 pm","latitude":45.5484823,"longitude":-122.613645,"isPrimary":"Y","inPlanning":"N","isClosed":"N","openToPublic":"Y","locationType":"brewpub","locationTypeDisplay":"Brewpub","countryIsoCode":"US","yearOpened":"1996","status":"verified","statusDisplay":"Verified","createDate":"2012-01-03 02:41:43","updateDate":"2014-08-25 19:12:26","country":{"isoCode":"US","name":"UNITED STATES","displayName":"United States","isoThree":"USA","numberCode":840,"createDate":"2012-01-03 02:41:33"}},{"id":"Uu2ExM","name":"Main Brewery","streetAddress":"205 North Broadway","locality":"Aurora","region":"Illinois","postalCode":"60505","phone":"630-264-2739","website":"http://www.rh34.com/","latitude":41.760709,"longitude":-88.309777,"isPrimary":"Y","inPlanning":"N","isClosed":"Y","openToPublic":"N","locationType":"micro","locationTypeDisplay":"Micro Brewery","countryIsoCode":"US","yearOpened":"1996","yearClosed":"2012","status":"verified","statusDisplay":"Verified","createDate":"2012-01-03 02:41:44","updateDate":"2014-07-23 19:11:34","country":{"isoCode":"US","name":"UNITED STATES","displayName":"United States","isoThree":"USA","numberCode":840,"createDate":"2012-01-03 02:41:33"}},{"id":"Vibk8A","name":"Main Brewery","streetAddress":"103 West Michigan Avenue","locality":"Battle Creek","region":"Michigan","postalCode":"49017","phone":"269-963-9690","website":"http://www.arcadiaales.com/","latitude":42.3219871,"longitude":-85.185145,"isPrimary":"N","inPlanning":"N","isClosed":"N","openToPublic":"Y","locationType":"micro","locationTypeDisplay":"Micro Brewery","countryIsoCode":"US","yearOpened":"1996","status":"verified","statusDisplay":"Verified","createDate":"2012-01-03 02:41:44","updateDate":"2014-08-20 12:11:33","country":{"isoCode":"US","name":"UNITED STATES","displayName":"United States","isoThree":"USA","numberCode":840,"createDate":"2012-01-03 02:41:33"}},{"id":"8Uwsc3","name":"Arcadia Brewing Company Kalamazoo","streetAddress":"701 E. Michigan","locality":"Kalamazoo","region":"Michigan","postalCode":"49007","phone":"(269) 963-9520","website":"http://www.arcadiaales.com/","hoursOfOperation":"Tue:  12:00pm - 1:00am\nWed:  12:00pm - 1:00am\nThu:  12:00pm - 1:00am\nFri:  12:00pm - 1:00am\nSat:  12:00pm - 1:00am\nSun:  12:00pm - 9:00pm\n\n","latitude":42.2947549,"longitude":-85.5725225,"isPrimary":"Y","inPlanning":"N","isClosed":"N","openToPublic":"Y","locationType":"micro","locationTypeDisplay":"Micro Brewery","countryIsoCode":"US","yearOpened":"2014","status":"verified","statusDisplay":"Verified","createDate":"2014-08-19 22:47:27","updateDate":"2014-08-20 12:11:33","country":{"isoCode":"US","name":"UNITED STATES","displayName":"United States","isoThree":"USA","numberCode":840,"createDate":"2012-01-03 02:41:33"}},{"id":"NULflH","name":"Main Brewery","streetAddress":"310 Perry Street","locality":"LaPorte","region":"Indiana","postalCode":"46350","phone":"1-219-362-7623","website":"http://www.backroadbrewery.com/","hoursOfOperation":"Thu:  4:00pm - 6:00pm\nFri:  4:00pm - 6:00pm\nSat:  1:00pm - 4:00pm\nSun:  2:00pm - 4:00pm\n\nThurs - Fri: 4:00 to 6:00 PM\r\nSaturday 1:00 to 4:00 PM\r\nSunday 2:00 to 4:00 PM","latitude":41.6120972,"longitude":-86.7265462,"isPrimary":"Y","inPlanning":"N","isClosed":"N","openToPublic":"Y","locationType":"micro","locationTypeDisplay":"Micro Brewery","countryIsoCode":"US","yearOpened":"1996","status":"verified","statusDisplay":"Verified","createDate":"2012-01-03 02:41:44","updateDate":"2014-09-29 20:33:43","country":{"isoCode":"US","name":"UNITED STATES","displayName":"United States","isoThree":"USA","numberCode":840,"createDate":"2012-01-03 02:41:33"}},{"id":"c7nI49","name":"Main Brewery","streetAddress":"720 Main Street","locality":"Frisco","region":"Colorado","postalCode":"80443","phone":"970-668-2337","website":"http://www.backcountrybrewery.com/","hoursOfOperation":"Fri:  11:30am - 12:00am\nSat:  11:30am - 12:00am\nSun:  11:30am - 11:00pm\n\n11:30 a.m. - Midnight Friday & Saturday\r\n11:30 a.m. - 11 p.m. Sunday - Thursday","latitude":39.576395,"longitude":-106.092854,"isPrimary":"Y","inPlanning":"N","isClosed":"N","openToPublic":"Y","locationType":"micro","locationTypeDisplay":"Micro Brewery","countryIsoCode":"US","yearOpened":"1996","status":"verified","statusDisplay":"Verified","createDate":"2012-01-03 02:41:44","updateDate":"2014-09-29 20:33:43","country":{"isoCode":"US","name":"UNITED STATES","displayName":"United States","isoThree":"USA","numberCode":840,"createDate":"2012-01-03 02:41:33"}},{"id":"PckBjw","name":"Home Brew Mart","streetAddress":"5401 Linda Vista Road","extendedAddress":"#406","locality":"San Diego","region":"California","postalCode":"92110","phone":"(619) 295-2337","website":"http://www.ballastpoint.com/","hoursOfOperation":"Tasting Room & Store Hours\r\nMonday-Friday, 11:00-7:00\r\nSaturday-Sunday, 10:00-5:00","latitude":32.7667586,"longitude":-117.1952129,"isPrimary":"N","inPlanning":"N","isClosed":"N","openToPublic":"Y","locationType":"tasting","locationTypeDisplay":"Tasting Room","countryIsoCode":"US","yearOpened":"1996","status":"verified","statusDisplay":"Verified","createDate":"2012-01-03 02:41:45","updateDate":"2014-09-29 20:33:49","country":{"isoCode":"US","name":"UNITED STATES","displayName":"United States","isoThree":"USA","numberCode":840,"createDate":"2012-01-03 02:41:33"}},{"id":"a7VHpi","name":"Main Brewery","streetAddress":"10051 Old Grove Rd","locality":"San Diego","region":"California","postalCode":"92131","phone":"(858) 695-2739","website":"http://www.ballastpoint.com/","latitude":32.898466,"longitude":-117.110794,"isPrimary":"Y","inPlanning":"N","isClosed":"N","openToPublic":"Y","locationType":"micro","locationTypeDisplay":"Micro Brewery","countryIsoCode":"US","status":"verified","statusDisplay":"Verified","createDate":"2012-12-07 00:05:42","updateDate":"2014-10-13 14:28:49","country":{"isoCode":"US","name":"UNITED STATES","displayName":"United States","isoThree":"USA","numberCode":840,"createDate":"2012-01-03 02:41:33"}},{"id":"cLcfTf","name":"Tasting Room & Kitchen","streetAddress":"2215 India St","locality":"San Diego","region":"California","postalCode":"92101","phone":"(619) 255-7213","website":"http://www.ballastpoint.com/","hoursOfOperation":"Mon:  11:00am - 11:00pm\nTue:  11:00am - 11:00pm\nWed:  11:00am - 11:00pm\nThu:  11:00am - 11:00pm\nFri:  11:00am - 11:00pm\nSat:  11:00am - 11:00pm\nSun:  11:00am - 9:00pm\n\nMon–Fri 11:00am–11:00pm\r\nSaturday 11:00am–11:00pm\r\nSunday 11:00am–9:00pm","latitude":32.7277143,"longitude":-117.1697202,"isPrimary":"N","inPlanning":"N","isClosed":"N","openToPublic":"Y","locationType":"tasting","locationTypeDisplay":"Tasting Room","countryIsoCode":"US","status":"verified","statusDisplay":"Verified","createDate":"2014-03-21 12:03:59","updateDate":"2014-09-29 20:33:51","country":{"isoCode":"US","name":"UNITED STATES","displayName":"United States","isoThree":"USA","numberCode":840,"createDate":"2012-01-03 02:41:33"}},{"id":"uWmQhI","name":"Main Brewery","streetAddress":"100 Searsport Avenue","locality":"Belfast","region":"Maine","postalCode":"04915","phone":"207-338-4216","website":"http://www.belfastbaybrewing.com/","latitude":44.4294969,"longitude":-68.9749618,"isPrimary":"Y","inPlanning":"N","isClosed":"N","openToPublic":"Y","locationType":"micro","locationTypeDisplay":"Micro Brewery","countryIsoCode":"US","status":"verified","statusDisplay":"Verified","createDate":"2012-01-03 02:41:45","updateDate":"2014-09-26 12:59:13","country":{"isoCode":"US","name":"UNITED STATES","displayName":"United States","isoThree":"USA","numberCode":840,"createDate":"2012-01-03 02:41:33"}},{"id":"1kXTo5","name":"Main Brewery","streetAddress":"Piazza V Luglio, 15","locality":"Piozzo","phone":"39-0173-795431","latitude":44.5154291,"longitude":7.8921316,"isPrimary":"Y","inPlanning":"N","isClosed":"N","openToPublic":"Y","locationType":"micro","locationTypeDisplay":"Micro Brewery","countryIsoCode":"IT","status":"verified","statusDisplay":"Verified","createDate":"2012-01-03 02:41:46","updateDate":"2014-07-23 19:11:34","country":{"isoCode":"IT","name":"ITALY","displayName":"Italy","isoThree":"ITA","numberCode":380,"createDate":"2012-01-03 02:41:33"}},{"id":"4BIPp5","name":"Brewpub Lambrate","streetAddress":"Via Adelchi 5","locality":"Milan","region":"Milano","website":"http://www.birrificiolambrate.com/html/adelchi_pub.php?lang=eng&y=adelchi","latitude":45.4856085,"longitude":9.2316046,"isPrimary":"Y","inPlanning":"N","isClosed":"N","openToPublic":"Y","locationType":"brewpub","locationTypeDisplay":"Brewpub","countryIsoCode":"IT","status":"verified","statusDisplay":"Verified","createDate":"2014-01-26 11:20:11","updateDate":"2014-07-23 19:11:34","country":{"isoCode":"IT","name":"ITALY","displayName":"Italy","isoThree":"ITA","numberCode":380,"createDate":"2012-01-03 02:41:33"}},{"id":"gV1DyW","name":"Pub Lambrate","streetAddress":"Via Golgi 60","locality":"Milan","region":"Milano","website":"http://www.birrificiolambrate.com/html/golgi_pub.php?lang=eng&y=golgi","latitude":45.4802978,"longitude":9.2343719,"isPrimary":"N","inPlanning":"N","isClosed":"N","openToPublic":"Y","locationType":"restaurant","locationTypeDisplay":"Restaurant/Ale House","countryIsoCode":"IT","yearOpened":"2012","status":"verified","statusDisplay":"Verified","createDate":"2014-01-26 11:21:42","updateDate":"2014-07-23 19:11:34","country":{"isoCode":"IT","name":"ITALY","displayName":"Italy","isoThree":"ITA","numberCode":380,"createDate":"2012-01-03 02:41:33"}},{"id":"DkL4VF","name":"Main Brewery","streetAddress":"625 Paonia Street","locality":"Colorado Springs","region":"Colorado","postalCode":"80915","latitude":38.841249,"longitude":-104.7167769,"isPrimary":"Y","inPlanning":"N","isClosed":"Y","openToPublic":"Y","locationType":"micro","locationTypeDisplay":"Micro Brewery","countryIsoCode":"US","yearOpened":"1996","status":"verified","statusDisplay":"Verified","createDate":"2012-01-03 02:41:46","updateDate":"2014-07-23 19:11:34","country":{"isoCode":"US","name":"UNITED STATES","displayName":"United States","isoThree":"USA","numberCode":840,"createDate":"2012-01-03 02:41:33"}},{"id":"uKquc0","name":"Main Brewery","streetAddress":"1414 South Alamo","extendedAddress":"Suite 105","locality":"San Antonio","region":"Texas","postalCode":"78210","phone":"210-212-5506","website":"http://www.bluestarbrewing.com/","latitude":29.4103032,"longitude":-98.4952838,"isPrimary":"Y","inPlanning":"N","isClosed":"N","openToPublic":"Y","locationType":"micro","locationTypeDisplay":"Micro Brewery","countryIsoCode":"US","yearOpened":"1996","status":"verified","statusDisplay":"Verified","createDate":"2012-01-03 02:41:47","updateDate":"2014-07-23 19:11:34","country":{"isoCode":"US","name":"UNITED STATES","displayName":"United States","isoThree":"USA","numberCode":840,"createDate":"2012-01-03 02:41:33"}},{"id":"g0jHqt","name":"Main Brewery","streetAddress":"Route de La Marana","locality":"Furiani","region":"Corse","postalCode":"20600","phone":"+33 (0)4 95 30 14 70","website":"http://www.brasseriepietra.com/","latitude":42.658414,"longitude":9.415856,"isPrimary":"Y","inPlanning":"N","isClosed":"N","openToPublic":"Y","locationType":"micro","locationTypeDisplay":"Micro Brewery","countryIsoCode":"FR","yearOpened":"1996","status":"verified","statusDisplay":"Verified","createDate":"2012-01-03 02:41:48","updateDate":"2014-07-23 19:11:34","country":{"isoCode":"FR","name":"FRANCE","displayName":"France","isoThree":"FRA","numberCode":250,"createDate":"2012-01-03 02:41:33"}},{"id":"05F4ua","name":"Main Brewery","streetAddress":"Bahnhofstraße 33","locality":"Landsberg","region":"Sachsen-Anhalt","postalCode":"06188","latitude":51.52142,"longitude":12.10909,"isPrimary":"N","inPlanning":"N","isClosed":"N","openToPublic":"Y","locationType":"micro","locationTypeDisplay":"Micro Brewery","countryIsoCode":"DE","status":"verified","statusDisplay":"Verified","createDate":"2012-08-12 14:46:03","updateDate":"2014-07-23 19:11:34","country":{"isoCode":"DE","name":"GERMANY","displayName":"Germany","isoThree":"DEU","numberCode":276,"createDate":"2012-01-03 02:41:33"}},{"id":"gfkv1L","name":"Main Brewery","streetAddress":"Erfurter Straße 102","locality":"Jena","region":"Thüringen","postalCode":"07743","latitude":50.9375,"longitude":11.55748,"isPrimary":"N","inPlanning":"N","isClosed":"N","openToPublic":"Y","locationType":"micro","locationTypeDisplay":"Micro Brewery","countryIsoCode":"DE","status":"verified","statusDisplay":"Verified","createDate":"2012-08-12 14:46:20","updateDate":"2014-07-23 19:11:34","country":{"isoCode":"DE","name":"GERMANY","displayName":"Germany","isoThree":"DEU","numberCode":276,"createDate":"2012-01-03 02:41:33"}},{"id":"Qs29uy","name":"Main Brewery","streetAddress":"124 North Market Street","locality":"Frederick","region":"Maryland","postalCode":"21701","phone":"301-631-0089","website":"http://www.brewers-alley.com","latitude":39.4156043,"longitude":-77.4107676,"isPrimary":"Y","inPlanning":"N","isClosed":"N","openToPublic":"Y","locationType":"brewpub","locationTypeDisplay":"Brewpub","countryIsoCode":"US","yearOpened":"1996","status":"verified","statusDisplay":"Verified","createDate":"2012-01-03 02:41:48","updateDate":"2014-07-23 19:11:34","country":{"isoCode":"US","name":"UNITED STATES","displayName":"United States","isoThree":"USA","numberCode":840,"createDate":"2012-01-03 02:41:33"}},{"id":"LzJB9t","name":"Main Brewery","streetAddress":"Potterstraat 10","region":"Sint Pauwels","postalCode":"9170","phone":"+32 (0)3 7779827","website":"http://www.brouwerijdecock.com/","latitude":51.192917,"longitude":4.098827,"isPrimary":"Y","inPlanning":"N","isClosed":"N","openToPublic":"Y","locationType":"micro","locationTypeDisplay":"Micro Brewery","countryIsoCode":"BE","status":"verified","statusDisplay":"Verified","createDate":"2012-11-02 11:05:16","updateDate":"2014-07-23 19:11:34","country":{"isoCode":"BE","name":"BELGIUM","displayName":"Belgium","isoThree":"BEL","numberCode":56,"createDate":"2012-01-03 02:41:33"}},{"id":"PrX8es","name":"Main Brewery","streetAddress":"136 West Grand Avenue #245","locality":"Beloit","region":"Wisconsin","postalCode":"53511","latitude":42.5013359,"longitude":-89.0373992,"isPrimary":"Y","inPlanning":"N","isClosed":"Y","openToPublic":"Y","locationType":"micro","locationTypeDisplay":"Micro Brewery","countryIsoCode":"US","yearOpened":"1996","status":"verified","statusDisplay":"Verified","createDate":"2012-01-03 02:41:49","updateDate":"2014-07-23 19:11:34","country":{"isoCode":"US","name":"UNITED STATES","displayName":"United States","isoThree":"USA","numberCode":840,"createDate":"2012-01-03 02:41:33"}},{"id":"HdH4Hz","name":"Main Brewery","streetAddress":"540 Clover Lane","locality":"Ashland","region":"Oregon","postalCode":"97520","phone":"1-541-482-4677","website":"http://www.calderabrewing.com","latitude":42.184409,"longitude":-122.663147,"isPrimary":"Y","inPlanning":"N","isClosed":"N","openToPublic":"Y","locationType":"micro","locationTypeDisplay":"Micro Brewery","countryIsoCode":"US","status":"verified","statusDisplay":"Verified","createDate":"2012-01-03 02:41:50","updateDate":"2014-07-23 19:11:34","country":{"isoCode":"US","name":"UNITED STATES","displayName":"United States","isoThree":"USA","numberCode":840,"createDate":"2012-01-03 02:41:33"}},{"id":"Td4ez9","name":"Main Brewery","streetAddress":"6 Country Club Drive #37","extendedAddress":"PO Box 131","locality":"Moultonborough","region":"New Hampshire","postalCode":"03254","latitude":43.7551145,"longitude":-71.3965306,"isPrimary":"Y","inPlanning":"N","isClosed":"Y","openToPublic":"Y","locationType":"micro","locationTypeDisplay":"Micro Brewery","countryIsoCode":"US","yearOpened":"1996","yearClosed":"2002","status":"verified","statusDisplay":"Verified","createDate":"2012-01-03 02:41:50","updateDate":"2014-07-23 19:11:34","country":{"isoCode":"US","name":"UNITED STATES","displayName":"United States","isoThree":"USA","numberCode":840,"createDate":"2012-01-03 02:41:33"}},{"id":"YiRC7H","name":"Main Brewery","streetAddress":"8310 Craig Street","locality":"Indianapolis","region":"Indiana","postalCode":"46250","latitude":39.906743,"longitude":-86.053378,"isPrimary":"Y","inPlanning":"N","isClosed":"Y","openToPublic":"Y","locationType":"micro","locationTypeDisplay":"Micro Brewery","countryIsoCode":"US","yearOpened":"1996","status":"verified","statusDisplay":"Verified","createDate":"2012-01-03 02:41:51","updateDate":"2014-07-23 19:11:34","country":{"isoCode":"US","name":"UNITED STATES","displayName":"United States","isoThree":"USA","numberCode":840,"createDate":"2012-01-03 02:41:33"}},{"id":"AWuUdf","name":"Main Brewery","streetAddress":"700 East Grand Avenue","locality":"Carbondale","region":"Illinois","postalCode":"62901","phone":"618-549-3348","latitude":37.7175765,"longitude":-89.2069645,"isPrimary":"Y","inPlanning":"N","isClosed":"N","openToPublic":"Y","locationType":"micro","locationTypeDisplay":"Micro Brewery","countryIsoCode":"US","yearOpened":"1996","status":"verified","statusDisplay":"Verified","createDate":"2012-01-03 02:41:51","updateDate":"2014-07-23 19:11:34","country":{"isoCode":"US","name":"UNITED STATES","displayName":"United States","isoThree":"USA","numberCode":840,"createDate":"2012-01-03 02:41:33"}},{"id":"Li8aA1","name":"Main Brewery","streetAddress":"170 Orange Avenue","locality":"Coronado","region":"California","postalCode":"92118","phone":"619-437-4452","website":"http://www.coronadobrewingcompany.com/","hoursOfOperation":"Sun:  10:30am - 9:00pm\r\nFri:  10:30am - 10:00pm\r\nSat:  10:30am - 10:00pm","latitude":32.6977714,"longitude":-117.1732032,"isPrimary":"Y","inPlanning":"N","isClosed":"N","openToPublic":"Y","locationType":"brewpub","locationTypeDisplay":"Brewpub","countryIsoCode":"US","status":"verified","statusDisplay":"Verified","createDate":"2012-01-03 02:41:51","updateDate":"2014-10-13 14:23:55","country":{"isoCode":"US","name":"UNITED STATES","displayName":"United States","isoThree":"USA","numberCode":840,"createDate":"2012-01-03 02:41:33"}},{"id":"DNC4cQ","name":"Tasting Room","streetAddress":"1205 Knoxville St","locality":"San Diego","region":"California","postalCode":"92110","phone":"(619) 275-2215","website":"http://coronadobrewingcompany.com","hoursOfOperation":"Mon-Fri: 1pm – 9pm\r\nSat: 11am – 9:30pm\r\nSun: 11am – 8pm\r\nHappy Hour M-F: 1-6pm","latitude":32.771771,"longitude":-117.204683,"isPrimary":"N","inPlanning":"N","isClosed":"N","openToPublic":"Y","locationType":"tasting","locationTypeDisplay":"Tasting Room","countryIsoCode":"US","status":"verified","statusDisplay":"Verified","createDate":"2013-05-08 12:18:52","updateDate":"2014-07-23 19:11:34","country":{"isoCode":"US","name":"UNITED STATES","displayName":"United States","isoThree":"USA","numberCode":840,"createDate":"2012-01-03 02:41:33"}},{"id":"RIkcvC","name":"Main Brewery","streetAddress":"100 Mechanic Street","locality":"Pawcatuck","region":"Connecticut","postalCode":"06379","phone":"860-599-8213","website":"http://www.cottrellbrewing.com/","hoursOfOperation":"Mon - Fri:\t9:00 am\t-\t4:00 pm","latitude":41.3706339,"longitude":-71.8343802,"isPrimary":"Y","inPlanning":"N","isClosed":"N","openToPublic":"Y","locationType":"micro","locationTypeDisplay":"Micro Brewery","countryIsoCode":"US","yearOpened":"1996","status":"verified","statusDisplay":"Verified","createDate":"2012-01-03 02:41:51","updateDate":"2014-07-23 19:11:34","country":{"isoCode":"US","name":"UNITED STATES","displayName":"United States","isoThree":"USA","numberCode":840,"createDate":"2012-01-03 02:41:33"}},{"id":"7tGT1x","name":"Main Brewery","streetAddress":"330 SW Constitution Avenue","locality":"Peoria","region":"Illinois","postalCode":"61604","latitude":40.686959,"longitude":-89.590368,"isPrimary":"Y","inPlanning":"N","isClosed":"Y","openToPublic":"N","locationType":"micro","locationTypeDisplay":"Micro Brewery","countryIsoCode":"US","yearOpened":"1996","status":"verified","statusDisplay":"Verified","createDate":"2012-01-03 02:41:52","updateDate":"2014-10-10 15:12:27","country":{"isoCode":"US","name":"UNITED STATES","displayName":"United States","isoThree":"USA","numberCode":840,"createDate":"2012-01-03 02:41:33"}},{"id":"wCmrsY","name":"Main Brewery","streetAddress":"75 Visitors Center Drive","locality":"McHenry","region":"Maryland","postalCode":"21541","latitude":39.5609759,"longitude":-79.358667,"isPrimary":"Y","inPlanning":"N","isClosed":"Y","openToPublic":"Y","locationType":"micro","locationTypeDisplay":"Micro Brewery","countryIsoCode":"US","yearOpened":"1996","status":"verified","statusDisplay":"Verified","createDate":"2012-01-03 02:41:52","updateDate":"2014-07-23 19:11:34","country":{"isoCode":"US","name":"UNITED STATES","displayName":"United States","isoThree":"USA","numberCode":840,"createDate":"2012-01-03 02:41:33"}},{"id":"EighDS","name":"Main Brewery","streetAddress":"Hauptstraße 12","locality":"Neuendorf","region":"Sachsen-Anhalt","postalCode":"D-38486","latitude":52.62653,"longitude":11.160882,"isPrimary":"N","inPlanning":"N","isClosed":"N","openToPublic":"Y","locationType":"micro","locationTypeDisplay":"Micro Brewery","countryIsoCode":"DE","status":"verified","statusDisplay":"Verified","createDate":"2012-08-12 14:46:04","updateDate":"2014-07-23 19:11:34","country":{"isoCode":"DE","name":"GERMANY","displayName":"Germany","isoThree":"DEU","numberCode":276,"createDate":"2012-01-03 02:41:33"}},{"id":"usxr4h","name":"Main Brewery","extendedAddress":"PO Box 141156","locality":"Cincinnati","region":"Ohio","postalCode":"45250","latitude":39.106539,"longitude":-84.504193,"isPrimary":"Y","inPlanning":"N","isClosed":"Y","openToPublic":"Y","locationType":"micro","locationTypeDisplay":"Micro Brewery","countryIsoCode":"US","yearOpened":"1996","status":"verified","statusDisplay":"Verified","createDate":"2012-01-03 02:41:52","updateDate":"2014-07-23 19:11:34","country":{"isoCode":"US","name":"UNITED STATES","displayName":"United States","isoThree":"USA","numberCode":840,"createDate":"2012-01-03 02:41:33"}},{"id":"rQkKIB","name":"Main Brewery","streetAddress":"724 East Prospect Avenue","locality":"Cleveland","region":"Ohio","postalCode":"44115","latitude":41.498398,"longitude":-81.687446,"isPrimary":"Y","inPlanning":"N","isClosed":"Y","openToPublic":"Y","locationType":"micro","locationTypeDisplay":"Micro Brewery","countryIsoCode":"US","yearOpened":"1996","status":"verified","statusDisplay":"Verified","createDate":"2012-01-03 02:41:52","updateDate":"2014-07-23 19:11:34","country":{"isoCode":"US","name":"UNITED STATES","displayName":"United States","isoThree":"USA","numberCode":840,"createDate":"2012-01-03 02:41:33"}},{"id":"V8LP7a","name":"Bel Air","streetAddress":"16 A Bel Air South Parkway","locality":"Bel Air","region":"Maryland","postalCode":"21015","phone":"410-515-3222","website":"http://www.duclaw.com/","hoursOfOperation":"Sun & Mon\t: \r\nDining Room: 11:00am - 10:00pm Pub:11:00am - 12:00am \r\n\r\nTue - Thu:\r\nDining Room: 11:00am - 10:00pm\r\npub: 11:00am - 2:00am\r\n\r\nFri & Sat:\r\nDinning Room: 11:00am - 11pm\r\nPub: 11:00am - 2:00am\r\n \t \r\nWe serve lite fare for one hour after the dining room closes each night.","latitude":39.496656,"longitude":-76.329843,"isPrimary":"Y","inPlanning":"N","isClosed":"N","openToPublic":"Y","locationType":"brewpub","locationTypeDisplay":"Brewpub","countryIsoCode":"US","yearOpened":"1996","status":"verified","statusDisplay":"Verified","createDate":"2012-01-03 02:42:14","updateDate":"2014-07-23 19:11:34","country":{"isoCode":"US","name":"UNITED STATES","displayName":"United States","isoThree":"USA","numberCode":840,"createDate":"2012-01-03 02:41:33"}},{"id":"n2527g","name":"Arundel Mills","streetAddress":"7000 Arundel Mills Circle","extendedAddress":"Suite R4","locality":"Hanover","region":"Maryland","postalCode":"21076","phone":"410-799-1166","website":"http://www.duclaw.com/","hoursOfOperation":"Sun & Mon:\r\nDining Room: 11:00am - 10:00pm \r\nPub: 11:00am - 12:00am\r\n \t \r\nTue - Thu:\r\nDining Room: 11:00am - 10:00pm\r\nPub: 11:00am - 2:00am\r\n \t \r\nFri & Sat:\r\nDining Room: 11:00am - 12:00am\r\nPub: 11:00am - 2:00am\r\n\r\nWe serve lite fare for one hour after the dining room closes each night.\r\n\r\n** No lite fare on Fri & Sat nights","latitude":39.162361,"longitude":-76.725448,"isPrimary":"N","inPlanning":"N","isClosed":"N","openToPublic":"Y","locationType":"brewpub","locationTypeDisplay":"Brewpub","countryIsoCode":"US","yearOpened":"1996","status":"verified","statusDisplay":"Verified","createDate":"2012-01-26 23:13:39","updateDate":"2014-07-23 19:11:34","country":{"isoCode":"US","name":"UNITED STATES","displayName":"United States","isoThree":"USA","numberCode":840,"createDate":"2012-01-03 02:41:33"}},{"id":"PLnqH7","name":"Bowie Town Center","streetAddress":"4000 Town Center Blvd.","locality":"Bowie","region":"Maryland","postalCode":"20716","phone":"301-809-6943","website":"http://www.duclaw.com/","hoursOfOperation":"Sun & Mon:\r\nDining Room: 11:00am - 10:00pm \r\nPub: 11:00am - 12:00am\r\n \t \r\nTue - Thu:\r\nDining Room: 11:00am - 10:00pm\r\nPub: 11:00am - 2:00am\r\n \t \r\nFri & Sat\t \r\nDining Room: 11:00am - 12:00am\r\nPub: 11:00am - 2:00am\r\n \t \r\nWe serve lite fare for one hour after the dining room closes each night.\r\n\r\n** No lite fare on Fri & Sat nights","latitude":38.945312,"longitude":-76.73419,"isPrimary":"N","inPlanning":"N","isClosed":"N","openToPublic":"Y","locationType":"brewpub","locationTypeDisplay":"Brewpub","countryIsoCode":"US","yearOpened":"1996","status":"verified","statusDisplay":"Verified","createDate":"2012-01-26 23:15:19","updateDate":"2014-07-23 19:11:34","country":{"isoCode":"US","name":"UNITED STATES","displayName":"United States","isoThree":"USA","numberCode":840,"createDate":"2012-01-03 02:41:33"}},{"id":"1fWeQY","name":"BWI Airport","streetAddress":"BWI Airport","extendedAddress":"Southwest Terminal","locality":"Baltimore","region":"Maryland","postalCode":"21240","phone":"410-850-4846 Ext. 2","website":"http://www.duclaw.com/","hoursOfOperation":"Sun -Sat: 7:00am - 10:00pm","latitude":39.18617,"longitude":-76.673509,"isPrimary":"N","inPlanning":"N","isClosed":"N","openToPublic":"Y","locationType":"brewpub","locationTypeDisplay":"Brewpub","countryIsoCode":"US","yearOpened":"1996","status":"verified","statusDisplay":"Verified","createDate":"2012-01-26 23:16:26","updateDate":"2014-07-23 19:11:34","country":{"isoCode":"US","name":"UNITED STATES","displayName":"United States","isoThree":"USA","numberCode":840,"createDate":"2012-01-03 02:41:33"}},{"id":"fkGj8m","name":"Main Brewery","streetAddress":"937 Douglas Ave.","locality":"Dunedin","region":"Florida","postalCode":"34698","phone":"727-736-0606","website":"http://www.dunedinbrewery.com/","latitude":28.013997,"longitude":-82.787635,"isPrimary":"Y","inPlanning":"N","isClosed":"N","openToPublic":"Y","locationType":"micro","locationTypeDisplay":"Micro Brewery","countryIsoCode":"US","yearOpened":"1996","status":"verified","statusDisplay":"Verified","createDate":"2012-01-03 02:41:53","updateDate":"2014-07-23 19:11:34","country":{"isoCode":"US","name":"UNITED STATES","displayName":"United States","isoThree":"USA","numberCode":840,"createDate":"2012-01-03 02:41:33"}},{"id":"7hKwwf","name":"Main Brewery","streetAddress":"330 Reid Street","locality":"De Pere","region":"Wisconsin","postalCode":"54115","latitude":44.4464993,"longitude":-88.0693587,"isPrimary":"Y","inPlanning":"N","isClosed":"Y","openToPublic":"Y","locationType":"micro","locationTypeDisplay":"Micro Brewery","countryIsoCode":"US","yearOpened":"1996","status":"verified","statusDisplay":"Verified","createDate":"2012-01-03 02:41:53","updateDate":"2014-07-23 19:11:34","country":{"isoCode":"US","name":"UNITED STATES","displayName":"United States","isoThree":"USA","numberCode":840,"createDate":"2012-01-03 02:41:33"}},{"id":"4YRPhu","name":"Main Brewery","streetAddress":"1400 Ramada Drive","locality":"Paso Robles","region":"California","postalCode":"93446","phone":"805-238-2556","website":"http://www.firestonewalker.com/","hoursOfOperation":"Tour Schedule:\r\n\r\nFriday at 10:30am, 11:30am, 12:30pm, 1:30pm, 2:30pm, 3:30pm\r\n\r\nSaturday at 10:30am, 11:30am, 12:30pm, 1:30pm, 2:30pm, 3:30pm\r\n\r\nSunday at 10:30am, 11:30am, 12:30pm, 1:30pm, 2:30pm, 3:30pm","latitude":35.5954123,"longitude":-120.6950281,"isPrimary":"Y","inPlanning":"N","isClosed":"N","openToPublic":"Y","locationType":"micro","locationTypeDisplay":"Micro Brewery","countryIsoCode":"US","yearOpened":"1996","status":"verified","statusDisplay":"Verified","createDate":"2012-01-03 02:41:54","updateDate":"2014-07-23 19:11:34","country":{"isoCode":"US","name":"UNITED STATES","displayName":"United States","isoThree":"USA","numberCode":840,"createDate":"2012-01-03 02:41:33"}},{"id":"WVVdVn","name":"Main Brewery","streetAddress":"1035 Sterling Avenue","locality":"Flossmoor","region":"Illinois","postalCode":"60422","phone":"708-957-BREW","website":"http://flossmoorstation.com/","latitude":41.5433443,"longitude":-87.678854,"isPrimary":"Y","inPlanning":"N","isClosed":"N","openToPublic":"Y","locationType":"brewpub","locationTypeDisplay":"Brewpub","countryIsoCode":"US","yearOpened":"1996","status":"verified","statusDisplay":"Verified","createDate":"2012-01-03 02:41:54","updateDate":"2014-07-23 19:11:34","country":{"isoCode":"US","name":"UNITED STATES","displayName":"United States","isoThree":"USA","numberCode":840,"createDate":"2012-01-03 02:41:33"}},{"id":"pPkHlz","name":"Main Brewery","streetAddress":"1340 E. 8th St.","extendedAddress":"#103","locality":"Tempe","region":"Arizona","postalCode":"85281","phone":"480-303-9967","website":"http://www.fourpeaks.com/","latitude":33.419419,"longitude":-111.915913,"isPrimary":"Y","inPlanning":"N","isClosed":"N","openToPublic":"Y","locationType":"micro","locationTypeDisplay":"Micro Brewery","countryIsoCode":"US","yearOpened":"1996","status":"verified","statusDisplay":"Verified","createDate":"2012-01-03 02:41:55","updateDate":"2014-07-23 19:11:34","country":{"isoCode":"US","name":"UNITED STATES","displayName":"United States","isoThree":"USA","numberCode":840,"createDate":"2012-01-03 02:41:33"}},{"id":"EjATyA","name":"Main Brewery","streetAddress":"737 W. 5th Avenue","extendedAddress":"Suite 110","locality":"Anchorage","region":"Alaska","postalCode":"99501","phone":"907-274-2739","website":"http://www.glacierbrewhouse.com/","hoursOfOperation":"Mon - Fri:\t11:00 am - 11:00 pm\r\nSat - Sun:\t10:00 am - 11:00 pm","latitude":61.217554,"longitude":-149.896751,"isPrimary":"Y","inPlanning":"N","isClosed":"N","openToPublic":"Y","locationType":"micro","locationTypeDisplay":"Micro Brewery","countryIsoCode":"US","status":"verified","statusDisplay":"Verified","createDate":"2012-01-03 02:41:55","updateDate":"2014-07-23 19:11:34","country":{"isoCode":"US","name":"UNITED STATES","displayName":"United States","isoThree":"USA","numberCode":840,"createDate":"2012-01-03 02:41:33"}},{"id":"i03iZu","name":"Main Brewery","streetAddress":"402 Seventh Street","locality":"Glenwood Springs","region":"Colorado","postalCode":"81601","phone":"(970) 945-1276","website":"http://glenwoodcanyonbrewpub.com/","hoursOfOperation":"Mon - Thu: 11:00 am - 11:00 pm\r\nFri - Sat: 11:00 am - 12:00 am\r\nSun: 11:00 am - 11:00 pm","latitude":39.547593,"longitude":-107.323142,"isPrimary":"Y","inPlanning":"N","isClosed":"N","openToPublic":"Y","locationType":"micro","locationTypeDisplay":"Micro Brewery","countryIsoCode":"US","yearOpened":"1996","status":"verified","statusDisplay":"Verified","createDate":"2012-01-03 02:41:55","updateDate":"2014-07-23 19:11:34","country":{"isoCode":"US","name":"UNITED STATES","displayName":"United States","isoThree":"USA","numberCode":840,"createDate":"2012-01-03 02:41:33"}},{"id":"v7knzd","name":"Main Brewery","streetAddress":"22 Park Place","locality":"Butler","region":"New Jersey","postalCode":"07405","phone":"973-838-7400","website":"http://www.ramsteinbeer.com/","hoursOfOperation":"Gift Shop & Tasting Room Hours: \r\nM-F 9am - 6:30pm \r\nSat 1pm - 4pm","latitude":41.0016015,"longitude":-74.3402902,"isPrimary":"Y","inPlanning":"N","isClosed":"N","openToPublic":"Y","locationType":"micro","locationTypeDisplay":"Micro Brewery","countryIsoCode":"US","yearOpened":"1996","status":"verified","statusDisplay":"Verified","createDate":"2012-01-03 02:41:57","updateDate":"2014-09-26 13:28:37","country":{"isoCode":"US","name":"UNITED STATES","displayName":"United States","isoThree":"USA","numberCode":840,"createDate":"2012-01-03 02:41:33"}},{"id":"vwKJAR","name":"Main Brewery","streetAddress":"1411 Lake Shore Dr","locality":"Homer","region":"Alaska","postalCode":"99603","phone":"907-235-3626","website":"http://www.homerbrew.com/","hoursOfOperation":"Mon - Sat:\t12:00 pm\t-\t7:00 pm\r\nSun:\t12:00 pm\t-\t6:00 pm","latitude":59.6404253,"longitude":-151.5061147,"isPrimary":"Y","inPlanning":"N","isClosed":"N","openToPublic":"Y","locationType":"micro","locationTypeDisplay":"Micro Brewery","countryIsoCode":"US","yearOpened":"1996","status":"verified","statusDisplay":"Verified","createDate":"2012-01-03 02:41:58","updateDate":"2014-07-23 19:11:34","country":{"isoCode":"US","name":"UNITED STATES","displayName":"United States","isoThree":"USA","numberCode":840,"createDate":"2012-01-03 02:41:33"}},{"id":"AZlvTJ","name":"Main Brewery","streetAddress":"26499 Bond Rd NE","locality":"Kingston","region":"Washington","postalCode":"98346","phone":"360-297-8316","website":"http://www.hoodcanalbrewery.com/","hoursOfOperation":"Wed - Thu: 2:00 pm - 8:00 pm\r\nFri - Sat: 12:00 pm - 8:00 pm\r\nSun: 12:00 pm - 7:00 pm","latitude":47.803707,"longitude":-122.57332,"isPrimary":"Y","inPlanning":"N","isClosed":"N","openToPublic":"Y","locationType":"brewpub","locationTypeDisplay":"Brewpub","countryIsoCode":"US","status":"verified","statusDisplay":"Verified","createDate":"2012-01-03 02:41:58","updateDate":"2014-07-23 19:11:34","country":{"isoCode":"US","name":"UNITED STATES","displayName":"United States","isoThree":"USA","numberCode":840,"createDate":"2012-01-03 02:41:33"}},{"id":"sU6mNv","name":"Main Brewery","streetAddress":"890 East Fort Union Boulevard","locality":"Midvale","region":"Utah","postalCode":"84047","phone":"801-566-0424","website":"http://www.hoppersbrewpub.com/","hoursOfOperation":"Mon - Thu: 11:00 am - 10:00 pm\r\nFri: 11:00 am - 11:00 pm\r\nSat: 10:00 am - 11:00 pm\r\nSun: 10:00 am - 9:00 pm","latitude":40.621538,"longitude":-111.86631,"isPrimary":"Y","inPlanning":"N","isClosed":"N","openToPublic":"Y","locationType":"micro","locationTypeDisplay":"Micro Brewery","countryIsoCode":"US","yearOpened":"1996","status":"verified","statusDisplay":"Verified","createDate":"2012-01-03 02:41:58","updateDate":"2014-07-23 19:11:34","country":{"isoCode":"US","name":"UNITED STATES","displayName":"United States","isoThree":"USA","numberCode":840,"createDate":"2012-01-03 02:41:33"}},{"id":"WwE6W1","name":"Main Brewery","streetAddress":"37801 Cleveland Ave.","locality":"Squamish","region":"British Columbia","postalCode":"V8B 0A7","phone":"800-919-ALES","website":"http://www.howesound.com/","latitude":49.695042,"longitude":-123.1563613,"isPrimary":"Y","inPlanning":"N","isClosed":"N","openToPublic":"Y","locationType":"micro","locationTypeDisplay":"Micro Brewery","countryIsoCode":"CA","yearOpened":"1996","status":"verified","statusDisplay":"Verified","createDate":"2012-01-03 02:41:58","updateDate":"2014-07-23 19:11:34","country":{"isoCode":"CA","name":"CANADA","displayName":"Canada","isoThree":"CAN","numberCode":124,"createDate":"2012-01-03 02:41:33"}},{"id":"e9z9co","name":"Main Brewery","streetAddress":"1075 Country Lane","locality":"Ishpeming","region":"Michigan","postalCode":"49849","phone":"906-485-6017","website":"http://www.countryvillageresort.com/httpdocs/html/brewery.html","latitude":46.5015366,"longitude":-87.6789954,"isPrimary":"Y","inPlanning":"N","isClosed":"N","openToPublic":"Y","locationType":"brewpub","locationTypeDisplay":"Brewpub","countryIsoCode":"US","yearOpened":"1996","status":"verified","statusDisplay":"Verified","createDate":"2012-01-03 02:41:58","updateDate":"2014-07-23 19:11:34","country":{"isoCode":"US","name":"UNITED STATES","displayName":"United States","isoThree":"USA","numberCode":840,"createDate":"2012-01-03 02:41:33"}},{"id":"kZAhYn","name":"Main Brewery","streetAddress":"687 Rye Street","locality":"Peterborough","region":"Ontario","phone":"705-741-1819","latitude":44.2769065,"longitude":-78.3488586,"isPrimary":"Y","inPlanning":"N","isClosed":"N","openToPublic":"Y","locationType":"micro","locationTypeDisplay":"Micro Brewery","countryIsoCode":"CA","yearOpened":"1996","status":"verified","statusDisplay":"Verified","createDate":"2012-01-03 02:41:59","updateDate":"2014-07-23 19:11:34","country":{"isoCode":"CA","name":"CANADA","displayName":"Canada","isoThree":"CAN","numberCode":124,"createDate":"2012-01-03 02:41:33"}},{"id":"tvKGeF","name":"Main Brewery","streetAddress":"813 Mirror Lake Drive","locality":"Lake Placid","region":"New York","postalCode":"12946","phone":"518-523-3813","website":"http://www.ubuale.com/","latitude":44.283431,"longitude":-73.981633,"isPrimary":"Y","inPlanning":"N","isClosed":"N","openToPublic":"Y","locationType":"micro","locationTypeDisplay":"Micro Brewery","countryIsoCode":"US","yearOpened":"1996","status":"verified","statusDisplay":"Verified","createDate":"2012-01-03 02:42:00","updateDate":"2014-07-23 19:11:34","country":{"isoCode":"US","name":"UNITED STATES","displayName":"United States","isoThree":"USA","numberCode":840,"createDate":"2012-01-03 02:41:33"}},{"id":"pa0C46","name":"Lompoc Tavern","streetAddress":"1620 NW 23rd Ave","locality":"Portland","region":"Oregon","postalCode":"97201","phone":"503-225-1855","website":"http://www.newoldlompoc.com/lompoc_home.html","hoursOfOperation":"Mon – Thurs  11AM – 1AM\r\nFri – Sat  11AM – 2AM\r\nSunday  11AM – midnight\r\n\r\nHAPPY HOURS\r\n4 – 6pm & 10pm – Close","latitude":45.5343531,"longitude":-122.6985802,"isPrimary":"N","inPlanning":"N","isClosed":"N","openToPublic":"Y","locationType":"restaurant","locationTypeDisplay":"Restaurant/Ale House","countryIsoCode":"US","yearOpened":"1993","status":"verified","statusDisplay":"Verified","createDate":"2012-01-03 02:42:03","updateDate":"2014-07-23 19:11:34","country":{"isoCode":"US","name":"UNITED STATES","displayName":"United States","isoThree":"USA","numberCode":840,"createDate":"2012-01-03 02:41:33"}},{"id":"DeqSN0","name":"Fifth Quadrant","streetAddress":"3901 N Williams Ave","locality":"Portland","region":"Oregon","postalCode":"97212","phone":"503-288-3996","website":"http://www.lompocbrewing.com/","hoursOfOperation":"HOURS\r\nMon – Th  11AM-12AM\r\nFri – Sat  11AM-1AM\r\nSun  11AM – 11PM\r\n\r\nHAPPY HOURS\r\n4 – 6pm & 10pm – Close","latitude":45.5509678,"longitude":-122.6668533,"isPrimary":"Y","inPlanning":"N","isClosed":"N","openToPublic":"Y","locationType":"brewpub","locationTypeDisplay":"Brewpub","countryIsoCode":"US","status":"verified","statusDisplay":"Verified","createDate":"2014-05-14 13:16:23","updateDate":"2014-07-23 19:11:34","country":{"isoCode":"US","name":"UNITED STATES","displayName":"United States","isoThree":"USA","numberCode":840,"createDate":"2012-01-03 02:41:33"}},{"id":"pyZGWR","name":"Oaks Bottom","streetAddress":"1621 SE Bybee Blvd","locality":"Portland","region":"Oregon","postalCode":"97202","phone":"503-232-1728","website":"http://www.lompocbrewing.com/","hoursOfOperation":"HOURS\r\nMon – Sat  11:30AM – 12AM\r\nSun  11:30AM -10PM\r\n\r\nHAPPY HOURS\r\n3 – 6pm & 9pm – Close.","latitude":45.4739193,"longitude":-122.6494053,"isPrimary":"N","inPlanning":"N","isClosed":"N","openToPublic":"Y","locationType":"restaurant","locationTypeDisplay":"Restaurant/Ale House","countryIsoCode":"US","status":"verified","statusDisplay":"Verified","createDate":"2014-05-14 13:17:23","updateDate":"2014-07-23 19:11:34","country":{"isoCode":"US","name":"UNITED STATES","displayName":"United States","isoThree":"USA","numberCode":840,"createDate":"2012-01-03 02:41:33"}},{"id":"SII4fs","name":"Hedge House","streetAddress":"3412 SE Division St","locality":"Portland","region":"Oregon","postalCode":"97202","phone":"503-235-2215","website":"http://www.lompocbrewing.com/","hoursOfOperation":"HOURS\r\nSun – Mon  11:30AM – 11PM\r\nTue – Sat  11:30AM – 12AM\r\n\r\nHAPPY HOURS\r\n4 – 6pm & 10pm – Close","latitude":45.5045708,"longitude":-122.6292154,"isPrimary":"N","inPlanning":"N","isClosed":"N","openToPublic":"Y","locationType":"restaurant","locationTypeDisplay":"Restaurant/Ale House","countryIsoCode":"US","status":"verified","statusDisplay":"Verified","createDate":"2014-05-14 13:18:11","updateDate":"2014-07-23 19:11:34","country":{"isoCode":"US","name":"UNITED STATES","displayName":"United States","isoThree":"USA","numberCode":840,"createDate":"2012-01-03 02:41:33"}},{"id":"4c0spJ","name":"Sidebar","streetAddress":"3901 N Williams Ave","locality":"Portland","region":"Oregon","postalCode":"97227","phone":"503-288-3996","website":"http://www.lompocbrewing.com/","hoursOfOperation":"HOURS\r\nWed – Thurs  4 – 10PM\r\nFri – Sat  4 – 11PM\r\nClosed Sun – Tues\r\n\r\nHAPPY HOUR FOOD\r\nWed – Sat, 4 – 6pm","latitude":45.5510471,"longitude":-122.6668844,"isPrimary":"N","inPlanning":"N","isClosed":"N","openToPublic":"Y","locationType":"tasting","locationTypeDisplay":"Tasting Room","countryIsoCode":"US","status":"verified","statusDisplay":"Verified","createDate":"2014-05-14 13:18:56","updateDate":"2014-07-23 19:11:34","country":{"isoCode":"US","name":"UNITED STATES","displayName":"United States","isoThree":"USA","numberCode":840,"createDate":"2012-01-03 02:41:33"}},{"id":"qHBDmR","name":"Main Brewery","streetAddress":"4120 Main Street","locality":"Philadelphia","region":"Pennsylvania","postalCode":"19127","phone":"215-482-8220","website":"http://www.manayunkbrewery.com/","latitude":40.0235771,"longitude":-75.2202026,"isPrimary":"Y","inPlanning":"N","isClosed":"N","openToPublic":"Y","locationType":"micro","locationTypeDisplay":"Micro Brewery","countryIsoCode":"US","yearOpened":"1996","status":"verified","statusDisplay":"Verified","createDate":"2012-01-03 02:42:01","updateDate":"2014-07-23 19:11:34","country":{"isoCode":"US","name":"UNITED STATES","displayName":"United States","isoThree":"USA","numberCode":840,"createDate":"2012-01-03 02:41:33"}},{"id":"VrC2d6","name":"Main Brewery","streetAddress":"614 W Pickard St","locality":"Mt Pleasant","region":"Michigan","postalCode":"48858","phone":"(989) 400-4666","website":"http://www.mtpleasantbrew.com/","hoursOfOperation":"Mon - Thu: 4:00 pm - 10:00 pm\r\nFri - Sat: 12:00 pm - 12:00 am\r\nSun: 4:00 pm - 10:00 pm","latitude":43.6118391,"longitude":-84.778754,"isPrimary":"Y","inPlanning":"N","isClosed":"N","openToPublic":"Y","locationType":"brewpub","locationTypeDisplay":"Brewpub","countryIsoCode":"US","status":"verified","statusDisplay":"Verified","createDate":"2012-01-03 02:42:02","updateDate":"2014-07-23 19:11:34","country":{"isoCode":"US","name":"UNITED STATES","displayName":"United States","isoThree":"USA","numberCode":840,"createDate":"2012-01-03 02:41:33"}},{"id":"MoMT5P","name":"Main Brewery","streetAddress":"21167 Calistoga St.","extendedAddress":"PO Box 1430","locality":"Middletown","region":"California","postalCode":"95461","phone":"707-987-2106","latitude":38.7526623,"longitude":-122.615114,"isPrimary":"Y","inPlanning":"N","isClosed":"N","openToPublic":"Y","locationType":"brewpub","locationTypeDisplay":"Brewpub","countryIsoCode":"US","status":"verified","statusDisplay":"Verified","createDate":"2012-01-03 02:42:02","updateDate":"2014-07-23 19:11:34","country":{"isoCode":"US","name":"UNITED STATES","displayName":"United States","isoThree":"USA","numberCode":840,"createDate":"2012-01-03 02:41:33"}},{"id":"TavGRG","name":"Main Brewery","streetAddress":"521 1st Street West","locality":"Revelstoke","region":"British Columbia","postalCode":"V0E 2S0","phone":"250-837-2756","website":"http://www.mt-begbie.com/","latitude":51.001247,"longitude":-118.199425,"isPrimary":"N","inPlanning":"N","isClosed":"N","openToPublic":"Y","locationType":"micro","locationTypeDisplay":"Micro Brewery","countryIsoCode":"CA","status":"verified","statusDisplay":"Verified","createDate":"2012-09-03 07:48:53","updateDate":"2014-07-23 19:11:34","country":{"isoCode":"CA","name":"CANADA","displayName":"Canada","isoThree":"CAN","numberCode":124,"createDate":"2012-01-03 02:41:33"}},{"id":"sDeDfo","name":"Main Brewery","streetAddress":"3 Taylor Road","locality":"Bracebridge","region":"Ontario","postalCode":"P1L 1S6","phone":"800-881-4229","website":"http://www.muskokabrewery.com/","latitude":45.04162,"longitude":-79.3107242,"isPrimary":"Y","inPlanning":"N","isClosed":"N","openToPublic":"Y","locationType":"micro","locationTypeDisplay":"Micro Brewery","countryIsoCode":"CA","yearOpened":"1996","status":"verified","statusDisplay":"Verified","createDate":"2012-01-03 02:42:03","updateDate":"2014-07-23 19:11:34","country":{"isoCode":"CA","name":"CANADA","displayName":"Canada","isoThree":"CAN","numberCode":124,"createDate":"2012-01-03 02:41:33"}},{"id":"awYZlE","name":"New Holland Brewing","streetAddress":"66 East 8th Street","locality":"Holland","region":"Michigan","postalCode":"49423","phone":"616-355-6422","website":"http://newhollandbrew.com/","latitude":42.7900238,"longitude":-86.1041945,"isPrimary":"Y","inPlanning":"N","isClosed":"N","openToPublic":"Y","locationType":"micro","locationTypeDisplay":"Micro Brewery","countryIsoCode":"US","yearOpened":"1996","status":"verified","statusDisplay":"Verified","createDate":"2012-01-03 02:42:03","updateDate":"2014-09-29 19:59:31","country":{"isoCode":"US","name":"UNITED STATES","displayName":"United States","isoThree":"USA","numberCode":840,"createDate":"2012-01-03 02:41:33"}},{"id":"qncYRx","name":"Production Campus, Sales & Marketing","streetAddress":"684 Commerce Court","locality":"Holland","region":"Michigan","postalCode":"49424","website":"http://newhollandbrew.com/","latitude":42.817486,"longitude":-86.113203,"isPrimary":"N","inPlanning":"N","isClosed":"N","openToPublic":"Y","locationType":"office","locationTypeDisplay":"Office","countryIsoCode":"US","yearOpened":"1996","status":"verified","statusDisplay":"Verified","createDate":"2012-03-07 14:26:41","updateDate":"2014-09-04 11:19:14","country":{"isoCode":"US","name":"UNITED STATES","displayName":"United States","isoThree":"USA","numberCode":840,"createDate":"2012-01-03 02:41:33"}},{"id":"ifZ8V4","name":"Main Brewery","streetAddress":"3850 E. 44th St.","locality":"Tucson","region":"Arizona","postalCode":"85713","website":"http://nimbusbeer.com/","latitude":32.184793,"longitude":-110.90993,"isPrimary":"Y","inPlanning":"N","isClosed":"N","openToPublic":"Y","locationType":"brewpub","locationTypeDisplay":"Brewpub","countryIsoCode":"US","status":"verified","statusDisplay":"Verified","createDate":"2012-01-03 02:42:03","updateDate":"2014-07-23 19:11:34","country":{"isoCode":"US","name":"UNITED STATES","displayName":"United States","isoThree":"USA","numberCode":840,"createDate":"2012-01-03 02:41:33"}},{"id":"9IoLV6","name":"Main Brewery","streetAddress":"101 Oak Pond Road","locality":"Skowhegan","region":"Maine","postalCode":"04976","phone":"2074743233","website":"http://www.oakpondbrewery.com/","latitude":44.759453,"longitude":-69.592746,"isPrimary":"Y","inPlanning":"N","isClosed":"N","openToPublic":"Y","locationType":"micro","locationTypeDisplay":"Micro Brewery","countryIsoCode":"US","yearOpened":"1996","status":"verified","statusDisplay":"Verified","createDate":"2012-01-03 02:42:04","updateDate":"2014-07-23 19:11:34","country":{"isoCode":"US","name":"UNITED STATES","displayName":"United States","isoThree":"USA","numberCode":840,"createDate":"2012-01-03 02:41:33"}},{"id":"fWfbGJ","name":"Main Brewery","streetAddress":"200 East Michigan Avenue","locality":"Kalamazoo","region":"Michigan","postalCode":"49007","phone":"1-269-343-2739","website":"http://oldepenkazoo.com/","latitude":42.2916515,"longitude":-85.5815665,"isPrimary":"Y","inPlanning":"N","isClosed":"N","openToPublic":"Y","locationType":"brewpub","locationTypeDisplay":"Brewpub","countryIsoCode":"US","yearOpened":"1996","status":"verified","statusDisplay":"Verified","createDate":"2012-01-03 02:42:04","updateDate":"2014-07-23 19:11:34","country":{"isoCode":"US","name":"UNITED STATES","displayName":"United States","isoThree":"USA","numberCode":840,"createDate":"2012-01-03 02:41:33"}},{"id":"iTdcPm","name":"Main Brewery","streetAddress":"118 North Pagosa Boulevard","locality":"Pagosa Springs","region":"Colorado","postalCode":"81147","phone":"970-731-2739","website":"http://www.PagosaBrewing.com/","latitude":37.255196,"longitude":-107.07996,"isPrimary":"Y","inPlanning":"N","isClosed":"N","openToPublic":"Y","locationType":"micro","locationTypeDisplay":"Micro Brewery","countryIsoCode":"US","status":"verified","statusDisplay":"Verified","createDate":"2012-01-03 02:42:05","updateDate":"2014-07-23 19:11:34","country":{"isoCode":"US","name":"UNITED STATES","displayName":"United States","isoThree":"USA","numberCode":840,"createDate":"2012-01-03 02:41:33"}},{"id":"terhw8","name":"Main Brewery","streetAddress":"108 Cabot St","locality":"Holyoke","region":"Massachusetts","postalCode":"01040","phone":"413-535-1588","website":"http://www.papercity.com/","latitude":42.2011759,"longitude":-72.610427,"isPrimary":"Y","inPlanning":"N","isClosed":"N","openToPublic":"Y","locationType":"micro","locationTypeDisplay":"Micro Brewery","countryIsoCode":"US","yearOpened":"1996","status":"verified","statusDisplay":"Verified","createDate":"2012-01-03 02:42:05","updateDate":"2014-09-26 13:45:15","country":{"isoCode":"US","name":"UNITED STATES","displayName":"United States","isoThree":"USA","numberCode":840,"createDate":"2012-01-03 02:41:33"}},{"id":"dhb4pP","name":"Main Brewery","streetAddress":"33180 Cape Kiwanda Drive","locality":"Pacific City","region":"Oregon","postalCode":"97135","phone":"503-965-7007","website":"http://www.pelicanbrewery.com/","latitude":45.215174,"longitude":-123.970349,"isPrimary":"N","inPlanning":"N","isClosed":"N","openToPublic":"Y","locationType":"brewpub","locationTypeDisplay":"Brewpub","countryIsoCode":"US","yearOpened":"1996","status":"verified","statusDisplay":"Verified","createDate":"2012-01-03 02:42:05","updateDate":"2014-07-25 14:33:34","country":{"isoCode":"US","name":"UNITED STATES","displayName":"United States","isoThree":"USA","numberCode":840,"createDate":"2012-01-03 02:41:33"}},{"id":"z8nJWb","name":"Pelican Brewery & Tap Room","streetAddress":"1708 1st St.","locality":"Tillamook","region":"Oregon","postalCode":"97141","phone":"503-842-7007","website":"http://www.yourlittlebeachtown.com/pelican/taproom","hoursOfOperation":"Mon:  11:30am - 9:00pm\nTue:  11:30am - 9:00pm\nWed:  11:30am - 9:00pm\nThu:  11:30am - 9:00pm\nFri:  11:30am - 9:00pm\nSat:  11:30am - 9:00pm\nSun:  11:30am - 9:00pm\n\n","latitude":45.4578204,"longitude":-123.8467479,"isPrimary":"Y","inPlanning":"N","isClosed":"N","openToPublic":"Y","locationType":"tasting","locationTypeDisplay":"Tasting Room","countryIsoCode":"US","status":"verified","statusDisplay":"Verified","createDate":"2014-07-25 14:33:33","updateDate":"2014-07-25 14:33:33","country":{"isoCode":"US","name":"UNITED STATES","displayName":"United States","isoThree":"USA","numberCode":840,"createDate":"2012-01-03 02:41:33"}},{"id":"RCXyVC","name":"Main Brewery","streetAddress":"2 Portola Plaza","locality":"Monterey","region":"California","postalCode":"93940","phone":"831-649-2699","website":"http://www.portolahotel.com/","latitude":36.601343,"longitude":-121.894416,"isPrimary":"Y","inPlanning":"N","isClosed":"N","openToPublic":"Y","locationType":"brewpub","locationTypeDisplay":"Brewpub","countryIsoCode":"US","status":"verified","statusDisplay":"Verified","createDate":"2012-01-03 02:42:05","updateDate":"2014-07-23 19:11:34","country":{"isoCode":"US","name":"UNITED STATES","displayName":"United States","isoThree":"USA","numberCode":840,"createDate":"2012-01-03 02:41:33"}},{"id":"043Fs7","name":"Main Brewery","streetAddress":"1415 First Avenue","locality":"Seattle","region":"Washington","postalCode":"98101","phone":"1-206-622-6044","website":"http://www.pikebrewing.com/","latitude":47.608058,"longitude":-122.339485,"isPrimary":"Y","inPlanning":"N","isClosed":"N","openToPublic":"Y","locationType":"micro","locationTypeDisplay":"Micro Brewery","countryIsoCode":"US","yearOpened":"1996","status":"verified","statusDisplay":"Verified","createDate":"2012-01-03 02:42:05","updateDate":"2014-07-23 19:11:34","country":{"isoCode":"US","name":"UNITED STATES","displayName":"United States","isoThree":"USA","numberCode":840,"createDate":"2012-01-03 02:41:33"}},{"id":"311H1a","name":"Main Brewery","streetAddress":"615 S 1st Ave","locality":"Pocatello","region":"Idaho","postalCode":"83201","phone":"208-232-1644","website":"http://www.portneufvalleybrewing.com/","latitude":42.859824,"longitude":-112.443284,"isPrimary":"Y","inPlanning":"N","isClosed":"N","openToPublic":"Y","locationType":"brewpub","locationTypeDisplay":"Brewpub","countryIsoCode":"US","yearOpened":"1996","status":"verified","statusDisplay":"Verified","createDate":"2012-01-03 02:42:06","updateDate":"2014-07-23 19:11:34","country":{"isoCode":"US","name":"UNITED STATES","displayName":"United States","isoThree":"USA","numberCode":840,"createDate":"2012-01-03 02:41:33"}},{"id":"DiBfxM","name":"Main Brewery","streetAddress":"Oberveischeder Straße 13a","locality":"Olpe","region":"Nordrhein-Westfalen","postalCode":"D-57462","latitude":51.028585,"longitude":7.846025,"isPrimary":"N","inPlanning":"N","isClosed":"N","openToPublic":"Y","locationType":"micro","locationTypeDisplay":"Micro Brewery","countryIsoCode":"DE","status":"verified","statusDisplay":"Verified","createDate":"2012-08-12 14:47:13","updateDate":"2014-07-23 19:11:34","country":{"isoCode":"DE","name":"GERMANY","displayName":"Germany","isoThree":"DEU","numberCode":276,"createDate":"2012-01-03 02:41:33"}},{"id":"Uy5UpT","name":"Main Brewery","streetAddress":"540 Main Street","locality":"Longmont","region":"Colorado","postalCode":"80501","phone":"(303) 702-0881","website":"http://pumphousebrewery.com/","hoursOfOperation":"Mon - Wed: 11:00 am - 12:00 pm\r\nThu - Sat: 11:00 am - 1:00 am\r\nSun: 11:00 am - 12:00 pm","latitude":40.1688137,"longitude":-105.1023147,"isPrimary":"Y","inPlanning":"N","isClosed":"N","openToPublic":"Y","locationType":"micro","locationTypeDisplay":"Micro Brewery","countryIsoCode":"US","yearOpened":"1996","status":"verified","statusDisplay":"Verified","createDate":"2012-01-03 02:42:06","updateDate":"2014-07-23 19:11:34","country":{"isoCode":"US","name":"UNITED STATES","displayName":"United States","isoThree":"USA","numberCode":840,"createDate":"2012-01-03 02:41:33"}},{"id":"wv9idM","name":"Main Brewery","streetAddress":"231 San Saba Court","locality":"Blanco","region":"Texas","postalCode":"78606","phone":"830-833-2534","website":"http://www.realalebrewing.com/","hoursOfOperation":"Fri: 2:00 pm - 5:00 pm","latitude":30.1132717,"longitude":-98.4128231,"isPrimary":"Y","inPlanning":"N","isClosed":"N","openToPublic":"Y","locationType":"micro","locationTypeDisplay":"Micro Brewery","countryIsoCode":"US","yearOpened":"1996","status":"verified","statusDisplay":"Verified","createDate":"2012-01-03 02:42:06","updateDate":"2014-08-31 13:41:17","country":{"isoCode":"US","name":"UNITED STATES","displayName":"United States","isoThree":"USA","numberCode":840,"createDate":"2012-01-03 02:41:33"}},{"id":"AEmK8N","name":"Main Brewery","streetAddress":"5304 Gateway Center Drive","locality":"Flint","region":"Michigan","postalCode":"48507","phone":"810.233.8000","website":"http://redwoodbrewingco.com/","latitude":43.004545,"longitude":-83.6345272,"isPrimary":"Y","inPlanning":"N","isClosed":"N","openToPublic":"Y","locationType":"micro","locationTypeDisplay":"Micro Brewery","countryIsoCode":"US","status":"verified","statusDisplay":"Verified","createDate":"2012-01-03 02:42:06","updateDate":"2014-07-23 19:11:34","country":{"isoCode":"US","name":"UNITED STATES","displayName":"United States","isoThree":"USA","numberCode":840,"createDate":"2012-01-03 02:41:33"}},{"id":"K6BOqs","name":"Main Brewery","streetAddress":"2 Graphics Drive","locality":"Ewing","region":"New Jersey","postalCode":"08628","phone":"609-883-0890","website":"http://www.riverhorse.com/","hoursOfOperation":"Friday through Sunday, 12-5","latitude":40.2763769,"longitude":-74.796004,"isPrimary":"Y","inPlanning":"N","isClosed":"N","openToPublic":"Y","locationType":"micro","locationTypeDisplay":"Micro Brewery","countryIsoCode":"US","yearOpened":"1996","status":"verified","statusDisplay":"Verified","createDate":"2012-01-03 02:42:07","updateDate":"2014-07-23 19:11:34","country":{"isoCode":"US","name":"UNITED STATES","displayName":"United States","isoThree":"USA","numberCode":840,"createDate":"2012-01-03 02:41:33"}},{"id":"3MiueH","name":"Main Brewpub","streetAddress":"2079 East Shore Drive","locality":"Ithaca","region":"New York","postalCode":"14882","phone":"(607) 533-3535","website":"http://www.roguesharbor.com/","hoursOfOperation":"Mon - Thu: 5:00 pm - 12:00 am\r\nFri - Sat: 4:00 pm - 1:00 am\r\nSun: 4:00 pm - 12:00 am","latitude":42.537769,"longitude":-76.505465,"isPrimary":"Y","inPlanning":"N","isClosed":"N","openToPublic":"Y","locationType":"brewpub","locationTypeDisplay":"Brewpub","countryIsoCode":"US","yearOpened":"1996","status":"verified","statusDisplay":"Verified","createDate":"2014-01-17 16:54:19","updateDate":"2014-07-23 19:11:34","country":{"isoCode":"US","name":"UNITED STATES","displayName":"United States","isoThree":"USA","numberCode":840,"createDate":"2012-01-03 02:41:33"}},{"id":"RJwRxf","name":"Main Brewery","streetAddress":"278 Derby Street","locality":"Salem","region":"Massachusetts","postalCode":"01970","phone":"978-745-BEER","website":"http://www.beerworks.net/html/locations_salem.html","latitude":42.520383,"longitude":-70.8909666,"isPrimary":"Y","inPlanning":"N","isClosed":"N","openToPublic":"Y","locationType":"brewpub","locationTypeDisplay":"Brewpub","countryIsoCode":"US","yearOpened":"1996","status":"verified","statusDisplay":"Verified","createDate":"2012-01-03 02:42:07","updateDate":"2014-07-23 19:11:34","country":{"isoCode":"US","name":"UNITED STATES","displayName":"United States","isoThree":"USA","numberCode":840,"createDate":"2012-01-03 02:41:33"}},{"id":"u5aAwM","name":"Main Brewery","streetAddress":"121 North Market St.","locality":"Selinsgrove","region":"Pennsylvania","postalCode":"17870","phone":"570-374-7308","website":"http://www.selinsgrovebrewing.com/","latitude":40.800962,"longitude":-76.86136,"isPrimary":"Y","inPlanning":"N","isClosed":"N","openToPublic":"Y","locationType":"micro","locationTypeDisplay":"Micro Brewery","countryIsoCode":"US","status":"verified","statusDisplay":"Verified","createDate":"2012-01-03 02:42:08","updateDate":"2014-07-23 19:11:34","country":{"isoCode":"US","name":"UNITED STATES","displayName":"United States","isoThree":"USA","numberCode":840,"createDate":"2012-01-03 02:41:33"}},{"id":"FwJ3bJ","name":"Clifton Park","streetAddress":"6 Fairchild Square","locality":"Clifton Park","region":"New York","postalCode":"12065","phone":"518-406-5430","website":"http://www.shmaltzbrewing.com/","latitude":42.9014992,"longitude":-73.7928352,"isPrimary":"N","inPlanning":"N","isClosed":"N","openToPublic":"Y","locationType":"micro","locationTypeDisplay":"Micro Brewery","countryIsoCode":"US","yearOpened":"2013","status":"verified","statusDisplay":"Verified","createDate":"2013-08-06 11:23:55","updateDate":"2014-09-11 10:26:22","country":{"isoCode":"US","name":"UNITED STATES","displayName":"United States","isoThree":"USA","numberCode":840,"createDate":"2012-01-03 02:41:33"}},{"id":"XDsUGb","name":"Main Brewery","streetAddress":"2799 NW Myhre Road","locality":"Silverdale","region":"Washington","postalCode":"98383","phone":"360-698-5879","website":"http://www.silvercitybrewery.com/","hoursOfOperation":"Mon - Thurs: 11:00 am - 10:00 pm\r\nFri - Sat: 11:00 am - 11:00 pm\r\nSun: 11:00 am - 9:00 pm","latitude":47.659282,"longitude":-122.687358,"isPrimary":"Y","inPlanning":"N","isClosed":"N","openToPublic":"Y","locationType":"brewpub","locationTypeDisplay":"Brewpub","countryIsoCode":"US","yearOpened":"1996","status":"verified","statusDisplay":"Verified","createDate":"2012-01-03 02:42:08","updateDate":"2014-07-23 19:11:34","country":{"isoCode":"US","name":"UNITED STATES","displayName":"United States","isoThree":"USA","numberCode":840,"createDate":"2012-01-03 02:41:33"}},{"id":"BfzoOh","name":"Main Brewery","streetAddress":"1300 Central Avenue","locality":"McKinleyville","region":"California","postalCode":"95519","phone":"707-839-7580","website":"http://www.sixriversbrewery.com/","hoursOfOperation":"Mon: 4:00 pm - 11:30 pm\r\nTues - Wed: 11:30 am - 11:30 pm\r\nThurs - Sat: 11:30 am - 12:30 am\r\nSun: 11:30 am - 11:30 pm","latitude":40.9288587,"longitude":-124.1029317,"isPrimary":"Y","inPlanning":"N","isClosed":"N","openToPublic":"Y","locationType":"micro","locationTypeDisplay":"Micro Brewery","countryIsoCode":"US","status":"verified","statusDisplay":"Verified","createDate":"2012-01-03 02:42:08","updateDate":"2014-07-23 19:11:34","country":{"isoCode":"US","name":"UNITED STATES","displayName":"United States","isoThree":"USA","numberCode":840,"createDate":"2012-01-03 02:41:33"}},{"id":"SRpwgE","name":"Main Brewery","streetAddress":"717 W. 3rd Ave","locality":"Anchorage","region":"Alaska","postalCode":"99501","phone":"(907) 277-7727","website":"http://www.alaskabeers.com/","hoursOfOperation":"Mon - Thu:\t11:30 am\t-\t11:00 pm\r\nFri - Sat:\t11:30 am\t-\t12:00 am\r\nSun:\t12:00 pm\t-\t10:00 pm","latitude":61.2196027,"longitude":-149.8958411,"isPrimary":"Y","inPlanning":"N","isClosed":"N","openToPublic":"Y","locationType":"micro","locationTypeDisplay":"Micro Brewery","countryIsoCode":"US","status":"verified","statusDisplay":"Verified","createDate":"2012-01-03 02:42:08","updateDate":"2014-07-23 19:11:34","country":{"isoCode":"US","name":"UNITED STATES","displayName":"United States","isoThree":"USA","numberCode":840,"createDate":"2012-01-03 02:41:33"}},{"id":"CUZJZV","name":"Main Brewery","streetAddress":"3019 N Cole Rd","locality":"Boise","region":"Idaho","postalCode":"83704","phone":"(208) 658-1533","website":"http://www.sockeyebrew.com/","hoursOfOperation":"Mon - Sun: 11:00 am - 10:00 pm","latitude":43.632576,"longitude":-116.275534,"isPrimary":"Y","inPlanning":"N","isClosed":"N","openToPublic":"Y","locationType":"micro","locationTypeDisplay":"Micro Brewery","countryIsoCode":"US","yearOpened":"1996","status":"verified","statusDisplay":"Verified","createDate":"2012-01-03 02:42:08","updateDate":"2014-07-23 19:11:34","country":{"isoCode":"US","name":"UNITED STATES","displayName":"United States","isoThree":"USA","numberCode":840,"createDate":"2012-01-03 02:41:33"}},{"id":"WicydY","name":"Main Brewery","streetAddress":"3002 East Washington Street","locality":"Phoenix","region":"Arizona","postalCode":"85034","phone":"602-510-8996","website":"http://www.sonoranbrewing.com/","latitude":33.448675,"longitude":-112.016904,"isPrimary":"Y","inPlanning":"N","isClosed":"N","openToPublic":"Y","locationType":"micro","locationTypeDisplay":"Micro Brewery","countryIsoCode":"US","yearOpened":"1996","status":"verified","statusDisplay":"Verified","createDate":"2012-01-03 02:42:08","updateDate":"2014-07-23 19:11:34","country":{"isoCode":"US","name":"UNITED STATES","displayName":"United States","isoThree":"USA","numberCode":840,"createDate":"2012-01-03 02:41:33"}},{"id":"EcxpYA","name":"Main Brewery","streetAddress":"40 Bowden Square","locality":"Southampton","region":"New York","postalCode":"11968","phone":"631-283-2800","website":"http://southamptonbrewery.com/","latitude":40.890256,"longitude":-72.392707,"isPrimary":"Y","inPlanning":"N","isClosed":"N","openToPublic":"Y","locationType":"brewpub","locationTypeDisplay":"Brewpub","countryIsoCode":"US","yearOpened":"1996","status":"verified","statusDisplay":"Verified","createDate":"2012-01-03 02:42:08","updateDate":"2014-07-23 19:11:34","country":{"isoCode":"US","name":"UNITED STATES","displayName":"United States","isoThree":"USA","numberCode":840,"createDate":"2012-01-03 02:41:33"}},{"id":"mAe67E","name":"Main Brewery","streetAddress":"St Peter's Hall","locality":"Bungay","region":"Suffolk","phone":"44-(01986)-782322","latitude":52.45058,"longitude":1.44284,"isPrimary":"Y","inPlanning":"N","isClosed":"N","openToPublic":"Y","locationType":"micro","locationTypeDisplay":"Micro Brewery","countryIsoCode":"GB","status":"verified","statusDisplay":"Verified","createDate":"2012-01-03 02:42:09","updateDate":"2014-07-23 19:11:34","country":{"isoCode":"GB","name":"UNITED KINGDOM","displayName":"United Kingdom","isoThree":"GBR","numberCode":826,"createDate":"2012-01-03 02:41:33"}},{"id":"2wUEOl","name":"Main Brewery","streetAddress":"101 Oak Street","locality":"Ashland","region":"Oregon","postalCode":"97520","phone":"541-482-2448","website":"http://www.standingstonebrewing.com/","hoursOfOperation":"Mon - Fri: 11:30 am - 12:00 am\r\nSat: 8:00 am - 12:00 am\r\nSun: 11:30 am - 12:00 am","latitude":42.197576,"longitude":-122.714596,"isPrimary":"Y","inPlanning":"N","isClosed":"N","openToPublic":"Y","locationType":"brewpub","locationTypeDisplay":"Brewpub","countryIsoCode":"US","yearOpened":"1996","status":"verified","statusDisplay":"Verified","createDate":"2012-01-03 02:42:09","updateDate":"2014-07-23 19:11:34","country":{"isoCode":"US","name":"UNITED STATES","displayName":"United States","isoThree":"USA","numberCode":840,"createDate":"2012-01-03 02:41:33"}},{"id":"TJGsgg","name":"Durango","streetAddress":"801 East Second Avenue","locality":"Durango","region":"Colorado","postalCode":"81301","phone":"970-259-9200","website":"http://www.steamworksbrewing.com/","hoursOfOperation":"Mon - Wed: 11:00 am - 12:00 am\r\nThurs - Sat: 11:00 am - 2:00 am\r\nSun: 11:00 am - 12:00 am","latitude":37.2723386,"longitude":-107.8801564,"isPrimary":"Y","inPlanning":"N","isClosed":"N","openToPublic":"Y","locationType":"brewpub","locationTypeDisplay":"Brewpub","countryIsoCode":"US","yearOpened":"1996","status":"verified","statusDisplay":"Verified","createDate":"2012-01-03 02:42:15","updateDate":"2014-07-23 19:11:34","country":{"isoCode":"US","name":"UNITED STATES","displayName":"United States","isoThree":"USA","numberCode":840,"createDate":"2012-01-03 02:41:33"}},{"id":"Sl9wDz","name":"Main Brewery","streetAddress":"115 North Duke Street","locality":"Durham","region":"North Carolina","postalCode":"27701","latitude":35.99958,"longitude":-78.908086,"isPrimary":"Y","inPlanning":"N","isClosed":"Y","openToPublic":"Y","locationType":"micro","locationTypeDisplay":"Micro Brewery","countryIsoCode":"US","yearOpened":"1996","yearClosed":"1998","status":"verified","statusDisplay":"Verified","createDate":"2012-01-03 02:42:09","updateDate":"2014-07-23 19:11:34","country":{"isoCode":"US","name":"UNITED STATES","displayName":"United States","isoThree":"USA","numberCode":840,"createDate":"2012-01-03 02:41:33"}},{"id":"PIwPRT","name":"Stone Brewing Co.","streetAddress":"1999 Citracado Parkway","locality":"Escondido","region":"California","postalCode":"92029","phone":"760-294-7899","website":"http://www.stonebrewing.com/","latitude":33.1160006,"longitude":-117.119811,"isPrimary":"Y","inPlanning":"N","isClosed":"N","openToPublic":"Y","locationType":"micro","locationTypeDisplay":"Micro Brewery","countryIsoCode":"US","yearOpened":"1996","status":"verified","statusDisplay":"Verified","createDate":"2012-01-03 02:42:09","updateDate":"2014-10-13 14:44:14","country":{"isoCode":"US","name":"UNITED STATES","displayName":"United States","isoThree":"USA","numberCode":840,"createDate":"2012-01-03 02:41:33"}},{"id":"OAZ7yC","name":"Stone Brewing World Bistro & Gardens - Liberty Station","streetAddress":"2816 Historic Decatur Road","extendedAddress":"#116","locality":"San Diego","region":"California","postalCode":"92106","phone":"(619) 269-2100","website":"http://www.stonelibertystation.com","latitude":32.7405045,"longitude":-117.2116633,"isPrimary":"N","inPlanning":"N","isClosed":"N","openToPublic":"Y","locationType":"brewpub","locationTypeDisplay":"Brewpub","countryIsoCode":"US","yearOpened":"2013","status":"verified","statusDisplay":"Verified","createDate":"2013-08-04 13:43:03","updateDate":"2014-10-13 14:30:38","country":{"isoCode":"US","name":"UNITED STATES","displayName":"United States","isoThree":"USA","numberCode":840,"createDate":"2012-01-03 02:41:33"}},{"id":"17Phxr","name":"Main Brewery","streetAddress":"1600 E. 8th Avenue","locality":"Tampa","region":"Florida","postalCode":"33605","phone":"813-247-1422","website":"http://www.tampabaybrewingcompany.com/","hoursOfOperation":"Weekdays: 11am to 11pm\r\nFri and Sat: 11am to midnight\r\nSunday: Noon to 11pm","latitude":27.960988,"longitude":-82.441719,"isPrimary":"Y","inPlanning":"N","isClosed":"N","openToPublic":"Y","locationType":"micro","locationTypeDisplay":"Micro Brewery","countryIsoCode":"US","yearOpened":"1996","status":"verified","statusDisplay":"Verified","createDate":"2012-01-03 02:42:09","updateDate":"2014-07-23 19:11:34","country":{"isoCode":"US","name":"UNITED STATES","displayName":"United States","isoThree":"USA","numberCode":840,"createDate":"2012-01-03 02:41:33"}},{"id":"VCsRkP","name":"Main Brewery","streetAddress":"1041 Broadway","locality":"Columbus","region":"Georgia","postalCode":"31901","phone":"706-653-2337","website":"http://thecannonbrewpub.com/","latitude":32.4663533,"longitude":-84.9935198,"isPrimary":"Y","inPlanning":"N","isClosed":"N","openToPublic":"Y","locationType":"brewpub","locationTypeDisplay":"Brewpub","countryIsoCode":"US","yearOpened":"1996","status":"verified","statusDisplay":"Verified","createDate":"2012-01-03 02:42:10","updateDate":"2014-07-23 19:11:34","country":{"isoCode":"US","name":"UNITED STATES","displayName":"United States","isoThree":"USA","numberCode":840,"createDate":"2012-01-03 02:41:33"}},{"id":"IdIInN","name":"Fitchburg","streetAddress":"2980 Cahill Main","locality":"Fitchburg","region":"Wisconsin","postalCode":"53711","phone":"608-442-9000","website":"http://fitchburg.greatdanepub.com/","hoursOfOperation":"Monday- Thursday 11AM-2AM, Friday-Saturday 11AM-230AM, Sunday 10AM-2AM","latitude":43.0177229,"longitude":-89.423194,"isPrimary":"N","inPlanning":"N","isClosed":"N","openToPublic":"Y","locationType":"restaurant","locationTypeDisplay":"Restaurant/Ale House","countryIsoCode":"US","status":"verified","statusDisplay":"Verified","createDate":"2012-01-03 02:42:15","updateDate":"2014-07-23 19:11:34","country":{"isoCode":"US","name":"UNITED STATES","displayName":"United States","isoThree":"USA","numberCode":840,"createDate":"2012-01-03 02:41:33"}},{"id":"ux16wo","name":"Downtown","streetAddress":"123 E. Doty Street","locality":"Madison","region":"Wisconsin","postalCode":"53703","phone":"608-284-0000","website":"http://downtown.greatdanepub.com/","hoursOfOperation":"Monday - Thursday 11AM-2AM,Friday 11AM-2:30AM, Saturday 10AM-2:30AM on Farmer's Market and Home Football Saturdays,11AM-2:30AM other Saturdays, Sunday 10AM-2AM","latitude":43.074146,"longitude":-89.38077,"isPrimary":"Y","inPlanning":"N","isClosed":"N","openToPublic":"Y","locationType":"micro","locationTypeDisplay":"Micro Brewery","countryIsoCode":"US","status":"verified","statusDisplay":"Verified","createDate":"2012-01-03 02:42:15","updateDate":"2014-07-23 19:11:34","country":{"isoCode":"US","name":"UNITED STATES","displayName":"United States","isoThree":"USA","numberCode":840,"createDate":"2012-01-03 02:41:33"}},{"id":"1yqdyJ","name":"Eastside","streetAddress":"876 Jupiter Dr","locality":"Madison","region":"Wisconsin","postalCode":"53718","phone":"608-442-1333","website":"http://eastside.greatdanepub.com/","hoursOfOperation":"Monday-Wednesday 11AM-12AM, Thursday 11AM-2AM, Friday-Saturday 11AM-230AM, Sunday 10AM-12AM","latitude":43.085533,"longitude":-89.280716,"isPrimary":"N","inPlanning":"N","isClosed":"N","openToPublic":"Y","locationType":"restaurant","locationTypeDisplay":"Restaurant/Ale House","countryIsoCode":"US","status":"verified","statusDisplay":"Verified","createDate":"2012-03-25 20:25:03","updateDate":"2014-07-23 19:11:34","country":{"isoCode":"US","name":"UNITED STATES","displayName":"United States","isoThree":"USA","numberCode":840,"createDate":"2012-01-03 02:41:33"}},{"id":"eIZS7k","name":"Hilldale","streetAddress":"357 Price Pl","locality":"Madison","region":"Wisconsin","postalCode":"53705","phone":"608-661-9400","website":"http://hilldale.greatdanepub.com/","hoursOfOperation":"Monday- Thursday 11AM-2AM, Friday-Saturday 11AM-2:30AM, Sunday 10AM-2AM","latitude":43.070596,"longitude":-89.452548,"isPrimary":"N","inPlanning":"N","isClosed":"N","openToPublic":"Y","locationType":"restaurant","locationTypeDisplay":"Restaurant/Ale House","countryIsoCode":"US","status":"verified","statusDisplay":"Verified","createDate":"2012-03-25 20:27:35","updateDate":"2014-07-23 19:11:34","country":{"isoCode":"US","name":"UNITED STATES","displayName":"United States","isoThree":"USA","numberCode":840,"createDate":"2012-01-03 02:41:33"}},{"id":"GcIGHB","name":"Wausau","streetAddress":"2305 Sherman St","locality":"Wausau","region":"Wisconsin","postalCode":"54401","phone":"715-845-3000","website":"http://wausau.greatdanepub.com/","hoursOfOperation":"Monday-Thursday 11AM-2AM, Friday-Saturday 11AM-230am, Sunday 11AM-2AM","latitude":44.951872,"longitude":-89.664125,"isPrimary":"N","inPlanning":"N","isClosed":"N","openToPublic":"Y","locationType":"restaurant","locationTypeDisplay":"Restaurant/Ale House","countryIsoCode":"US","status":"verified","statusDisplay":"Verified","createDate":"2012-03-25 20:28:42","updateDate":"2014-07-23 19:11:34","country":{"isoCode":"US","name":"UNITED STATES","displayName":"United States","isoThree":"USA","numberCode":840,"createDate":"2012-01-03 02:41:33"}},{"id":"4sxEI8","name":"Main Brewery","streetAddress":"661 Howard Street","locality":"San Francisco","region":"California","postalCode":"94105","phone":"415-974-0905","website":"http://www.thirstybear.com/","latitude":37.7854897,"longitude":-122.3996951,"isPrimary":"Y","inPlanning":"N","isClosed":"N","openToPublic":"Y","locationType":"micro","locationTypeDisplay":"Micro Brewery","countryIsoCode":"US","status":"verified","statusDisplay":"Verified","createDate":"2012-01-03 02:42:10","updateDate":"2014-07-23 19:11:34","country":{"isoCode":"US","name":"UNITED STATES","displayName":"United States","isoThree":"USA","numberCode":840,"createDate":"2012-01-03 02:41:33"}},{"id":"71LkGn","name":"Main Brewery","streetAddress":"9750 Indiana Parkway","locality":"Munster","region":"Indiana","postalCode":"46321","phone":"1-219-922-3565","website":"http://www.threefloydspub.com/","latitude":41.535536,"longitude":-87.516687,"isPrimary":"Y","inPlanning":"N","isClosed":"N","openToPublic":"Y","locationType":"micro","locationTypeDisplay":"Micro Brewery","countryIsoCode":"US","yearOpened":"1996","status":"verified","statusDisplay":"Verified","createDate":"2012-01-03 02:42:10","updateDate":"2014-10-20 15:53:00","country":{"isoCode":"US","name":"UNITED STATES","displayName":"United States","isoThree":"USA","numberCode":840,"createDate":"2012-01-03 02:41:33"}},{"id":"GoDmMT","name":"Munster","streetAddress":"9750 Indiana Parkway","locality":"Munster","region":"Indiana","postalCode":"46321","phone":"219-922-4425","website":"http://www.3floyds.com/","latitude":41.535536,"longitude":-87.516687,"isPrimary":"N","inPlanning":"N","isClosed":"N","openToPublic":"Y","locationType":"brewpub","locationTypeDisplay":"Brewpub","countryIsoCode":"US","yearOpened":"1996","status":"verified","statusDisplay":"Verified","createDate":"2012-01-03 02:42:16","updateDate":"2014-07-23 19:11:34","country":{"isoCode":"US","name":"UNITED STATES","displayName":"United States","isoThree":"USA","numberCode":840,"createDate":"2012-01-03 02:41:33"}},{"id":"r457A4","name":"Main Brewery","streetAddress":"200 Dousman Street","locality":"Green Bay","region":"Wisconsin","postalCode":"54303","phone":"920-437-2337","website":"http://www.titletownbrewing.com/","hoursOfOperation":"11am - 9pm 7 days a week","latitude":44.520031,"longitude":-88.017274,"isPrimary":"Y","inPlanning":"N","isClosed":"N","openToPublic":"Y","locationType":"micro","locationTypeDisplay":"Micro Brewery","countryIsoCode":"US","yearOpened":"1996","status":"verified","statusDisplay":"Verified","createDate":"2012-01-03 02:42:10","updateDate":"2014-07-23 19:11:34","country":{"isoCode":"US","name":"UNITED STATES","displayName":"United States","isoThree":"USA","numberCode":840,"createDate":"2012-01-03 02:41:33"}},{"id":"IkgmFq","name":"Main Brewery","streetAddress":"1249-A Wicker Drive","locality":"Raleigh","region":"North Carolina","postalCode":"27604","latitude":35.809712,"longitude":-78.618223,"isPrimary":"Y","inPlanning":"N","isClosed":"Y","openToPublic":"N","locationType":"micro","locationTypeDisplay":"Micro Brewery","countryIsoCode":"US","yearOpened":"1996","yearClosed":"1998","status":"verified","statusDisplay":"Verified","createDate":"2012-03-29 21:42:43","updateDate":"2014-07-23 19:11:34","country":{"isoCode":"US","name":"UNITED STATES","displayName":"United States","isoThree":"USA","numberCode":840,"createDate":"2012-01-03 02:41:33"}},{"id":"eZ20pr","name":"Main Brewery","streetAddress":"101 East Franklin Street","locality":"Chapel Hill","region":"North Carolina","postalCode":"27514","phone":"1-919-929-8676","hoursOfOperation":"Restaurant is open everyday from 11:00 a.m. – 2:00 a.m.\r\nFull Lunch Menu served until 3:00 p.m.\r\nFull Dinner Menu served 5:00 p.m. – 10:00 p.m.\r\nLimited menu served 3:00 – 5:00 p.m. and 10:00 p.m. – 2:00 a.m.","latitude":35.9131641,"longitude":-79.0557507,"isPrimary":"Y","inPlanning":"N","isClosed":"N","openToPublic":"Y","locationType":"brewpub","locationTypeDisplay":"Brewpub","countryIsoCode":"US","yearOpened":"1996","status":"verified","statusDisplay":"Verified","createDate":"2012-01-03 02:42:10","updateDate":"2014-07-23 19:11:34","country":{"isoCode":"US","name":"UNITED STATES","displayName":"United States","isoThree":"USA","numberCode":840,"createDate":"2012-01-03 02:41:33"}},{"id":"EucDIk","name":"Main Brewery","streetAddress":"1083 Richter Street","locality":"Kelowna","region":"British Columbia","postalCode":"V1Y 2K6","phone":"1-800-663-4847","website":"http://www.treebeer.com/","latitude":49.895775,"longitude":-119.488474,"isPrimary":"Y","inPlanning":"N","isClosed":"N","openToPublic":"Y","locationType":"micro","locationTypeDisplay":"Micro Brewery","countryIsoCode":"CA","status":"verified","statusDisplay":"Verified","createDate":"2012-08-03 17:35:11","updateDate":"2014-07-23 19:11:34","country":{"isoCode":"CA","name":"CANADA","displayName":"Canada","isoThree":"CAN","numberCode":124,"createDate":"2012-01-03 02:41:33"}},{"id":"Qk9thn","name":"Main Brewery","streetAddress":"645 Broad Street","locality":"Lyndonville","region":"Vermont","postalCode":"05851","phone":"802-656-9396","website":"http://www.troutriverbrewing.com/","hoursOfOperation":"Our pub and retail shop is open Fridays & Saturdays from 4-9 pm","latitude":44.52877,"longitude":-72.000969,"isPrimary":"Y","inPlanning":"N","isClosed":"N","openToPublic":"Y","locationType":"micro","locationTypeDisplay":"Micro Brewery","countryIsoCode":"US","status":"verified","statusDisplay":"Verified","createDate":"2012-01-03 02:42:11","updateDate":"2014-09-26 13:58:38","country":{"isoCode":"US","name":"UNITED STATES","displayName":"United States","isoThree":"USA","numberCode":840,"createDate":"2012-01-03 02:41:33"}},{"id":"n6c4kV","name":"Main Brewery","streetAddress":"13011 Newport Ave","extendedAddress":"Suite 100","locality":"Tustin","region":"California","postalCode":"92780","phone":"714-665-2337","website":"http://www.tustinbrewery.com/","hoursOfOperation":"Monday-Friday 3-6\r\nThursday 6 - Close \t\r\nSunday-Thursday 10 pm - Close","latitude":33.7493994,"longitude":-117.8110242,"isPrimary":"Y","inPlanning":"N","isClosed":"N","openToPublic":"Y","locationType":"micro","locationTypeDisplay":"Micro Brewery","countryIsoCode":"US","yearOpened":"1996","status":"verified","statusDisplay":"Verified","createDate":"2012-01-03 02:42:11","updateDate":"2014-07-23 19:11:34","country":{"isoCode":"US","name":"UNITED STATES","displayName":"United States","isoThree":"USA","numberCode":840,"createDate":"2012-01-03 02:41:33"}},{"id":"PQKstw","name":"Main Brewery","streetAddress":"211 East Trinity Place","locality":"Decatur","region":"Georgia","postalCode":"30030","phone":"404-373-0063","website":"http://www.twains.net/","latitude":33.772582,"longitude":-84.2946768,"isPrimary":"Y","inPlanning":"N","isClosed":"N","openToPublic":"Y","locationType":"brewpub","locationTypeDisplay":"Brewpub","countryIsoCode":"US","yearOpened":"1996","status":"verified","statusDisplay":"Verified","createDate":"2012-01-03 02:42:11","updateDate":"2014-07-23 19:11:34","country":{"isoCode":"US","name":"UNITED STATES","displayName":"United States","isoThree":"USA","numberCode":840,"createDate":"2012-01-03 02:41:33"}},{"id":"jeOXxz","name":"Two Brothers Tap House","streetAddress":"30w315 Calumet Ave.","locality":"Warrenville","region":"Illinois","postalCode":"60555","phone":"630-393-BEER","website":"http://www.twobrotherstaphouse.com/","hoursOfOperation":"Monday        3:00 - 11:00\r\nTuesday        3:00 - 11:00\r\nWednesday   3:00 - 11:00\r\nThursday      3:00 - 11:00\r\nFriday         12:00 - 12:00\r\nSaturday     12:00 - 12:00\r\nSunday        12:00 - 9:00","latitude":41.824906,"longitude":-88.211221,"isPrimary":"N","inPlanning":"N","isClosed":"N","openToPublic":"Y","locationType":"brewpub","locationTypeDisplay":"Brewpub","countryIsoCode":"US","yearOpened":"1996","status":"verified","statusDisplay":"Verified","createDate":"2012-01-03 02:42:11","updateDate":"2014-07-23 19:11:34","country":{"isoCode":"US","name":"UNITED STATES","displayName":"United States","isoThree":"USA","numberCode":840,"createDate":"2012-01-03 02:41:33"}},{"id":"YOdPoo","name":"Main Brewery","streetAddress":"30W315 Calumet Ave.","locality":"Warrenville","region":"Illinois","postalCode":"60555","website":"http://www.twobrosbrew.com/","hoursOfOperation":"We are give tours EVERY Saturday at 1:00 and 2:30 and Sunday at 1:00.","latitude":41.824906,"longitude":-88.211221,"isPrimary":"Y","inPlanning":"N","isClosed":"N","openToPublic":"Y","locationType":"micro","locationTypeDisplay":"Micro Brewery","countryIsoCode":"US","yearOpened":"1996","status":"verified","statusDisplay":"Verified","createDate":"2012-01-26 12:57:18","updateDate":"2014-07-23 19:11:34","country":{"isoCode":"US","name":"UNITED STATES","displayName":"United States","isoThree":"USA","numberCode":840,"createDate":"2012-01-03 02:41:33"}},{"id":"AiMDyF","name":"Two Brothers Roundhouse","streetAddress":"205 N. Broadway","locality":"Aurora","region":"Illinois","postalCode":"60505","phone":"630-264-2739","website":"http://www.twobrothersroundhouse.com/","hoursOfOperation":"Mon - Thurs: 11:00 am - 12:00 am \r\nFri - Sat: 11:00 am - 1:00 am \r\nSun: 11:00 am - 11:00 pm","latitude":41.760709,"longitude":-88.309777,"isPrimary":"N","inPlanning":"N","isClosed":"N","openToPublic":"Y","locationType":"brewpub","locationTypeDisplay":"Brewpub","countryIsoCode":"US","yearOpened":"1996","status":"verified","statusDisplay":"Verified","createDate":"2012-01-26 12:59:51","updateDate":"2014-07-23 19:11:34","country":{"isoCode":"US","name":"UNITED STATES","displayName":"United States","isoThree":"USA","numberCode":840,"createDate":"2012-01-03 02:41:33"}},{"id":"ll7S9T","name":"Main Brewery","streetAddress":"Dorfstraße 43 Golzow","locality":"Britz-Chorin","region":"Brandenburg","postalCode":"D-16230","latitude":52.905895,"longitude":13.875075,"isPrimary":"N","inPlanning":"N","isClosed":"Y","openToPublic":"N","locationType":"micro","locationTypeDisplay":"Micro Brewery","countryIsoCode":"DE","status":"verified","statusDisplay":"Verified","createDate":"2012-08-12 14:46:57","updateDate":"2014-07-23 19:11:34","country":{"isoCode":"DE","name":"GERMANY","displayName":"Germany","isoThree":"DEU","numberCode":276,"createDate":"2012-01-03 02:41:33"}},{"id":"kSy38n","name":"Eleventh Street","streetAddress":"514 South Eleventh Street","locality":"Omaha","region":"Nebraska","postalCode":"68102","phone":"402-344-0200","website":"http://www.upstreambrewing.com/","hoursOfOperation":"Friday - Saturday: 11:00am – 2:00am \r\nSunday Brunch: 10:00am – 2:00pm\r\nSunday Dinner: 2:00pm – 10:00pm","latitude":41.254724,"longitude":-95.930883,"isPrimary":"Y","inPlanning":"N","isClosed":"N","openToPublic":"Y","locationType":"brewpub","locationTypeDisplay":"Brewpub","countryIsoCode":"US","yearOpened":"1996","status":"verified","statusDisplay":"Verified","createDate":"2012-01-03 02:42:11","updateDate":"2014-07-23 19:11:34","country":{"isoCode":"US","name":"UNITED STATES","displayName":"United States","isoThree":"USA","numberCode":840,"createDate":"2012-01-03 02:41:33"}},{"id":"yiYdH5","name":"Wright Plaza","streetAddress":"17070 Wright Plaza","locality":"Omaha","region":"Nebraska","postalCode":"68130","phone":"402-778-0100","website":"http://www.upstreambrewing.com/","hoursOfOperation":"Monday: 11:00am – 11:00pm\r\nTuesday: 11:00am – 10:00pm\r\nWednesday - Thursday: 11:00am – 11:00pm\r\nFriday-Saturda: 11:00am – midnight\r\nSunday Brunch: 10:00am – 2:00pm\r\nSunday Dinner: 2:00pm – 9:00pm","latitude":41.2332014,"longitude":-96.1817331,"isPrimary":"N","inPlanning":"N","isClosed":"N","openToPublic":"N","locationType":"brewpub","locationTypeDisplay":"Brewpub","countryIsoCode":"US","yearOpened":"1996","status":"verified","statusDisplay":"Verified","createDate":"2012-01-03 02:42:16","updateDate":"2014-07-23 19:11:34","country":{"isoCode":"US","name":"UNITED STATES","displayName":"United States","isoThree":"USA","numberCode":840,"createDate":"2012-01-03 02:41:33"}},{"id":"LSrqUN","name":"Main Brewery","streetAddress":"420 Acorn Lane","locality":"Downingtown","region":"Pennsylvania","postalCode":"19335","phone":"1-610-873-0881","website":"http://www.victorybeer.com/","hoursOfOperation":"BREWERY HOURS (For Shipping and Receiving)\r\n8:00 am to 4:00 pm Monday through Thursday\r\n\r\nRESTAURANT\r\nVisit our Brewpub page.\r\nMonday – Saturday 11:30am – Midnight\r\nSunday 11:30am – 10:00pm\r\n\r\nRETAIL STORE \r\nVisit our online store.\r\n610-873-0881 ext. 206\r\nSunday 11:30am – 8:00pm\r\nMonday -Thursday 11:30am – 8:30pm\r\nFriday – Saturday 11:30am – 10:00pm","latitude":40.0061038,"longitude":-75.6941546,"isPrimary":"Y","inPlanning":"N","isClosed":"N","openToPublic":"Y","locationType":"micro","locationTypeDisplay":"Micro Brewery","countryIsoCode":"US","yearOpened":"1996","status":"verified","statusDisplay":"Verified","createDate":"2012-01-03 02:42:12","updateDate":"2014-07-23 19:11:34","country":{"isoCode":"US","name":"UNITED STATES","displayName":"United States","isoThree":"USA","numberCode":840,"createDate":"2012-01-03 02:41:33"}},{"id":"t0Y73R","name":"Main Brewery","streetAddress":"256 Moody Street","locality":"Waltham","region":"Massachusetts","postalCode":"02453","phone":"781-647-4000","website":"http://www.watchcitybrew.com/","hoursOfOperation":"Mon - Wed:\t11:30 am\t-\t10:00 pm\r\nThu:\t11:30 am - 10:30 pm\r\nFri - Sat:\t11:30 am - 11:00 pm\r\nSun:\t11:30 am - 10:00 pm","latitude":42.37179,"longitude":-71.236682,"isPrimary":"Y","inPlanning":"N","isClosed":"N","openToPublic":"Y","locationType":"micro","locationTypeDisplay":"Micro Brewery","countryIsoCode":"US","yearOpened":"1996","status":"verified","statusDisplay":"Verified","createDate":"2012-01-03 02:42:12","updateDate":"2014-07-23 19:11:34","country":{"isoCode":"US","name":"UNITED STATES","displayName":"United States","isoThree":"USA","numberCode":840,"createDate":"2012-01-03 02:41:33"}},{"id":"mugYfD","name":"Main Brewery","streetAddress":"4580 Quesnay Wood Drive Southwest","extendedAddress":"Bldg AF23, #2","locality":"Calgary","region":"Alberta","postalCode":"T3E 7J3","phone":"866-720-2733","website":"http://www.wildrosebrewery.com/","latitude":51.01337,"longitude":-114.122895,"isPrimary":"Y","inPlanning":"N","isClosed":"N","openToPublic":"Y","locationType":"micro","locationTypeDisplay":"Micro Brewery","countryIsoCode":"CA","yearOpened":"1996","status":"verified","statusDisplay":"Verified","createDate":"2012-01-03 02:42:13","updateDate":"2014-07-23 19:11:34","country":{"isoCode":"CA","name":"CANADA","displayName":"Canada","isoThree":"CAN","numberCode":124,"createDate":"2012-01-03 02:41:33"}},{"id":"7r74U4","name":"Main Brewery","streetAddress":"1119-1 Otai","locality":"Saku city","region":"Nagano","postalCode":"385-0009","phone":"0267-66-1047","website":"http://www.yonasato.com/","latitude":36.302185,"longitude":138.488319,"isPrimary":"Y","inPlanning":"N","isClosed":"N","openToPublic":"Y","locationType":"micro","locationTypeDisplay":"Micro Brewery","countryIsoCode":"JP","yearOpened":"1996","status":"verified","statusDisplay":"Verified","createDate":"2012-10-22 13:29:55","updateDate":"2014-07-23 19:11:34","country":{"isoCode":"JP","name":"JAPAN","displayName":"Japan","isoThree":"JPN","numberCode":392,"createDate":"2012-01-03 02:41:33"}},{"id":"J8XoQQ","name":"Main Brewery","streetAddress":"12 Toft Green","locality":"York","postalCode":"YO1 6JT","phone":"01904 621162","website":"http://www.york-brewery.co.uk","latitude":53.9570735,"longitude":-1.0905236,"isPrimary":"Y","inPlanning":"N","isClosed":"N","openToPublic":"Y","locationType":"micro","locationTypeDisplay":"Micro Brewery","countryIsoCode":"GB","yearOpened":"1996","status":"verified","statusDisplay":"Verified","createDate":"2012-01-03 02:42:13","updateDate":"2014-07-23 19:11:34","country":{"isoCode":"GB","name":"UNITED KINGDOM","displayName":"United Kingdom","isoThree":"GBR","numberCode":826,"createDate":"2012-01-03 02:41:33"}}]