[{"id":"FPrivn","name":"Main Brewery","streetAddress":"Camden Row","region":"Bath","postalCode":"BA1 5LB","phone":"01225 444437","website":"http://www.abbeyales.co.uk/","latitude":51.389657,"longitude":-2.36195,"isPrimary":"Y","inPlanning":"N","isClosed":"N","openToPublic":"Y","locationType":"micro","locationTypeDisplay":"Micro Brewery","countryIsoCode":"GB","status":"verified","statusDisplay":"Verified","createDate":"2012-07-12 12:13:30","updateDate":"2014-07-23 19:11:34","country":{"isoCode":"GB","name":"UNITED KINGDOM","displayName":"United Kingdom","isoThree":"GBR","numberCode":826,"createDate":"2012-01-03 02:41:33"}},{"id":"oJWOqb","name":"Main Brewery","streetAddress":"140 Laurens St SW","locality":"Aiken","region":"South Carolina","postalCode":"29801","phone":"803-502-0707","website":"http://www.aikenbrewingcompany.com/","hoursOfOperation":"Mon:  11:00am - 10:00pm, 11:00am - 12:00am\nTue:  11:00am - 10:00pm, 11:00am - 12:00am\nWed:  11:00am - 10:00pm, 11:00am - 12:00am\nThu:  11:00am - 10:00pm, 11:00am - 2:00am\nFri:  11:00am - 10:00pm, 11:00am - 2:00am\nSat:  12:00pm - 10:00pm, 12:00pm - 2:00am\n\nKitchen Hours\r\nMonday - Friday: 11am - 10pm\r\nSaturday: 12pm - 10pm\r\nSunday: Closed\r\n\r\nBar Hours\r\nMonday - Wednesday:11am - 12am\r\nThursday/Friday: 11am - 2am\r\nSaturday: 12pm - 2am\r\nSunday: Closed","latitude":33.5602133,"longitude":-81.7228231,"isPrimary":"Y","inPlanning":"N","isClosed":"N","openToPublic":"Y","locationType":"micro","locationTypeDisplay":"Micro Brewery","countryIsoCode":"US","yearOpened":"1997","status":"verified","statusDisplay":"Verified","createDate":"2012-01-03 02:41:43","updateDate":"2014-08-25 19:12:24","country":{"isoCode":"US","name":"UNITED STATES","displayName":"United States","isoThree":"USA","numberCode":840,"createDate":"2012-01-03 02:41:33"}},{"id":"CoN5ry","name":"Main Brewery","streetAddress":"8201 NE Birmingham Road","locality":"Kansas City","region":"Missouri","postalCode":"64161","phone":"816-414-7000","website":"http://www.ameristar.com/Kansas_City_Dining_Amerisports_Brew_Pub.aspx","latitude":39.1551041,"longitude":-94.4820108,"isPrimary":"Y","inPlanning":"N","isClosed":"N","openToPublic":"Y","locationType":"micro","locationTypeDisplay":"Micro Brewery","countryIsoCode":"US","yearOpened":"1997","status":"verified","statusDisplay":"Verified","createDate":"2012-01-03 02:41:44","updateDate":"2014-07-23 19:11:34","country":{"isoCode":"US","name":"UNITED STATES","displayName":"United States","isoThree":"USA","numberCode":840,"createDate":"2012-01-03 02:41:33"}},{"id":"RRoiAq","name":"Main Brewery","streetAddress":"24 North Pleasant Street","locality":"Amherst","region":"Massachusetts","postalCode":"01002","phone":"413-253-4400","website":"http://www.amherstbrewing.com/","latitude":42.3763254,"longitude":-72.5198934,"isPrimary":"Y","inPlanning":"N","isClosed":"N","openToPublic":"Y","locationType":"micro","locationTypeDisplay":"Micro Brewery","countryIsoCode":"US","yearOpened":"1997","status":"verified","statusDisplay":"Verified","createDate":"2012-01-03 02:41:44","updateDate":"2014-07-23 19:11:34","country":{"isoCode":"US","name":"UNITED STATES","displayName":"United States","isoThree":"USA","numberCode":840,"createDate":"2012-01-03 02:41:33"}},{"id":"5tw2Iw","name":"Main Brewery","streetAddress":"216 S Alameda St","locality":"Los Angeles","region":"California","postalCode":"90013","phone":"310-329-8881","website":"http://www.angelcitybrewing.com/","latitude":34.0466054,"longitude":-118.2378181,"isPrimary":"Y","inPlanning":"N","isClosed":"N","openToPublic":"Y","locationType":"micro","locationTypeDisplay":"Micro Brewery","countryIsoCode":"US","yearOpened":"1997","status":"verified","statusDisplay":"Verified","createDate":"2012-01-03 02:41:44","updateDate":"2014-07-23 19:11:34","country":{"isoCode":"US","name":"UNITED STATES","displayName":"United States","isoThree":"USA","numberCode":840,"createDate":"2012-01-03 02:41:33"}},{"id":"FlL71R","name":"Main Brewery","streetAddress":"1015 Lee Blvd","locality":"Richland","region":"Washington","postalCode":"99352","phone":"509-946-5465","website":"http://www.atomicalebrewpub.com/","hoursOfOperation":"Mon:  11:00am - 10:00pm\nTue:  11:00am - 10:00pm\nWed:  11:00am - 10:00pm\nThu:  11:00am - 10:00pm\nFri:  11:00am - 11:00pm\nSat:  11:00am - 11:00pm\nSun:  11:00am - 8:00pm\n\nMonday – Thursday – 11:00 am – 10:00 pm (last seating)\r\nFriday – Saturday – 11:00 am – 11:00 pm (last seating)\r\nSunday – 11:00 am – 8:00 pm (last seating)","latitude":46.274522,"longitude":-119.277307,"isPrimary":"Y","inPlanning":"N","isClosed":"N","openToPublic":"Y","locationType":"brewpub","locationTypeDisplay":"Brewpub","countryIsoCode":"US","status":"verified","statusDisplay":"Verified","createDate":"2012-01-03 02:41:44","updateDate":"2014-09-29 20:33:35","country":{"isoCode":"US","name":"UNITED STATES","displayName":"United States","isoThree":"USA","numberCode":840,"createDate":"2012-01-03 02:41:33"}},{"id":"s53vAs","name":"Main Brewery","streetAddress":"237 Joseph Campau Street","locality":"Detroit","region":"Michigan","postalCode":"48207","phone":"313-877-9205","website":"http://www.atwaterbeer.com/","hoursOfOperation":"Wed:  4:00pm - 11:00pm\nThu:  4:00pm - 11:00pm\nFri:  4:00pm - 11:00pm\nSat:  4:00pm - 11:00pm\n\n","latitude":42.337152,"longitude":-83.018559,"isPrimary":"Y","inPlanning":"N","isClosed":"N","openToPublic":"Y","locationType":"micro","locationTypeDisplay":"Micro Brewery","countryIsoCode":"US","yearOpened":"1997","status":"verified","statusDisplay":"Verified","createDate":"2012-01-03 02:41:44","updateDate":"2014-09-12 11:46:18","country":{"isoCode":"US","name":"UNITED STATES","displayName":"United States","isoThree":"USA","numberCode":840,"createDate":"2012-01-03 02:41:33"}},{"id":"asjZQA","name":"Atwater in the Park","streetAddress":"1175 Lakepointe St","locality":"Grosse Pointe Park","region":"Michigan","postalCode":"48230","phone":"313-344-5104","hoursOfOperation":"Mon:  11:30am - 12:00am\nTue:  11:30am - 12:00am\nWed:  11:30am - 12:00am\nThu:  11:30am - 12:00am\nFri:  11:30am - 2:00am\nSat:  11:30am - 2:00am\nSun:  11:30am - 10:00pm\n\n","latitude":42.381259,"longitude":-82.940102,"isPrimary":"N","inPlanning":"N","isClosed":"N","openToPublic":"Y","locationType":"brewpub","locationTypeDisplay":"Brewpub","countryIsoCode":"US","status":"verified","statusDisplay":"Verified","createDate":"2014-10-20 17:31:13","updateDate":"2014-10-20 17:31:13","country":{"isoCode":"US","name":"UNITED STATES","displayName":"United States","isoThree":"USA","numberCode":840,"createDate":"2012-01-03 02:41:33"}},{"id":"XLkkTm","name":"Main Brewery","streetAddress":"1425 McCulloch Boulevard","locality":"Lake Havasu City","region":"Arizona","postalCode":"86403","phone":"928-505-7837","website":"http://www.barleybrothers.com/","hoursOfOperation":"Mon - Sun: 11:00 am - 10:00 pm","latitude":34.4701913,"longitude":-114.3500347,"isPrimary":"Y","inPlanning":"N","isClosed":"N","openToPublic":"Y","locationType":"micro","locationTypeDisplay":"Micro Brewery","countryIsoCode":"US","yearOpened":"1997","status":"verified","statusDisplay":"Verified","createDate":"2012-01-03 02:41:45","updateDate":"2014-07-23 19:11:34","country":{"isoCode":"US","name":"UNITED STATES","displayName":"United States","isoThree":"USA","numberCode":840,"createDate":"2012-01-03 02:41:33"}},{"id":"M3qDmi","name":"Main Brewery","streetAddress":"Thomas-Mann-Straße 7","region":"Bautzen","postalCode":"02625","latitude":51.179123,"longitude":14.439663,"isPrimary":"Y","inPlanning":"N","isClosed":"N","openToPublic":"Y","locationType":"micro","locationTypeDisplay":"Micro Brewery","countryIsoCode":"DE","status":"verified","statusDisplay":"Verified","createDate":"2012-08-15 15:47:27","updateDate":"2014-07-23 19:11:34","country":{"isoCode":"DE","name":"GERMANY","displayName":"Germany","isoThree":"DEU","numberCode":276,"createDate":"2012-01-03 02:41:33"}},{"id":"P7Ug6t","name":"Main Brewery","streetAddress":"1000 Great Highway","locality":"San Francisco","region":"California","postalCode":"94121","phone":"415-386-8439","website":"http://www.beachchalet.com/","latitude":37.7694097,"longitude":-122.5105452,"isPrimary":"Y","inPlanning":"N","isClosed":"N","openToPublic":"Y","locationType":"brewpub","locationTypeDisplay":"Brewpub","countryIsoCode":"US","yearOpened":"1997","status":"verified","statusDisplay":"Verified","createDate":"2012-01-03 02:41:45","updateDate":"2014-07-23 19:11:34","country":{"isoCode":"US","name":"UNITED STATES","displayName":"United States","isoThree":"USA","numberCode":840,"createDate":"2012-01-03 02:41:33"}},{"id":"2FmzR8","name":"Main Brewery","streetAddress":"1413 Fifth Avenue","locality":"Moline","region":"Illinois","postalCode":"61265","phone":"(309) 797-2722","website":"http://www.bentriverbrewery.com","hoursOfOperation":"Mon - Sun: 11:00 am - 3:00 am","latitude":41.5059268,"longitude":-90.5170986,"isPrimary":"Y","inPlanning":"N","isClosed":"N","openToPublic":"Y","locationType":"micro","locationTypeDisplay":"Micro Brewery","countryIsoCode":"US","yearOpened":"1997","status":"verified","statusDisplay":"Verified","createDate":"2012-01-03 02:41:45","updateDate":"2014-07-23 19:11:34","country":{"isoCode":"US","name":"UNITED STATES","displayName":"United States","isoThree":"USA","numberCode":840,"createDate":"2012-01-03 02:41:33"}},{"id":"iqIpXt","name":"Main Brewery","streetAddress":"2500 28th Street SE","locality":"Grand Rapids","region":"Michigan","postalCode":"49512","latitude":42.911872,"longitude":-85.604746,"isPrimary":"Y","inPlanning":"N","isClosed":"Y","openToPublic":"Y","locationType":"micro","locationTypeDisplay":"Micro Brewery","countryIsoCode":"US","yearOpened":"1997","status":"verified","statusDisplay":"Verified","createDate":"2012-01-03 02:41:46","updateDate":"2014-07-23 19:11:34","country":{"isoCode":"US","name":"UNITED STATES","displayName":"United States","isoThree":"USA","numberCode":840,"createDate":"2012-01-03 02:41:33"}},{"id":"7L9WZG","name":"Main Brewery","streetAddress":"604 Broadway Street","locality":"Rock Springs","region":"Wyoming","postalCode":"82901","phone":"307-362-4782","website":"http://www.bittercreekbrewing.com/","latitude":41.586732,"longitude":-109.21782,"isPrimary":"Y","inPlanning":"N","isClosed":"N","openToPublic":"Y","locationType":"brewpub","locationTypeDisplay":"Brewpub","countryIsoCode":"US","yearOpened":"1997","status":"verified","statusDisplay":"Verified","createDate":"2012-01-03 02:41:46","updateDate":"2014-07-23 19:11:34","country":{"isoCode":"US","name":"UNITED STATES","displayName":"United States","isoThree":"USA","numberCode":840,"createDate":"2012-01-03 02:41:33"}},{"id":"FsjaTu","name":"Blue Corn Cafe","streetAddress":"133 Water Street","locality":"Santa Fe","region":"New Mexico","postalCode":"87501","phone":"505-984-1800","website":"http://www.bluecorncafe.com/","latitude":35.6866244,"longitude":-105.9401621,"isPrimary":"Y","inPlanning":"N","isClosed":"N","openToPublic":"Y","locationType":"restaurant","locationTypeDisplay":"Restaurant/Ale House","countryIsoCode":"US","status":"verified","statusDisplay":"Verified","createDate":"2012-01-03 02:41:46","updateDate":"2014-07-23 19:11:34","country":{"isoCode":"US","name":"UNITED STATES","displayName":"United States","isoThree":"USA","numberCode":840,"createDate":"2012-01-03 02:41:33"}},{"id":"QrYNAG","name":"Cerrillos Road","streetAddress":"4056 Cerrillos Road,","locality":"Santa Fe","region":"New Mexico","postalCode":"87507","phone":"505-438-1800","website":"http://www.bluecornbrewery.com/","hoursOfOperation":"Mon - Sun: 11:00 am - 10:00 pm","latitude":35.639103,"longitude":-106.015703,"isPrimary":"N","inPlanning":"N","isClosed":"N","openToPublic":"Y","locationType":"brewpub","locationTypeDisplay":"Brewpub","countryIsoCode":"US","yearOpened":"1997","status":"verified","statusDisplay":"Verified","createDate":"2012-01-03 02:42:14","updateDate":"2014-07-23 19:11:34","country":{"isoCode":"US","name":"UNITED STATES","displayName":"United States","isoThree":"USA","numberCode":840,"createDate":"2012-01-03 02:41:33"}},{"id":"vxzuxc","name":"Main Brewery","streetAddress":"Chemin des Buissons 8","locality":"Saignelgier","phone":"41-32-951-26-26","latitude":47.2542808,"longitude":7.0025782,"isPrimary":"Y","inPlanning":"N","isClosed":"N","openToPublic":"Y","locationType":"micro","locationTypeDisplay":"Micro Brewery","countryIsoCode":"CH","status":"verified","statusDisplay":"Verified","createDate":"2012-01-03 02:41:47","updateDate":"2014-07-23 19:11:34","country":{"isoCode":"CH","name":"SWITZERLAND","displayName":"Switzerland","isoThree":"CHE","numberCode":756,"createDate":"2012-01-03 02:41:33"}},{"id":"jQnQ5W","name":"Main Brewery","streetAddress":"Grünhainer Straße 15","locality":"Zwönitz","region":"Sachsen","postalCode":"D-08297","latitude":50.64845,"longitude":12.82165,"isPrimary":"N","inPlanning":"N","isClosed":"N","openToPublic":"Y","locationType":"micro","locationTypeDisplay":"Micro Brewery","countryIsoCode":"DE","status":"verified","statusDisplay":"Verified","createDate":"2012-08-12 14:48:18","updateDate":"2014-07-23 19:11:34","country":{"isoCode":"DE","name":"GERMANY","displayName":"Germany","isoThree":"DEU","numberCode":276,"createDate":"2012-01-03 02:41:33"}},{"id":"zhO2k0","name":"Main Brewery","streetAddress":"Schlossplatz 1","locality":"Schwetzingen","region":"Baden-Württemberg","postalCode":"68723","latitude":42.28619,"longitude":-97.193235,"isPrimary":"Y","inPlanning":"N","isClosed":"N","openToPublic":"Y","locationType":"micro","locationTypeDisplay":"Micro Brewery","countryIsoCode":"DE","status":"verified","statusDisplay":"Verified","createDate":"2012-08-13 11:13:39","updateDate":"2014-07-23 19:11:34","country":{"isoCode":"DE","name":"GERMANY","displayName":"Germany","isoThree":"DEU","numberCode":276,"createDate":"2012-01-03 02:41:33"}},{"id":"0j4t2Z","name":"Riverside Point","streetAddress":"30 Merchant Rd","extendedAddress":"01-05 Riverside Point","locality":"Singapore","region":"Singapore","postalCode":"058282","phone":"+65-6438-7438","website":"http://www.brewerkz.com","hoursOfOperation":"Mon:  12:00pm - 12:00am\nSun:  12:00pm - 12:00am, 12:00pm - 12:00am, 12:00pm - 12:00am, 12:00pm - 12:00am\nTue:  12:00pm - 12:00am\nWed:  12:00pm - 12:00am\nThu:  12:00pm - 12:00am\nFri:  12:00pm - 1:00am\nSat:  12:00pm - 1:00am\n\nMon - Thurs & Sun12PM - 12AM\r\nFri, Sat & PH Eve12PM - 1AM\r\nPublic holidayOpen from 12PM","latitude":1.289129,"longitude":103.844223,"isPrimary":"Y","inPlanning":"N","isClosed":"N","openToPublic":"Y","locationType":"micro","locationTypeDisplay":"Micro Brewery","countryIsoCode":"SG","yearOpened":"1997","status":"verified","statusDisplay":"Verified","createDate":"2014-02-02 00:33:42","updateDate":"2014-09-29 20:36:42","country":{"isoCode":"SG","name":"SINGAPORE","displayName":"Singapore","isoThree":"SGP","numberCode":702,"createDate":"2012-01-03 02:41:33"}},{"id":"T0Qftd","name":"Brewery Ommegang","streetAddress":"656 County Highway 33","locality":"Cooperstown","region":"New York","postalCode":"13326","phone":"607-544-1800","website":"http://www.ommegang.com/","hoursOfOperation":"11am-6pm (summer hours)\r\n12-5pm (winter hours)","latitude":42.6268786,"longitude":-74.9452273,"isPrimary":"Y","inPlanning":"N","isClosed":"N","openToPublic":"Y","locationType":"production","locationTypeDisplay":"Production Facility","countryIsoCode":"US","yearOpened":"1997","status":"verified","statusDisplay":"Verified","createDate":"2012-01-03 02:41:48","updateDate":"2014-09-29 20:36:44","country":{"isoCode":"US","name":"UNITED STATES","displayName":"United States","isoThree":"USA","numberCode":840,"createDate":"2012-01-03 02:41:33"}},{"id":"t8QNGc","name":"Main Brewery","streetAddress":"9985 Walford Avenue","locality":"Cleveland","region":"Ohio","postalCode":"44102","phone":"216-281-5347","website":"http://buckeyebrewing.com/","latitude":41.4558003,"longitude":-81.7532434,"isPrimary":"Y","inPlanning":"N","isClosed":"N","openToPublic":"Y","locationType":"micro","locationTypeDisplay":"Micro Brewery","countryIsoCode":"US","yearOpened":"1997","status":"verified","statusDisplay":"Verified","createDate":"2012-01-03 02:41:49","updateDate":"2014-07-23 19:11:34","country":{"isoCode":"US","name":"UNITED STATES","displayName":"United States","isoThree":"USA","numberCode":840,"createDate":"2012-01-03 02:41:33"}},{"id":"pAxKr3","name":"Main Brewery","streetAddress":"110 Barley Park Lane","locality":"Mooresville","region":"North Carolina","postalCode":"28115","phone":"704-799-2337","website":"http://www.carolinabeer.com/","latitude":35.6223381,"longitude":-80.8018611,"isPrimary":"Y","inPlanning":"N","isClosed":"Y","openToPublic":"N","locationType":"micro","locationTypeDisplay":"Micro Brewery","countryIsoCode":"US","yearOpened":"1997","yearClosed":"2010","status":"verified","statusDisplay":"Verified","createDate":"2012-01-03 02:41:50","updateDate":"2014-07-23 19:11:34","country":{"isoCode":"US","name":"UNITED STATES","displayName":"United States","isoThree":"USA","numberCode":840,"createDate":"2012-01-03 02:41:33"}},{"id":"0s8yID","name":"Main Brewery","streetAddress":"Sukhbaatar street-10,","extendedAddress":"6th Khoroo,","locality":"Chingeltei District","region":"Ulaanbaatar","phone":"+ (976)-70115820","website":"http://www.chinggisbeer.mn/","latitude":47.921378,"longitude":106.90554,"isPrimary":"Y","inPlanning":"N","isClosed":"N","openToPublic":"Y","locationType":"micro","locationTypeDisplay":"Micro Brewery","countryIsoCode":"MN","yearOpened":"1997","status":"verified","statusDisplay":"Verified","createDate":"2013-05-10 13:15:41","updateDate":"2014-07-23 19:11:34","country":{"isoCode":"MN","name":"MONGOLIA","displayName":"Mongolia","isoThree":"MNG","numberCode":496,"createDate":"2012-01-03 02:41:33"}},{"id":"N1xaxs","name":"Main Brewery","streetAddress":"164 Evans Avenue","locality":"Toronto","region":"Ontario","postalCode":"M8Z 1J4","phone":"416-255-7100","website":"http://www.coolbeer.com/","latitude":43.6187787,"longitude":-79.510091,"isPrimary":"Y","inPlanning":"N","isClosed":"N","openToPublic":"Y","locationType":"micro","locationTypeDisplay":"Micro Brewery","countryIsoCode":"CA","yearOpened":"1997","status":"verified","statusDisplay":"Verified","createDate":"2012-01-03 02:41:51","updateDate":"2014-07-23 19:11:34","country":{"isoCode":"CA","name":"CANADA","displayName":"Canada","isoThree":"CAN","numberCode":124,"createDate":"2012-01-03 02:41:33"}},{"id":"vODMhk","name":"Main Brewery","streetAddress":"300 Village Square Blvd.","locality":"Honeoye Falls","region":"New York","postalCode":"14472","phone":"(716) 624-4386","website":"http://www.custombrewcrafters.com/","hoursOfOperation":"Monday\t12:00–8:00 pm\r\nTuesday\t12:00–8:00 pm\r\nWednesday\t12:00–8:00 pm\r\nThursday\t12:00–8:00 pm\r\nFriday\t12:00–8:00 pm\r\nSaturday\t10:00 am – 6:00 pm\r\nSunday\t12:00–6:00 pm","latitude":42.9505606,"longitude":-77.602661,"isPrimary":"Y","inPlanning":"N","isClosed":"N","openToPublic":"Y","locationType":"micro","locationTypeDisplay":"Micro Brewery","countryIsoCode":"US","yearOpened":"1997","status":"verified","statusDisplay":"Verified","createDate":"2012-01-03 02:41:52","updateDate":"2014-07-23 19:11:34","country":{"isoCode":"US","name":"UNITED STATES","displayName":"United States","isoThree":"USA","numberCode":840,"createDate":"2012-01-03 02:41:33"}},{"id":"x1MN3M","name":"Main Brewery","streetAddress":"100 Little Dam St","locality":"Dillon","region":"Colorado","postalCode":"80435","phone":"970-262-7777","website":"http://www.dambrewery.com/","hoursOfOperation":"Mon:  11:30am - 11:30pm\nTue:  11:30am - 11:30pm\nWed:  11:30am - 11:30pm\nThu:  11:30am - 11:30pm\nFri:  11:30am - 12:00am\nSat:  11:00am - 12:00am\nSun:  11:00am - 11:30pm\n\n","latitude":39.6275436,"longitude":-106.060298,"isPrimary":"Y","inPlanning":"N","isClosed":"N","openToPublic":"Y","locationType":"micro","locationTypeDisplay":"Micro Brewery","countryIsoCode":"US","status":"verified","statusDisplay":"Verified","createDate":"2012-01-03 02:41:52","updateDate":"2014-08-07 11:02:15","country":{"isoCode":"US","name":"UNITED STATES","displayName":"United States","isoThree":"USA","numberCode":840,"createDate":"2012-01-03 02:41:33"}},{"id":"CmhU4n","name":"Main Brewery","streetAddress":"355 Emira Road North","locality":"Guelph","region":"Ontario","postalCode":"N1K 1S5","phone":"877-316-2337","website":"http://www.stonehammer.ca/","latitude":43.534044,"longitude":-80.305638,"isPrimary":"Y","inPlanning":"N","isClosed":"N","openToPublic":"Y","locationType":"micro","locationTypeDisplay":"Micro Brewery","countryIsoCode":"CA","yearOpened":"1997","status":"verified","statusDisplay":"Verified","createDate":"2012-01-03 02:41:54","updateDate":"2014-07-23 19:11:34","country":{"isoCode":"CA","name":"CANADA","displayName":"Canada","isoThree":"CAN","numberCode":124,"createDate":"2012-01-03 02:41:33"}},{"id":"uBmpMM","name":"Main Brewery","streetAddress":"200 Imperial Blvd.","locality":"Cape Canaveral","region":"Florida","postalCode":"32920","phone":"321-728-3412","website":"http://www.floridabeer.com/","latitude":28.3993923,"longitude":-80.6097355,"isPrimary":"Y","inPlanning":"N","isClosed":"N","openToPublic":"Y","locationType":"micro","locationTypeDisplay":"Micro Brewery","countryIsoCode":"US","yearOpened":"1997","status":"verified","statusDisplay":"Verified","createDate":"2012-01-03 02:41:54","updateDate":"2014-07-23 19:11:34","country":{"isoCode":"US","name":"UNITED STATES","displayName":"United States","isoThree":"USA","numberCode":840,"createDate":"2012-01-03 02:41:33"}},{"id":"7VPQrN","name":"Main Brewery","streetAddress":"235 Grandville Avenue SW","locality":"Grand Rapids","region":"Michigan","postalCode":"49503","phone":"616-776-1195","website":"http://www.foundersbrewing.com/","latitude":42.9583375,"longitude":-85.6738326,"isPrimary":"Y","inPlanning":"N","isClosed":"N","openToPublic":"Y","locationType":"micro","locationTypeDisplay":"Micro Brewery","countryIsoCode":"US","yearOpened":"1997","status":"verified","statusDisplay":"Verified","createDate":"2012-01-03 02:41:55","updateDate":"2014-09-12 11:45:52","country":{"isoCode":"US","name":"UNITED STATES","displayName":"United States","isoThree":"USA","numberCode":840,"createDate":"2012-01-03 02:41:33"}},{"id":"RjT5vQ","name":"Main Brewery","streetAddress":"4301 W. Wisconsin Avenue","locality":"Appleton","region":"Wisconsin","postalCode":"54915","phone":"920-991-0000","website":"http://supplerestaurantgroup.com/index.php/Fox-River-Brewing-Company/","latitude":44.273028,"longitude":-88.469748,"isPrimary":"Y","inPlanning":"N","isClosed":"N","openToPublic":"Y","locationType":"micro","locationTypeDisplay":"Micro Brewery","countryIsoCode":"US","status":"verified","statusDisplay":"Verified","createDate":"2012-01-03 02:41:55","updateDate":"2014-07-23 19:11:34","country":{"isoCode":"US","name":"UNITED STATES","displayName":"United States","isoThree":"USA","numberCode":840,"createDate":"2012-01-03 02:41:33"}},{"id":"djGgca","name":"Main Brewery","streetAddress":"1149 Marginal Road","locality":"Halifax","region":"Nova Scotia","postalCode":"B3H 4P7","phone":"902-453-5343","website":"http://www.garrisonbrewing.com/","latitude":44.6409207,"longitude":-63.5671075,"isPrimary":"Y","inPlanning":"N","isClosed":"N","openToPublic":"Y","locationType":"micro","locationTypeDisplay":"Micro Brewery","countryIsoCode":"CA","yearOpened":"1997","status":"verified","statusDisplay":"Verified","createDate":"2012-01-03 02:41:55","updateDate":"2014-07-23 19:11:34","country":{"isoCode":"CA","name":"CANADA","displayName":"Canada","isoThree":"CAN","numberCode":124,"createDate":"2012-01-03 02:41:33"}},{"id":"MsPixW","name":"Main Brewery","streetAddress":"Pennickental 44","locality":"Jena","region":"Thuringia","postalCode":"07749","latitude":50.905999,"longitude":11.603413,"isPrimary":"Y","inPlanning":"N","isClosed":"N","openToPublic":"Y","locationType":"micro","locationTypeDisplay":"Micro Brewery","countryIsoCode":"DE","status":"verified","statusDisplay":"Verified","createDate":"2012-08-16 12:12:56","updateDate":"2014-07-23 19:11:34","country":{"isoCode":"DE","name":"GERMANY","displayName":"Germany","isoThree":"DEU","numberCode":276,"createDate":"2012-01-03 02:41:33"}},{"id":"ggEhm3","name":"Main Brewery","streetAddress":"357 East Taylor Street","locality":"San Jose","region":"California","postalCode":"95112","phone":"408-278-1008","website":"http://www.gordonbiersch.com/","latitude":37.354139,"longitude":-121.89286,"isPrimary":"N","inPlanning":"N","isClosed":"N","openToPublic":"Y","locationType":"micro","locationTypeDisplay":"Micro Brewery","countryIsoCode":"US","yearOpened":"1997","status":"verified","statusDisplay":"Verified","createDate":"2012-01-03 02:41:56","updateDate":"2014-07-23 19:11:34","country":{"isoCode":"US","name":"UNITED STATES","displayName":"United States","isoThree":"USA","numberCode":840,"createDate":"2012-01-03 02:41:33"}},{"id":"pMP4Bd","name":"Honolulu","streetAddress":"1 Aloha Tower Market Place","locality":"Honolulu","region":"Hawaii","postalCode":"96813","phone":"808-599-4877","website":"http://www.gordonbiersch.com/locations/honolulu-hi","latitude":21.307403,"longitude":-157.865151,"isPrimary":"N","inPlanning":"N","isClosed":"N","openToPublic":"N","locationType":"brewpub","locationTypeDisplay":"Brewpub","countryIsoCode":"US","yearOpened":"1997","status":"verified","statusDisplay":"Verified","createDate":"2012-01-03 02:42:15","updateDate":"2014-07-23 19:11:34","country":{"isoCode":"US","name":"UNITED STATES","displayName":"United States","isoThree":"USA","numberCode":840,"createDate":"2012-01-03 02:41:33"}},{"id":"X4oP0x","name":"Washington, DC","streetAddress":"900 F Street NW","locality":"Washington","region":"District of Columbia","postalCode":"20004","phone":"202-783-5454","website":"http://www.gordonbiersch.com/locations/washington-dc","hoursOfOperation":"Sunday:\t11:00 AM to 11:00 PM\r\nMonday:\t11:00 AM to 12:00 AM\r\nTuesday:\t11:00 AM to 12:00 AM\r\nWednesday:\t11:00 AM to 12:00 AM\r\nThursday:\t11:00 AM to 12:00 AM\r\nFriday:\t11:00 AM to 1:00 AM\r\nSaturday:\t11:00 AM to 1:00 AM","latitude":38.897343,"longitude":-77.024144,"isPrimary":"N","inPlanning":"N","isClosed":"N","openToPublic":"Y","locationType":"brewpub","locationTypeDisplay":"Brewpub","countryIsoCode":"US","yearOpened":"1997","status":"verified","statusDisplay":"Verified","createDate":"2012-02-21 11:36:54","updateDate":"2014-07-23 19:11:34","country":{"isoCode":"US","name":"UNITED STATES","displayName":"United States","isoThree":"USA","numberCode":840,"createDate":"2012-01-03 02:41:33"}},{"id":"9OXDAO","name":"McLean, VA","streetAddress":"7861 Tysons Corner Center","locality":"McLean","region":"Virginia","postalCode":"22102","phone":"703-388-5454","website":"http://www.gordonbiersch.com/locations/mclean-va","hoursOfOperation":"Sunday:\t11:00 AM to 11:00 PM\r\nMonday:\t11:00 AM to 11:00 PM\r\nTuesday:\t11:00 AM to 11:00 PM\r\nWednesday:\t11:00 AM to 11:00 PM\r\nThursday:\t11:00 AM to 11:00 PM\r\nFriday:\t11:00 AM to 12:00 AM\r\nSaturday:\t11:00 AM to 12:00 AM","latitude":38.919326,"longitude":-77.22081,"isPrimary":"N","inPlanning":"N","isClosed":"N","openToPublic":"Y","locationType":"brewpub","locationTypeDisplay":"Brewpub","countryIsoCode":"US","yearOpened":"1997","status":"verified","statusDisplay":"Verified","createDate":"2012-02-21 11:37:51","updateDate":"2014-07-23 19:11:34","country":{"isoCode":"US","name":"UNITED STATES","displayName":"United States","isoThree":"USA","numberCode":840,"createDate":"2012-01-03 02:41:33"}},{"id":"VN8M2W","name":"Dallas","streetAddress":"8060 Park Ln","extendedAddress":"Ste 125","locality":"Dallas","region":"Texas","postalCode":"75231","phone":"214-369-2739","website":"http://www.gordonbiersch.com/locations/dallas-tx","hoursOfOperation":"Sunday:\t11:00 AM to 10:00 PM\r\nMonday:\t11:00 AM to 10:00 PM\r\nTuesday:\t11:00 AM to 10:00 PM\r\nWednesday:\t11:00 AM to 10:00 PM\r\nThursday:\t11:00 AM to 10:00 PM\r\nFriday:\t11:00 AM to 11:00 PM\r\nSaturday:\t11:00 AM to 11:00 PM","latitude":32.871925,"longitude":-96.767655,"isPrimary":"N","inPlanning":"N","isClosed":"N","openToPublic":"Y","locationType":"brewpub","locationTypeDisplay":"Brewpub","countryIsoCode":"US","status":"verified","statusDisplay":"Verified","createDate":"2012-06-27 14:50:49","updateDate":"2014-07-23 19:11:34","country":{"isoCode":"US","name":"UNITED STATES","displayName":"United States","isoThree":"USA","numberCode":840,"createDate":"2012-01-03 02:41:33"}},{"id":"pbC16Z","name":"Palo Alto, CA","streetAddress":"640 Emerson Street","locality":"Palo Alto","region":"California","postalCode":"94301","phone":"650-323-7723","website":"http://www.gordonbiersch.com/locations/palo-alto-ca","hoursOfOperation":"Sunday:\t11:30 AM to 11:00 PM\r\nMonday:\t11:30 AM to 11:00 PM\r\nTuesday:\t11:30 AM to 11:00 PM\r\nWednesday:\t11:30 AM to 11:00 PM\r\nThursday:\t11:30 AM to 11:00 PM\r\nFriday:\t11:30 AM to 1:00 AM\r\nSaturday:\t11:30 AM to 1:00 AM","latitude":37.443558,"longitude":-122.161006,"isPrimary":"N","inPlanning":"N","isClosed":"N","openToPublic":"Y","locationType":"brewpub","locationTypeDisplay":"Brewpub","countryIsoCode":"US","status":"verified","statusDisplay":"Verified","createDate":"2012-06-29 20:58:38","updateDate":"2014-07-23 19:11:34","country":{"isoCode":"US","name":"UNITED STATES","displayName":"United States","isoThree":"USA","numberCode":840,"createDate":"2012-01-03 02:41:33"}},{"id":"RuupG0","name":"Roseville, CA","streetAddress":"1151 Galleria Blvd.","extendedAddress":"Space 9211","locality":"Roseville","region":"California","postalCode":"95678","phone":"916-772-2739","website":"http://www.gordonbiersch.com/locations/roseville-ca","hoursOfOperation":"Sunday:\t11:00 AM to 7:00 PM\r\nMonday:\t11:00 AM to 9:00 PM\r\nTuesday:\t11:00 AM to 9:00 PM\r\nWednesday:\t11:00 AM to 9:00 PM\r\nThursday:\t11:00 AM to 9:00 PM\r\nFriday:\t11:00 AM to 9:00 PM\r\nSaturday:\t11:00 AM to 9:00 PM","latitude":38.77224,"longitude":-121.265885,"isPrimary":"N","inPlanning":"N","isClosed":"N","openToPublic":"Y","locationType":"brewpub","locationTypeDisplay":"Brewpub","countryIsoCode":"US","status":"verified","statusDisplay":"Verified","createDate":"2012-06-29 21:00:44","updateDate":"2014-07-23 19:11:34","country":{"isoCode":"US","name":"UNITED STATES","displayName":"United States","isoThree":"USA","numberCode":840,"createDate":"2012-01-03 02:41:33"}},{"id":"4EddPR","name":"San Jose, CA","streetAddress":"33 East San Fernando Street","locality":"San Jose","region":"California","postalCode":"95113","phone":"408-294-6785","website":"http://www.gordonbiersch.com/locations/san-jose-ca","hoursOfOperation":"Sunday:\t11:30 AM to 11:00 PM\r\nMonday:\t11:30 AM to 11:00 PM\r\nTuesday:\t11:30 AM to 11:00 PM\r\nWednesday:\t11:30 AM to 11:00 PM\r\nThursday:\t11:30 AM to 12:00 AM\r\nFriday:\t11:30 AM to 1:00 AM\r\nSaturday:\t11:30 AM to 1:00 AM","latitude":37.334649,"longitude":-121.888505,"isPrimary":"N","inPlanning":"N","isClosed":"N","openToPublic":"Y","locationType":"brewpub","locationTypeDisplay":"Brewpub","countryIsoCode":"US","status":"verified","statusDisplay":"Verified","createDate":"2012-06-29 21:02:42","updateDate":"2014-07-23 19:11:34","country":{"isoCode":"US","name":"UNITED STATES","displayName":"United States","isoThree":"USA","numberCode":840,"createDate":"2012-01-03 02:41:33"}},{"id":"gYMRYs","name":"San Diego, CA","streetAddress":"5010 Mission Center Road","locality":"San Diego","region":"California","postalCode":"92108","phone":"619-688-1120","website":"http://www.gordonbiersch.com/locations/san-diego-ca","hoursOfOperation":"Sunday:\t11:00 AM to 1:00 AM\r\nMonday:\t11:00 AM to 1:00 AM\r\nTuesday:\t11:00 AM to 1:00 AM\r\nWednesday:\t11:00 AM to 1:00 AM\r\nThursday:\t11:00 AM to 1:00 AM\r\nFriday:\t11:00 AM to 2:00 AM\r\nSaturday:\t11:00 AM to 2:00 AM","latitude":32.767155,"longitude":-117.153457,"isPrimary":"N","inPlanning":"N","isClosed":"N","openToPublic":"Y","locationType":"micro","locationTypeDisplay":"Micro Brewery","countryIsoCode":"US","status":"verified","statusDisplay":"Verified","createDate":"2012-06-29 21:03:33","updateDate":"2014-07-23 19:11:34","country":{"isoCode":"US","name":"UNITED STATES","displayName":"United States","isoThree":"USA","numberCode":840,"createDate":"2012-01-03 02:41:33"}},{"id":"Is5FiJ","name":"Burbank, CA","streetAddress":"145 S. San Fernando Blvd.","locality":"Burbank","region":"California","postalCode":"91502","phone":"818-569-5240","website":"http://www.gordonbiersch.com/locations/burbank-ca","hoursOfOperation":"Sunday:\t11:30 AM to 12:00 AM\r\nMonday:\t11:30 AM to 12:00 AM\r\nTuesday:\t11:30 AM to 12:00 AM\r\nWednesday:\t11:30 AM to 12:00 AM\r\nThursday:\t11:30 AM to 12:00 AM\r\nFriday:\t11:30 AM to 1:00 AM\r\nSaturday:\t11:30 AM to 1:00 AM","latitude":34.180513,"longitude":-118.308255,"isPrimary":"N","inPlanning":"N","isClosed":"N","openToPublic":"Y","locationType":"brewpub","locationTypeDisplay":"Brewpub","countryIsoCode":"US","status":"verified","statusDisplay":"Verified","createDate":"2012-06-29 21:04:31","updateDate":"2014-07-23 19:11:34","country":{"isoCode":"US","name":"UNITED STATES","displayName":"United States","isoThree":"USA","numberCode":840,"createDate":"2012-01-03 02:41:33"}},{"id":"4WI1A1","name":"Washington, DC (Capitol Riverfront)","streetAddress":"100 M St SE","locality":"Washington","region":"District of Columbia","postalCode":"20003","hoursOfOperation":"SUN 11:00 AM to 10:00 PM\r\nMON 11:00 AM to 10:00 PM\r\nTUES 11:00 AM to 11:00 PM\r\nWED 11:00 AM to 11:00 PM\r\nTHUR 11:00 AM to 11:00 PM\r\nFRI 11:00 AM to 12:00 AM\r\nSAT 11:00 AM to 12:00 AM","latitude":38.876484,"longitude":-77.005244,"isPrimary":"N","inPlanning":"N","isClosed":"N","openToPublic":"Y","locationType":"micro","locationTypeDisplay":"Micro Brewery","countryIsoCode":"US","status":"verified","statusDisplay":"Verified","createDate":"2013-02-14 21:32:42","updateDate":"2014-07-23 19:11:34","country":{"isoCode":"US","name":"UNITED STATES","displayName":"United States","isoThree":"USA","numberCode":840,"createDate":"2012-01-03 02:41:33"}},{"id":"pvhpgn","name":"Gilbert","streetAddress":"2218 E Williams Field Road","extendedAddress":"Ste 101","locality":"Gilbert","region":"Arizona","postalCode":"85296","phone":"480-722-0883","website":"http://www.gordonbiersch.com/locations/gilbert?action=view","hoursOfOperation":"SUN 11:00 AM to 11:00 PM\r\nMON 11:00 AM to 11:00 PM\r\nTUES 11:00 AM to 11:00 PM\r\nWED 11:00 AM to 11:00 PM\r\nTHUR 11:00 AM to 12:00 AM\r\nFRI 11:00 AM to 2:00 AM\r\nSAT 11:00 AM to 2:00 AM","latitude":33.308734,"longitude":-111.742925,"isPrimary":"N","inPlanning":"N","isClosed":"N","openToPublic":"Y","locationType":"micro","locationTypeDisplay":"Micro Brewery","countryIsoCode":"US","status":"verified","statusDisplay":"Verified","createDate":"2013-09-21 13:17:27","updateDate":"2014-07-23 19:11:34","country":{"isoCode":"US","name":"UNITED STATES","displayName":"United States","isoThree":"USA","numberCode":840,"createDate":"2012-01-03 02:41:33"}},{"id":"s46LfS","name":"Virginia Beach","streetAddress":"4561 Virginia Beach Blvd","locality":"Virginia Beach","region":"Virginia","postalCode":"23462","phone":"(757) 490-2739","latitude":36.843413,"longitude":-76.1346412,"isPrimary":"N","inPlanning":"N","isClosed":"N","openToPublic":"Y","locationType":"brewpub","locationTypeDisplay":"Brewpub","countryIsoCode":"US","status":"verified","statusDisplay":"Verified","createDate":"2013-09-21 20:33:10","updateDate":"2014-07-23 19:11:34","country":{"isoCode":"US","name":"UNITED STATES","displayName":"United States","isoThree":"USA","numberCode":840,"createDate":"2012-01-03 02:41:33"}},{"id":"qYLomJ","name":"Rockville","streetAddress":"200 East Middle Lane","extendedAddress":"Unit A","locality":"Rockville","region":"Maryland","postalCode":"20850","phone":"(301) 340.7159","website":"http://www.gordonbiersch.com/locations/rockville","latitude":39.0852708,"longitude":-77.1507431,"isPrimary":"N","inPlanning":"N","isClosed":"N","openToPublic":"Y","locationType":"micro","locationTypeDisplay":"Micro Brewery","countryIsoCode":"US","status":"verified","statusDisplay":"Verified","createDate":"2013-12-24 11:59:11","updateDate":"2014-07-23 19:11:34","country":{"isoCode":"US","name":"UNITED STATES","displayName":"United States","isoThree":"USA","numberCode":840,"createDate":"2012-01-03 02:41:33"}},{"id":"1jZuIf","name":"Syracuse","streetAddress":"304 Hiawatha Blvd","extendedAddress":"West #J-101","locality":"Syracuse","region":"New York","postalCode":"13290","phone":"(315) 478-0990","website":"http://www.gordonbiersch.com/locations/syracuse","hoursOfOperation":"SUN 11:00 AM to 10:00 PM\r\nMON 11:00 AM to 10:00 PM\r\nTUES 11:00 AM to 11:00 PM\r\nWED 11:00 AM to 11:00 PM\r\nTHUR 11:00 AM to 11:00 PM\r\nFRI 11:00 AM to 12:00 AM \r\nSAT 11:00 AM to 12:00 AM","latitude":43.0682537,"longitude":-76.1695068,"isPrimary":"Y","inPlanning":"N","isClosed":"N","openToPublic":"Y","locationType":"brewpub","locationTypeDisplay":"Brewpub","countryIsoCode":"US","yearOpened":"2013","status":"verified","statusDisplay":"Verified","createDate":"2013-12-27 14:36:20","updateDate":"2014-07-23 19:11:34","country":{"isoCode":"US","name":"UNITED STATES","displayName":"United States","isoThree":"USA","numberCode":840,"createDate":"2012-01-03 02:41:33"}},{"id":"e3IiS6","name":"Buffalo","streetAddress":"Store P102 Galleria Drive","locality":"Cheektowaga","region":"New York","postalCode":"14225","phone":"(716) 683-0050","website":"http://www.gordonbiersch.com/locations/buffalo","hoursOfOperation":"SUN 11:00 AM to 10:00 PM\r\nMON 11:00 AM to 11:00 PM\r\nTUES 11:00 AM to 11:00 PM\r\nWED 11:00 AM to 11:00 PM\r\nTHUR 11:00 AM to 11:00 PM\r\nFRI 11:00 AM to 11:00 AM\r\nSAT 11:00 AM to 11:00 AM","latitude":42.9202891,"longitude":-78.7589558,"isPrimary":"N","inPlanning":"N","isClosed":"N","openToPublic":"Y","locationType":"brewpub","locationTypeDisplay":"Brewpub","countryIsoCode":"US","status":"verified","statusDisplay":"Verified","createDate":"2013-12-27 14:39:17","updateDate":"2014-07-23 19:11:34","country":{"isoCode":"US","name":"UNITED STATES","displayName":"United States","isoThree":"USA","numberCode":840,"createDate":"2012-01-03 02:41:33"}},{"id":"MaHYSE","name":"Myrtle Beach","streetAddress":"3060 Howard Ave","locality":"Myrtle Beach","region":"South Carolina","postalCode":"29577","phone":"843-839-0249","website":"http://www.gordonbiersch.com/locations/myrtle-beach?action=view","hoursOfOperation":"SUN 11:00 AM to 10:00 PM\r\nMON 11:00 AM to 10:00 PM\r\nTUES 11:00 AM to 10:00 PM\r\nWED 11:00 AM to 10:00 PM\r\nTHUR 11:00 AM to 10:00 PM\r\nFRI 11:00 AM to 10:00 PM\r\nSAT 11:00 AM to 10:00 PM","latitude":33.668794,"longitude":-78.938993,"isPrimary":"N","inPlanning":"N","isClosed":"N","openToPublic":"Y","locationType":"micro","locationTypeDisplay":"Micro Brewery","countryIsoCode":"US","status":"verified","statusDisplay":"Verified","createDate":"2014-02-26 01:36:59","updateDate":"2014-07-23 19:11:34","country":{"isoCode":"US","name":"UNITED STATES","displayName":"United States","isoThree":"USA","numberCode":840,"createDate":"2012-01-03 02:41:33"}},{"id":"cqsB6i","name":"Columbus","streetAddress":"401 N. Front Street","locality":"Columbus","region":"Ohio","postalCode":"43215","phone":"614-246-2900","website":"http://www.gordonbiersch.com/locations/columbus","hoursOfOperation":"SUN 11:00 AM to 9:00 PM\r\nMON 11:00 AM to 11:00 PM\r\nTUES 11:00 AM to 11:00 PM\r\nWED 11:00 AM to 11:00 PM\r\nTHUR 11:00 AM to 11:00 PM\r\nFRI 11:00 AM to 11:00 PM\r\nSAT 11:00 AM to 11:00 PM","latitude":39.969785,"longitude":-83.004396,"isPrimary":"N","inPlanning":"N","isClosed":"N","openToPublic":"Y","locationType":"brewpub","locationTypeDisplay":"Brewpub","countryIsoCode":"US","status":"verified","statusDisplay":"Verified","createDate":"2014-03-14 16:26:50","updateDate":"2014-07-23 19:11:34","country":{"isoCode":"US","name":"UNITED STATES","displayName":"United States","isoThree":"USA","numberCode":840,"createDate":"2012-01-03 02:41:33"}},{"id":"JoX16I","name":"Main Brewery","streetAddress":"23 Buxton Ave","locality":"Asheville","region":"North Carolina","postalCode":"28801","phone":"828-252-5502","website":"http://www.greenmanbrewery.com/","hoursOfOperation":"The tasting room is open seven days a week at 4 o'clock, or maybe earlier","latitude":35.5886188,"longitude":-82.5531836,"isPrimary":"Y","inPlanning":"N","isClosed":"N","openToPublic":"Y","locationType":"brewpub","locationTypeDisplay":"Brewpub","countryIsoCode":"US","yearOpened":"1997","status":"verified","statusDisplay":"Verified","createDate":"2012-01-03 02:41:56","updateDate":"2014-07-23 19:11:34","country":{"isoCode":"US","name":"UNITED STATES","displayName":"United States","isoThree":"USA","numberCode":840,"createDate":"2012-01-03 02:41:33"}},{"id":"q2OGrV","name":"Main Brewery","streetAddress":"41 East Lipoa Street","locality":"Kihei","region":"Hawaii","postalCode":"96753","latitude":20.748619,"longitude":-156.454153,"isPrimary":"Y","inPlanning":"N","isClosed":"Y","openToPublic":"Y","locationType":"brewpub","locationTypeDisplay":"Brewpub","countryIsoCode":"US","yearOpened":"1997","status":"verified","statusDisplay":"Verified","createDate":"2012-01-03 02:41:56","updateDate":"2014-07-23 19:11:34","country":{"isoCode":"US","name":"UNITED STATES","displayName":"United States","isoThree":"USA","numberCode":840,"createDate":"2012-01-03 02:41:33"}},{"id":"RqrZNt","name":"Main Brewery","streetAddress":"1201 W. Hadley Ave.","locality":"Las Cruces","region":"New Mexico","postalCode":"88005","phone":"(575) 525-6752","hoursOfOperation":"Mon - Sat:  11am - Midnight\r\nSun:  Noon - 10pm","latitude":32.3096,"longitude":-106.793,"isPrimary":"Y","inPlanning":"N","isClosed":"N","openToPublic":"Y","locationType":"brewpub","locationTypeDisplay":"Brewpub","countryIsoCode":"US","status":"verified","statusDisplay":"Verified","createDate":"2012-01-03 02:41:57","updateDate":"2014-07-23 19:11:34","country":{"isoCode":"US","name":"UNITED STATES","displayName":"United States","isoThree":"USA","numberCode":840,"createDate":"2012-01-03 02:41:33"}},{"id":"jk7PdH","name":"Main Brewery","streetAddress":"Brauhausstraße 1 – 3","region":"Arnstadt Thüringen","postalCode":"99 310","isPrimary":"Y","inPlanning":"N","isClosed":"N","openToPublic":"Y","locationType":"micro","locationTypeDisplay":"Micro Brewery","countryIsoCode":"DE","status":"verified","statusDisplay":"Verified","createDate":"2012-08-15 15:29:34","updateDate":"2014-07-23 19:11:34","country":{"isoCode":"DE","name":"GERMANY","displayName":"Germany","isoThree":"DEU","numberCode":276,"createDate":"2012-01-03 02:41:33"}},{"id":"uyCvzH","name":"Houston Brewing Company","streetAddress":"South Street","locality":"Houston","region":"Renfrewshire","postalCode":"PA6 7EN","phone":"01505 612620","website":"http://www.houston-brewing.co.uk/","hoursOfOperation":"Fri - Sat: 11:00 am - 1:00 am\r\nSun: 12:00 pm - 12:00 pm","latitude":55.8687605,"longitude":-4.5517449,"isPrimary":"Y","inPlanning":"N","isClosed":"N","openToPublic":"Y","locationType":"micro","locationTypeDisplay":"Micro Brewery","countryIsoCode":"GB","yearOpened":"1997","status":"verified","statusDisplay":"Verified","createDate":"2013-03-21 01:06:32","updateDate":"2014-07-23 19:11:34","country":{"isoCode":"GB","name":"UNITED KINGDOM","displayName":"United Kingdom","isoThree":"GBR","numberCode":826,"createDate":"2012-01-03 02:41:33"}},{"id":"efEfFr","name":"Main Brewery","streetAddress":"206 N Benton St","extendedAddress":"Ste C","locality":"Kennewick","region":"Washington","postalCode":"99336","phone":"509-582-5340","website":"www.iceharbor.com","latitude":46.210812,"longitude":-119.119911,"isPrimary":"Y","inPlanning":"N","isClosed":"N","openToPublic":"Y","locationType":"brewpub","locationTypeDisplay":"Brewpub","countryIsoCode":"US","yearOpened":"1997","status":"verified","statusDisplay":"Verified","createDate":"2012-01-03 02:41:58","updateDate":"2014-07-23 19:11:34","country":{"isoCode":"US","name":"UNITED STATES","displayName":"United States","isoThree":"USA","numberCode":840,"createDate":"2012-01-03 02:41:33"}},{"id":"WFl75R","name":"Main Brewery","streetAddress":"Unit D Prospect Commercial Park","extendedAddress":"Prospect Road","locality":"New Alresford","region":"Hampshire","postalCode":"SO249QF","phone":"01962 735111","website":"http://www.itchenvalley.com/","latitude":51.0823384,"longitude":-1.17217,"isPrimary":"Y","inPlanning":"N","isClosed":"N","openToPublic":"Y","locationType":"micro","locationTypeDisplay":"Micro Brewery","countryIsoCode":"GB","status":"verified","statusDisplay":"Verified","createDate":"2014-04-12 21:16:28","updateDate":"2014-07-23 19:11:34","country":{"isoCode":"GB","name":"UNITED KINGDOM","displayName":"United Kingdom","isoThree":"GBR","numberCode":826,"createDate":"2012-01-03 02:41:33"}},{"id":"NO91LH","name":"Main Brewery","streetAddress":"33 Main Street","locality":"Woodbridge","region":"New Jersey","postalCode":"07095","phone":"732-634-2929","website":"http://njbrewpubs.com/","latitude":40.5549409,"longitude":-74.2771149,"isPrimary":"Y","inPlanning":"N","isClosed":"N","openToPublic":"Y","locationType":"brewpub","locationTypeDisplay":"Brewpub","countryIsoCode":"US","yearOpened":"1997","status":"verified","statusDisplay":"Verified","createDate":"2012-01-03 02:41:58","updateDate":"2014-09-26 13:29:18","country":{"isoCode":"US","name":"UNITED STATES","displayName":"United States","isoThree":"USA","numberCode":840,"createDate":"2012-01-03 02:41:33"}},{"id":"uqoSWo","name":"Main Brewery","streetAddress":"98 Horseneck Rd","locality":"Westport","region":"Massachusetts","postalCode":"02790","website":"http://www.justbeer.us/","hoursOfOperation":"Store Hours: Saturdays from 11am to 5pm. Tastings, growler fills, bottle sales.","latitude":41.566802,"longitude":-71.054254,"isPrimary":"Y","inPlanning":"N","isClosed":"N","openToPublic":"Y","locationType":"micro","locationTypeDisplay":"Micro Brewery","countryIsoCode":"US","status":"verified","statusDisplay":"Verified","createDate":"2012-11-05 12:52:58","updateDate":"2014-07-23 19:11:34","country":{"isoCode":"US","name":"UNITED STATES","displayName":"United States","isoThree":"USA","numberCode":840,"createDate":"2012-01-03 02:41:33"}},{"id":"TymIbq","name":"Main Brewery","streetAddress":"Brückenstraße 17","locality":"Chemnitz","region":"Sachsen","postalCode":"09111","latitude":50.834911,"longitude":12.92517,"isPrimary":"N","inPlanning":"N","isClosed":"N","openToPublic":"Y","locationType":"micro","locationTypeDisplay":"Micro Brewery","countryIsoCode":"DE","status":"verified","statusDisplay":"Verified","createDate":"2012-08-12 14:47:56","updateDate":"2014-07-23 19:11:34","country":{"isoCode":"DE","name":"GERMANY","displayName":"Germany","isoThree":"DEU","numberCode":276,"createDate":"2012-01-03 02:41:33"}},{"id":"4nEMcq","name":"Main Brewery","streetAddress":"112 East Yosemite Avenue","locality":"Manteca","region":"California","postalCode":"95336","phone":"209-825-1727","website":"http://www.kelleybrewing.com/","latitude":37.7973025,"longitude":-121.2154551,"isPrimary":"Y","inPlanning":"N","isClosed":"Y","openToPublic":"Y","locationType":"brewpub","locationTypeDisplay":"Brewpub","countryIsoCode":"US","yearOpened":"1997","status":"verified","statusDisplay":"Verified","createDate":"2012-01-03 02:41:59","updateDate":"2014-07-23 19:11:34","country":{"isoCode":"US","name":"UNITED STATES","displayName":"United States","isoThree":"USA","numberCode":840,"createDate":"2012-01-03 02:41:33"}},{"id":"N101SS","name":"Main Brewery","streetAddress":"Candela House","extendedAddress":"Cardrew Way Redruth","region":"Cornwall","phone":"TR15 1SS","website":"http://keltekbrewery.co.uk/","latitude":50.2391492,"longitude":-5.2227036,"isPrimary":"Y","inPlanning":"N","isClosed":"N","openToPublic":"Y","locationType":"micro","locationTypeDisplay":"Micro Brewery","countryIsoCode":"GB","yearOpened":"2010","status":"verified","statusDisplay":"Verified","createDate":"2014-06-25 13:45:32","updateDate":"2014-07-23 19:11:34","country":{"isoCode":"GB","name":"UNITED KINGDOM","displayName":"United Kingdom","isoThree":"GBR","numberCode":826,"createDate":"2012-01-03 02:41:33"}},{"id":"1L0pqK","name":"Main Brewpub","streetAddress":"1771 US Route 201","locality":"The Forks","region":"Maine","postalCode":"04985","phone":"800-765-7238","website":"http://www.NorthernOutdoors.com/","latitude":45.265411,"longitude":-69.994833,"isPrimary":"Y","inPlanning":"N","isClosed":"N","openToPublic":"Y","locationType":"brewpub","locationTypeDisplay":"Brewpub","countryIsoCode":"US","yearOpened":"1997","status":"verified","statusDisplay":"Verified","createDate":"2012-01-03 02:41:59","updateDate":"2014-07-23 19:11:34","country":{"isoCode":"US","name":"UNITED STATES","displayName":"United States","isoThree":"USA","numberCode":840,"createDate":"2012-01-03 02:41:33"}},{"id":"iaYJ7X","name":"La Barberie","streetAddress":"310, rue Saint-Roch","locality":"Québec","region":"Québec","postalCode":"g1k6s2","phone":"1-418-522-4373","website":"http://www.labarberie.com/","hoursOfOperation":"Mon - Sun: 12:00 pm - 1:00 am","latitude":46.8174918,"longitude":-71.2179316,"isPrimary":"Y","inPlanning":"N","isClosed":"N","openToPublic":"Y","locationType":"micro","locationTypeDisplay":"Micro Brewery","countryIsoCode":"CA","yearOpened":"1997","status":"verified","statusDisplay":"Verified","createDate":"2013-07-03 15:01:49","updateDate":"2014-07-23 19:11:34","country":{"isoCode":"CA","name":"CANADA","displayName":"Canada","isoThree":"CAN","numberCode":124,"createDate":"2012-01-03 02:41:33"}},{"id":"AButIj","name":"Main Brewery","streetAddress":"3301-B East 5th Street","locality":"Austin","region":"Texas","postalCode":"78702","phone":"1-512-385-2299","website":"http://www.liveoakbrewing.com/","latitude":30.254665,"longitude":-97.70551,"isPrimary":"Y","inPlanning":"N","isClosed":"N","openToPublic":"Y","locationType":"micro","locationTypeDisplay":"Micro Brewery","countryIsoCode":"US","yearOpened":"1997","status":"verified","statusDisplay":"Verified","createDate":"2012-01-03 02:42:00","updateDate":"2014-07-23 19:11:34","country":{"isoCode":"US","name":"UNITED STATES","displayName":"United States","isoThree":"USA","numberCode":840,"createDate":"2012-01-03 02:41:33"}},{"id":"o8mhnm","name":"Magnolia Pub & Brewery","streetAddress":"1398 Haight Street","locality":"San Francisco","region":"California","postalCode":"94117","phone":"(415) 864-7468","website":"http://www.magnoliapub.com/","hoursOfOperation":"Mon:  11:00am - 12:00am\nTue:  11:00am - 12:00am\nWed:  11:00am - 12:00am\nThu:  11:00am - 12:00am\nFri:  11:00am - 1:00am\nSat:  10:00am - 1:00am\nSun:  10:00am - 11:00pm\n\n","latitude":37.7703879,"longitude":-122.4451741,"isPrimary":"Y","inPlanning":"N","isClosed":"N","openToPublic":"Y","locationType":"brewpub","locationTypeDisplay":"Brewpub","countryIsoCode":"US","yearOpened":"1997","status":"verified","statusDisplay":"Verified","createDate":"2012-01-03 02:42:01","updateDate":"2014-07-25 18:43:20","country":{"isoCode":"US","name":"UNITED STATES","displayName":"United States","isoThree":"USA","numberCode":840,"createDate":"2012-01-03 02:41:33"}},{"id":"vgZmk5","name":"Smokestack BBQ/Magnolia Dogpatch","streetAddress":"2505 3rd Street","locality":"San Francisco","region":"California","postalCode":"94107","phone":"415-864-7468","website":"http://www.magnoliasmokestack.com","hoursOfOperation":"Sun:  4:00pm - 12:00am\nMon:  4:00pm - 12:00am\nTue:  4:00pm - 12:00am\nWed:  4:00pm - 12:00am\nThu:  4:00pm - 2:00am\nFri:  4:00pm - 2:00am\nSat:  4:00pm - 2:00am\n\n","latitude":37.7577292,"longitude":-122.3881371,"isPrimary":"N","inPlanning":"N","isClosed":"N","openToPublic":"Y","locationType":"brewpub","locationTypeDisplay":"Brewpub","countryIsoCode":"US","yearOpened":"2014","status":"verified","statusDisplay":"Verified","createDate":"2014-07-25 18:06:24","updateDate":"2014-09-11 10:25:04","country":{"isoCode":"US","name":"UNITED STATES","displayName":"United States","isoThree":"USA","numberCode":840,"createDate":"2012-01-03 02:41:33"}},{"id":"fN7jFx","name":"Main Brewery","streetAddress":"21 East Main","locality":"Cortez","region":"Colorado","postalCode":"81321","phone":"(970) 564-9112","website":"http://www.mainstreetbrewerycortez.com/","hoursOfOperation":"Winter Hours- 11:30 to close Friday Saturday Sunday Monday for lunch and dinner 3:30 to close- DAILY for dinner","latitude":37.348308,"longitude":-108.584576,"isPrimary":"Y","inPlanning":"N","isClosed":"N","openToPublic":"Y","locationType":"micro","locationTypeDisplay":"Micro Brewery","countryIsoCode":"US","yearOpened":"1997","status":"verified","statusDisplay":"Verified","createDate":"2013-12-16 10:16:44","updateDate":"2014-07-23 19:11:34","country":{"isoCode":"US","name":"UNITED STATES","displayName":"United States","isoThree":"USA","numberCode":840,"createDate":"2012-01-03 02:41:33"}},{"id":"UjIXuX","name":"Main Brewery","streetAddress":"PO Box 28","locality":"Schnecksville","region":"Pennsylvania","postalCode":"18078","website":"http://marinerbrewing.com/","latitude":40.678344,"longitude":-75.61156,"isPrimary":"Y","inPlanning":"N","isClosed":"N","openToPublic":"Y","locationType":"micro","locationTypeDisplay":"Micro Brewery","countryIsoCode":"US","yearOpened":"1997","status":"verified","statusDisplay":"Verified","createDate":"2012-01-03 02:42:01","updateDate":"2014-07-23 19:11:34","country":{"isoCode":"US","name":"UNITED STATES","displayName":"United States","isoThree":"USA","numberCode":840,"createDate":"2012-01-03 02:41:33"}},{"id":"aJuafi","name":"Main Brewery","streetAddress":"63 West Market Street","locality":"Corning","region":"New York","postalCode":"14830","phone":"607-936-BEER","website":"http://www.936-beer.com/","latitude":42.1440399,"longitude":-77.057111,"isPrimary":"Y","inPlanning":"N","isClosed":"N","openToPublic":"Y","locationType":"micro","locationTypeDisplay":"Micro Brewery","countryIsoCode":"US","yearOpened":"1997","status":"verified","statusDisplay":"Verified","createDate":"2012-01-03 02:42:01","updateDate":"2014-07-23 19:11:34","country":{"isoCode":"US","name":"UNITED STATES","displayName":"United States","isoThree":"USA","numberCode":840,"createDate":"2012-01-03 02:41:33"}},{"id":"Z05Zrr","name":"Main Brewery","streetAddress":"4057 Pennsylvania Avenue","locality":"Kansas City","region":"Missouri","postalCode":"64111","phone":"(816) 960-0866","website":"http://www.mccoyskc.com/","hoursOfOperation":"Mon - Sat: 11:00 am - 1:00 am\r\nSun: 11:00 am - 12:00 am","latitude":39.0534374,"longitude":-94.5918844,"isPrimary":"Y","inPlanning":"N","isClosed":"N","openToPublic":"Y","locationType":"micro","locationTypeDisplay":"Micro Brewery","countryIsoCode":"US","status":"verified","statusDisplay":"Verified","createDate":"2012-01-03 02:42:01","updateDate":"2014-07-23 19:11:34","country":{"isoCode":"US","name":"UNITED STATES","displayName":"United States","isoThree":"USA","numberCode":840,"createDate":"2012-01-03 02:41:33"}},{"id":"NJbyiS","name":"Main Brewery","streetAddress":"613 South 2nd Street","locality":"Milwaukee","region":"Wisconsin","postalCode":"53204","phone":"414-226-2337","hoursOfOperation":"Tour Info\r\nFriday: 4pm, 5pm & 6pm\r\nSaturday: 2pm, 3pm & 4pm\r\nOpen House from 5 to 7pm ($10)","latitude":43.0248994,"longitude":-87.9127484,"isPrimary":"Y","inPlanning":"N","isClosed":"N","openToPublic":"Y","locationType":"micro","locationTypeDisplay":"Micro Brewery","countryIsoCode":"US","yearOpened":"2007","status":"verified","statusDisplay":"Verified","createDate":"2012-01-03 02:42:02","updateDate":"2014-07-23 19:11:34","country":{"isoCode":"US","name":"UNITED STATES","displayName":"United States","isoThree":"USA","numberCode":840,"createDate":"2012-01-03 02:41:33"}},{"id":"2SQXoB","name":"Milwaukee Ale House","streetAddress":"233 North Water St.","locality":"Milwaukee","region":"Wisconsin","postalCode":"53202","phone":"414.276.BEER","website":"http://ale-house.com/","hoursOfOperation":"Mon - Thu: 11:00 am - 12:00 am\r\nFri - Sat:  11:00 am - 2:00 am\r\nSun:  11:00 am - 12:00 am","latitude":43.032936,"longitude":-87.909214,"isPrimary":"N","inPlanning":"N","isClosed":"N","openToPublic":"Y","locationType":"restaurant","locationTypeDisplay":"Restaurant/Ale House","countryIsoCode":"US","yearOpened":"2009","status":"verified","statusDisplay":"Verified","createDate":"2012-09-09 13:07:15","updateDate":"2014-07-23 19:11:34","country":{"isoCode":"US","name":"UNITED STATES","displayName":"United States","isoThree":"USA","numberCode":840,"createDate":"2012-01-03 02:41:33"}},{"id":"em9Lxc","name":"Milwaukee Ale House Grafton","streetAddress":"1208 13th Ave.","locality":"Grafton","region":"Wisconsin","postalCode":"53024","phone":"1 (262) 375-2337","website":"http://www.alehousegrafton.com/","hoursOfOperation":"Mon - Wed:  11:00 am - 12:00 am\r\nThu - Sat:  11:00 am - 2:00 am\r\nSun:  11:00 am - 12:00 am","latitude":43.319725,"longitude":-87.950469,"isPrimary":"N","inPlanning":"N","isClosed":"N","openToPublic":"Y","locationType":"restaurant","locationTypeDisplay":"Restaurant/Ale House","countryIsoCode":"US","yearOpened":"2010","status":"verified","statusDisplay":"Verified","createDate":"2012-09-09 13:09:10","updateDate":"2014-07-23 19:11:34","country":{"isoCode":"US","name":"UNITED STATES","displayName":"United States","isoThree":"USA","numberCode":840,"createDate":"2012-01-03 02:41:33"}},{"id":"HZS3wv","name":"Brewpub","streetAddress":"1430 Washington Avenue","locality":"South Minneapolis","region":"Minnesota","postalCode":"55454","phone":"(612) 339-8696","website":"http://www.townhallbrewery.com/","hoursOfOperation":"Mon - Wed: 11:00 am - 1:00 am\r\nThu - Sat: 11:00 am - 2:00 am\r\nSun: 11:00 am - 12:00 am","latitude":44.9733315,"longitude":-93.2477857,"isPrimary":"Y","inPlanning":"N","isClosed":"N","openToPublic":"Y","locationType":"brewpub","locationTypeDisplay":"Brewpub","countryIsoCode":"US","yearOpened":"1997","status":"verified","statusDisplay":"Verified","createDate":"2013-08-15 01:25:42","updateDate":"2014-07-23 19:11:34","country":{"isoCode":"US","name":"UNITED STATES","displayName":"United States","isoThree":"USA","numberCode":840,"createDate":"2012-01-03 02:41:33"}},{"id":"8z0ZCd","name":"Main Brewery","streetAddress":"３丁目-１９−１１ Makiochi","locality":"Osaka","postalCode":"562-0004","phone":"072-725-7234","website":"Http://www.minoh-beer.com","isPrimary":"Y","inPlanning":"N","isClosed":"N","openToPublic":"Y","locationType":"micro","locationTypeDisplay":"Micro Brewery","countryIsoCode":"JP","yearOpened":"1997","status":"verified","statusDisplay":"Verified","createDate":"2012-12-16 11:33:51","updateDate":"2014-07-23 19:11:34","country":{"isoCode":"JP","name":"JAPAN","displayName":"Japan","isoThree":"JPN","numberCode":392,"createDate":"2012-01-03 02:41:33"}},{"id":"33Ov6W","name":"Main Brewery","streetAddress":"Chapel Court","locality":"Pitney Langport","region":"Somerset,","postalCode":"TA10 9AE","phone":"07887 556521","website":"http://moorbeer.co.uk/","latitude":51.050886,"longitude":-2.7834782,"isPrimary":"Y","inPlanning":"N","isClosed":"N","openToPublic":"Y","locationType":"micro","locationTypeDisplay":"Micro Brewery","countryIsoCode":"GB","yearOpened":"1997","status":"verified","statusDisplay":"Verified","createDate":"2013-12-15 21:12:11","updateDate":"2014-07-23 19:11:34","country":{"isoCode":"GB","name":"UNITED KINGDOM","displayName":"United Kingdom","isoThree":"GBR","numberCode":826,"createDate":"2012-01-03 02:41:33"}},{"id":"Xa3ue0","name":"Main Brewery","streetAddress":"80 North Street","locality":"Richmond","region":"Victoria","postalCode":"3121","phone":"+ 613 9428 1180","website":"http://www.goatbeer.com.au/","hoursOfOperation":"We open the brewery to public every Friday evening from 5pm. \r\nWe’re also open Wednesday nights from 5 and hold free brewery tours at 6.30 (no need to book for groups under 4). We’re usually in here brewing Wed nights so it’s a great opportunity to see the process happening and earbash a brewer.","latitude":-37.816509,"longitude":145.012604,"isPrimary":"Y","inPlanning":"N","isClosed":"N","openToPublic":"Y","locationType":"micro","locationTypeDisplay":"Micro Brewery","countryIsoCode":"AU","yearOpened":"1997","status":"verified","statusDisplay":"Verified","createDate":"2012-01-05 14:54:46","updateDate":"2014-07-23 19:11:34","country":{"isoCode":"AU","name":"AUSTRALIA","displayName":"Australia","isoThree":"AUS","numberCode":36,"createDate":"2012-01-03 02:41:33"}},{"id":"1ZnmlG","name":"Main Brewery","streetAddress":"3560 Oakwood Mall Drive","locality":"Eau Claire","region":"Wisconsin","postalCode":"54701","phone":"715-552-0510","website":"http://www.northwoodsbrewpub.com/","latitude":44.7775984,"longitude":-91.4432896,"isPrimary":"Y","inPlanning":"N","isClosed":"N","openToPublic":"Y","locationType":"brewpub","locationTypeDisplay":"Brewpub","countryIsoCode":"US","status":"verified","statusDisplay":"Verified","createDate":"2012-01-03 02:42:04","updateDate":"2014-07-23 19:11:34","country":{"isoCode":"US","name":"UNITED STATES","displayName":"United States","isoThree":"USA","numberCode":840,"createDate":"2012-01-03 02:41:33"}},{"id":"tLXiON","name":"Main Brewery","streetAddress":"30 Kennebec Ave","locality":"Oak Bluffs","region":"Massachusetts","postalCode":"02557","phone":"508-693-2626","website":"http://offshoreale.com/","latitude":41.4558776,"longitude":-70.5575621,"isPrimary":"Y","inPlanning":"N","isClosed":"N","openToPublic":"Y","locationType":"brewpub","locationTypeDisplay":"Brewpub","countryIsoCode":"US","yearOpened":"1997","status":"verified","statusDisplay":"Verified","createDate":"2012-01-03 02:42:04","updateDate":"2014-07-23 19:11:34","country":{"isoCode":"US","name":"UNITED STATES","displayName":"United States","isoThree":"USA","numberCode":840,"createDate":"2012-01-03 02:41:33"}},{"id":"kIi8qg","name":"Main Brewery","streetAddress":"451 South High Street","extendedAddress":"Suite B","locality":"Akron","region":"Ohio","postalCode":"44311","phone":"330-376-3008","website":"http://ohiobrewing.com/","latitude":41.073122,"longitude":-81.52218,"isPrimary":"Y","inPlanning":"N","isClosed":"N","openToPublic":"Y","locationType":"brewpub","locationTypeDisplay":"Brewpub","countryIsoCode":"US","yearOpened":"1997","status":"verified","statusDisplay":"Verified","createDate":"2012-01-03 02:42:04","updateDate":"2014-07-23 19:11:34","country":{"isoCode":"US","name":"UNITED STATES","displayName":"United States","isoThree":"USA","numberCode":840,"createDate":"2012-01-03 02:41:33"}},{"id":"DZbNSQ","name":"Main Brewery","streetAddress":"971 West Savidge","locality":"Spring Lake","region":"Michigan","postalCode":"49456","phone":"616-850-9950","website":"http://oldboysbrewhouse.com/","latitude":43.076957,"longitude":-86.212232,"isPrimary":"Y","inPlanning":"N","isClosed":"N","openToPublic":"Y","locationType":"brewpub","locationTypeDisplay":"Brewpub","countryIsoCode":"US","yearOpened":"1997","status":"verified","statusDisplay":"Verified","createDate":"2012-01-03 02:42:04","updateDate":"2014-07-23 19:11:34","country":{"isoCode":"US","name":"UNITED STATES","displayName":"United States","isoThree":"USA","numberCode":840,"createDate":"2012-01-03 02:41:33"}},{"id":"HqOPPk","name":"Main Brewery","streetAddress":"131 Excelsior Avenue","locality":"Saratoga Springs","region":"New York","postalCode":"12866","phone":"518-581-0492","website":"http://www.oldesaratogabrew.com/","latitude":43.091164,"longitude":-73.767882,"isPrimary":"Y","inPlanning":"N","isClosed":"N","openToPublic":"Y","locationType":"micro","locationTypeDisplay":"Micro Brewery","countryIsoCode":"US","yearOpened":"1997","status":"verified","statusDisplay":"Verified","createDate":"2012-01-03 02:42:04","updateDate":"2014-07-23 19:11:34","country":{"isoCode":"US","name":"UNITED STATES","displayName":"United States","isoThree":"USA","numberCode":840,"createDate":"2012-01-03 02:41:33"}},{"id":"tytjle","name":"Original Sin","streetAddress":"817 Broadway 10th Floor","locality":"New York","region":"New York","postalCode":"10003","phone":"646-344-1087","website":"http://www.origsin.com/","latitude":40.7331163,"longitude":-73.9913067,"isPrimary":"Y","inPlanning":"N","isClosed":"N","openToPublic":"Y","locationType":"micro","locationTypeDisplay":"Micro Brewery","countryIsoCode":"US","status":"verified","statusDisplay":"Verified","createDate":"2014-10-01 19:08:42","updateDate":"2014-10-01 19:08:42","country":{"isoCode":"US","name":"UNITED STATES","displayName":"United States","isoThree":"USA","numberCode":840,"createDate":"2012-01-03 02:41:33"}},{"id":"jnSdDd","name":"Main Brewery","streetAddress":"1800 Pike Rd","extendedAddress":"Unit B","locality":"Longmont","region":"Colorado","postalCode":"80501","phone":"303-823-6685","website":"http://www.oskarblues.com/","latitude":40.139056,"longitude":-105.121887,"isPrimary":"Y","inPlanning":"N","isClosed":"N","openToPublic":"Y","locationType":"micro","locationTypeDisplay":"Micro Brewery","countryIsoCode":"US","yearOpened":"1997","status":"verified","statusDisplay":"Verified","createDate":"2012-01-03 02:42:05","updateDate":"2014-07-23 19:11:34","country":{"isoCode":"US","name":"UNITED STATES","displayName":"United States","isoThree":"USA","numberCode":840,"createDate":"2012-01-03 02:41:33"}},{"id":"I1q8kK","name":"Brevard","streetAddress":"342 Mountain Industrial Dr.","locality":"Brevard","region":"North Carolina","postalCode":"28712","phone":"(828) 883-2337","website":"http://www.oskarblues.com/","hoursOfOperation":"Tasting Room\r\nMonday-Sunday: 12pm-8pm\r\n\r\nFree Brewery Tours\r\nMonday-Thursday: 4pm\r\nFriday-Sunday: 2pm, 3pm, 4pm, 5pm","latitude":35.2534666,"longitude":-82.706852,"isPrimary":"N","inPlanning":"N","isClosed":"N","openToPublic":"Y","locationType":"micro","locationTypeDisplay":"Micro Brewery","countryIsoCode":"US","yearOpened":"2012","status":"verified","statusDisplay":"Verified","createDate":"2012-12-13 15:22:31","updateDate":"2014-07-23 19:11:34","country":{"isoCode":"US","name":"UNITED STATES","displayName":"United States","isoThree":"USA","numberCode":840,"createDate":"2012-01-03 02:41:33"}},{"id":"gQxy6P","name":"Main Brewery","streetAddress":"1249-A Wicker Drive","locality":"Raleigh","region":"North Carolina","postalCode":"27604","latitude":35.809712,"longitude":-78.618223,"isPrimary":"Y","inPlanning":"N","isClosed":"Y","openToPublic":"N","locationType":"micro","locationTypeDisplay":"Micro Brewery","countryIsoCode":"US","yearOpened":"1998","yearClosed":"2000","status":"verified","statusDisplay":"Verified","createDate":"2012-03-29 21:41:36","updateDate":"2014-07-23 19:11:34","country":{"isoCode":"US","name":"UNITED STATES","displayName":"United States","isoThree":"USA","numberCode":840,"createDate":"2012-01-03 02:41:33"}},{"id":"KI6uwA","name":"Main Brewery","streetAddress":"195 Arnold Road","locality":"Fiskdale","region":"Massachusetts","postalCode":"01566","phone":"508-347-7500","website":"http://hylandbrew.com/","latitude":42.1415,"longitude":-72.1105,"isPrimary":"Y","inPlanning":"N","isClosed":"N","openToPublic":"Y","locationType":"micro","locationTypeDisplay":"Micro Brewery","countryIsoCode":"US","yearOpened":"2004","status":"verified","statusDisplay":"Verified","createDate":"2012-01-03 02:42:05","updateDate":"2014-07-23 19:11:34","country":{"isoCode":"US","name":"UNITED STATES","displayName":"United States","isoThree":"USA","numberCode":840,"createDate":"2012-01-03 02:41:33"}},{"id":"n3kdur","name":"Main Brewery","streetAddress":"2015 Gottingen Street","locality":"Halifax","region":"Nova Scotia","postalCode":"B3K 3B1","phone":"902-422-7767","website":"http://www.drinkpropeller.ca/","latitude":44.6508598,"longitude":-63.5814347,"isPrimary":"Y","inPlanning":"N","isClosed":"N","openToPublic":"Y","locationType":"micro","locationTypeDisplay":"Micro Brewery","countryIsoCode":"CA","yearOpened":"1997","status":"verified","statusDisplay":"Verified","createDate":"2012-01-03 02:42:06","updateDate":"2014-07-23 19:11:34","country":{"isoCode":"CA","name":"CANADA","displayName":"Canada","isoThree":"CAN","numberCode":124,"createDate":"2012-01-03 02:41:33"}},{"id":"dY3Cp3","name":"Main Brewery","streetAddress":"Unit 11 Bradley Hall Trading Estate","locality":"Standish","region":"Wigan","postalCode":"WN6 0XQ","phone":"+44 1257 421329","website":"http://www.prospectbrewery.com/","hoursOfOperation":"Monday-Friday: 09:30-16:30","latitude":53.5939606,"longitude":-2.6497844,"isPrimary":"Y","inPlanning":"N","isClosed":"N","openToPublic":"Y","locationType":"micro","locationTypeDisplay":"Micro Brewery","countryIsoCode":"GB","yearOpened":"2007","status":"verified","statusDisplay":"Verified","createDate":"2014-01-14 13:41:19","updateDate":"2014-07-23 19:11:34","country":{"isoCode":"GB","name":"UNITED KINGDOM","displayName":"United Kingdom","isoThree":"GBR","numberCode":826,"createDate":"2012-01-03 02:41:33"}},{"id":"g9JaLp","name":"Main Brewery","streetAddress":"54 East 4th Ave.","locality":"Vancouver","region":"British Columbia","postalCode":"V5T 1E8","phone":"1-604-874-2537","website":"http://www.r-and-b.com/","latitude":49.267381,"longitude":-123.103715,"isPrimary":"Y","inPlanning":"N","isClosed":"N","openToPublic":"Y","locationType":"micro","locationTypeDisplay":"Micro Brewery","countryIsoCode":"CA","yearOpened":"1997","status":"verified","statusDisplay":"Verified","createDate":"2012-01-03 02:42:06","updateDate":"2014-07-23 19:11:34","country":{"isoCode":"CA","name":"CANADA","displayName":"Canada","isoThree":"CAN","numberCode":124,"createDate":"2012-01-03 02:41:33"}},{"id":"YMxo1d","name":"Main Brewery","streetAddress":"Sonnewalder Straße 13","locality":"Finsterwalde","region":"Brandenburg","postalCode":"03238","latitude":51.61088,"longitude":13.651065,"isPrimary":"Y","inPlanning":"N","isClosed":"N","openToPublic":"Y","locationType":"micro","locationTypeDisplay":"Micro Brewery","countryIsoCode":"DE","status":"verified","statusDisplay":"Verified","createDate":"2012-08-16 15:25:10","updateDate":"2014-07-23 19:11:34","country":{"isoCode":"DE","name":"GERMANY","displayName":"Germany","isoThree":"DEU","numberCode":276,"createDate":"2012-01-03 02:41:33"}},{"id":"sxggDn","name":"Main Brewery","streetAddress":"226-A West Main Street","locality":"Spartanburg","region":"South Carolina","postalCode":"29306","phone":"864-585-BEER","website":"http://www.rjrockers.com/","hoursOfOperation":"Tours & Tastings are every Thursday between 5pm and 7pm with tour offerings every half hour.","latitude":34.948639,"longitude":-81.935726,"isPrimary":"Y","inPlanning":"N","isClosed":"N","openToPublic":"Y","locationType":"micro","locationTypeDisplay":"Micro Brewery","countryIsoCode":"US","yearOpened":"1997","status":"verified","statusDisplay":"Verified","createDate":"2012-01-03 02:42:07","updateDate":"2014-07-23 19:11:34","country":{"isoCode":"US","name":"UNITED STATES","displayName":"United States","isoThree":"USA","numberCode":840,"createDate":"2012-01-03 02:41:33"}},{"id":"yYIiyy","name":"Main Brewery","streetAddress":"632 Laporte Road Route 100","locality":"Morrisville","region":"Vermont","postalCode":"05661","phone":"802-888-9400","website":"http://www.rockartbrewery.com/","hoursOfOperation":"9:00 until 6:00 Monday-Saturday\r\n\r\nTOURS: We have a wonderful viewing area upstairs and are happy to bring people up for a tour at 2:00 & 4:00 daily with a special tour at 11:00 a.m. on Saturday.\r\n \r\nTASTINGS DAILY until 5:30","latitude":44.557791,"longitude":-72.608085,"isPrimary":"Y","inPlanning":"N","isClosed":"N","openToPublic":"Y","locationType":"micro","locationTypeDisplay":"Micro Brewery","countryIsoCode":"US","yearOpened":"2010","status":"verified","statusDisplay":"Verified","createDate":"2012-01-03 02:42:07","updateDate":"2014-07-23 19:11:34","country":{"isoCode":"US","name":"UNITED STATES","displayName":"United States","isoThree":"USA","numberCode":840,"createDate":"2012-01-03 02:41:33"}},{"id":"vuehNG","name":"Main Brewery","streetAddress":"724 4th Street","locality":"Santa Rosa","region":"California","postalCode":"95404","phone":"707-545-2337","website":"http://www.russianriverbrewing.com/","hoursOfOperation":"Mon - Thu:\t11:00 am - 12:00 am\r\nFri - Sat:\t11:00 am - 1:00 am\r\nSun:\t11:00 am - 12:00 am","latitude":38.441415,"longitude":-122.711872,"isPrimary":"Y","inPlanning":"N","isClosed":"N","openToPublic":"Y","locationType":"micro","locationTypeDisplay":"Micro Brewery","countryIsoCode":"US","yearOpened":"1997","status":"verified","statusDisplay":"Verified","createDate":"2012-01-03 02:42:07","updateDate":"2014-07-23 19:11:34","country":{"isoCode":"US","name":"UNITED STATES","displayName":"United States","isoThree":"USA","numberCode":840,"createDate":"2012-01-03 02:41:33"}},{"id":"Pxy2bv","name":"Production Facility","streetAddress":"1812 Ferdinand Ct","locality":"Santa Rosa","region":"California","postalCode":"95404","website":"http://www.russianriverbrewing.com/","latitude":38.421129,"longitude":-122.709695,"isPrimary":"N","inPlanning":"N","isClosed":"N","openToPublic":"N","locationType":"production","locationTypeDisplay":"Production Facility","countryIsoCode":"US","status":"verified","statusDisplay":"Verified","createDate":"2014-07-13 11:55:28","updateDate":"2014-07-23 19:11:34","country":{"isoCode":"US","name":"UNITED STATES","displayName":"United States","isoThree":"USA","numberCode":840,"createDate":"2012-01-03 02:41:33"}},{"id":"uapgZP","name":"Main Brewery","streetAddress":"580 North Nimitz Highway","locality":"Honolulu","region":"Hawaii","postalCode":"96817","phone":"808-545-7979","website":"http://www.samchoy.com/","latitude":21.313594,"longitude":-157.869608,"isPrimary":"Y","inPlanning":"N","isClosed":"N","openToPublic":"Y","locationType":"brewpub","locationTypeDisplay":"Brewpub","countryIsoCode":"US","yearOpened":"1997","status":"verified","statusDisplay":"Verified","createDate":"2012-01-03 02:42:07","updateDate":"2014-07-23 19:11:34","country":{"isoCode":"US","name":"UNITED STATES","displayName":"United States","isoThree":"USA","numberCode":840,"createDate":"2012-01-03 02:41:33"}},{"id":"FwmqM1","name":"Main Brewery","streetAddress":"905 Yakima Valley Highway","locality":"Sunnyside","region":"Washington","postalCode":"98944","phone":"509-837-2739","website":"http://www.snipesmountain.com/","hoursOfOperation":"10 a.m. to 10 p.m. (Sun-Th)\r\n11 a.m. to 11 p.m. (F-Sat)","latitude":46.328424,"longitude":-120.008404,"isPrimary":"Y","inPlanning":"N","isClosed":"N","openToPublic":"Y","locationType":"micro","locationTypeDisplay":"Micro Brewery","countryIsoCode":"US","yearOpened":"1997","status":"verified","statusDisplay":"Verified","createDate":"2012-01-03 02:42:08","updateDate":"2014-07-23 19:11:34","country":{"isoCode":"US","name":"UNITED STATES","displayName":"United States","isoThree":"USA","numberCode":840,"createDate":"2012-01-03 02:41:33"}},{"id":"UaESet","name":"Main Brewery","streetAddress":"8032 Falls Ave SE","locality":"Snoqualmie","region":"Washington","postalCode":"98065","phone":"425-831-2357","website":"http://www.fallsbrew.com/","latitude":47.528832,"longitude":-121.824017,"isPrimary":"Y","inPlanning":"N","isClosed":"N","openToPublic":"Y","locationType":"micro","locationTypeDisplay":"Micro Brewery","countryIsoCode":"US","yearOpened":"1997","status":"verified","statusDisplay":"Verified","createDate":"2012-01-03 02:42:08","updateDate":"2014-07-23 19:11:34","country":{"isoCode":"US","name":"UNITED STATES","displayName":"United States","isoThree":"USA","numberCode":840,"createDate":"2012-01-03 02:41:33"}},{"id":"t559gG","name":"Main Brewery","streetAddress":"1195-A Evans Avenue","locality":"San Francisco","region":"California","postalCode":"94124","phone":"415-642-3371","website":"http://www.goodbeer.com/","hoursOfOperation":"Mon - Thu:\t9:00 am - 10:00 am\r\nFri - Sat:\t12:00 pm - 10:00 pm","latitude":37.7382569,"longitude":-122.3802492,"isPrimary":"Y","inPlanning":"N","isClosed":"N","openToPublic":"Y","locationType":"micro","locationTypeDisplay":"Micro Brewery","countryIsoCode":"US","yearOpened":"1997","status":"verified","statusDisplay":"Verified","createDate":"2012-01-03 02:42:08","updateDate":"2014-07-23 19:11:34","country":{"isoCode":"US","name":"UNITED STATES","displayName":"United States","isoThree":"USA","numberCode":840,"createDate":"2012-01-03 02:41:33"}},{"id":"4GJFCc","name":"Main Brewery","streetAddress":"301-305 South Market","locality":"Springfield","region":"Missouri","postalCode":"65806","phone":"417-832-8277","website":"http://www.springfieldbrewingco.com/","hoursOfOperation":"Mon - Tue: 11:00 am - 11:00 pm\r\nWed - Thu: 11:00 am - 12:00 am\r\nFri: 11:00 am - 1:00 am\r\nSat: 7:00 am - 1:00 am\r\nSun: 7:00 am - 12:00 am","latitude":37.2078118,"longitude":-93.2955934,"isPrimary":"Y","inPlanning":"N","isClosed":"N","openToPublic":"Y","locationType":"micro","locationTypeDisplay":"Micro Brewery","countryIsoCode":"US","yearOpened":"1997","status":"verified","statusDisplay":"Verified","createDate":"2012-01-03 02:42:09","updateDate":"2014-07-23 19:11:34","country":{"isoCode":"US","name":"UNITED STATES","displayName":"United States","isoThree":"USA","numberCode":840,"createDate":"2012-01-03 02:41:33"}},{"id":"MfINpl","name":"Main Brewery","streetAddress":"195 Ottley Drive","locality":"Atlanta","region":"Georgia","postalCode":"30324","phone":"404-691-2537","website":"http://www.sweetwaterbrew.com/","latitude":33.808102,"longitude":-84.38119,"isPrimary":"Y","inPlanning":"N","isClosed":"N","openToPublic":"Y","locationType":"micro","locationTypeDisplay":"Micro Brewery","countryIsoCode":"US","yearOpened":"1997","status":"verified","statusDisplay":"Verified","createDate":"2012-01-03 02:42:09","updateDate":"2014-07-23 19:11:34","country":{"isoCode":"US","name":"UNITED STATES","displayName":"United States","isoThree":"USA","numberCode":840,"createDate":"2012-01-03 02:41:33"}},{"id":"hF3gWV","name":"Gahan House","streetAddress":"126 Sydney Street","locality":"Charlottetown","region":"Prince Edward Island","postalCode":"C1A 1G5","phone":"902-626-2337","website":"http://www.gahan.ca/","latitude":46.2334763,"longitude":-63.1259271,"isPrimary":"Y","inPlanning":"N","isClosed":"N","openToPublic":"Y","locationType":"brewpub","locationTypeDisplay":"Brewpub","countryIsoCode":"CA","yearOpened":"2001","status":"verified","statusDisplay":"Verified","createDate":"2014-06-27 18:42:20","updateDate":"2014-07-23 19:11:34","country":{"isoCode":"CA","name":"CANADA","displayName":"Canada","isoThree":"CAN","numberCode":124,"createDate":"2012-01-03 02:41:33"}},{"id":"QQpuA2","name":"Main Brewery","streetAddress":"24 Federal St","locality":"Greenfield","region":"Massachusetts","postalCode":"01301","phone":"(413) 773-0333","website":"http://thepeoplespint.com/","latitude":42.5886166,"longitude":-72.599865,"isPrimary":"Y","inPlanning":"N","isClosed":"N","openToPublic":"Y","locationType":"brewpub","locationTypeDisplay":"Brewpub","countryIsoCode":"US","yearOpened":"1997","status":"verified","statusDisplay":"Verified","createDate":"2012-01-03 02:42:10","updateDate":"2014-07-23 19:11:34","country":{"isoCode":"US","name":"UNITED STATES","displayName":"United States","isoThree":"USA","numberCode":840,"createDate":"2012-01-03 02:41:33"}},{"id":"aVMK0I","name":"Main Brewery","streetAddress":"Unit 3 Magpie Works","extendedAddress":"Station Approach Four Marks","locality":"Nr Alton","region":"Hampshire","postalCode":"GU34 5HN","phone":"01420 561 422","hoursOfOperation":"Tours available by request","latitude":51.112997,"longitude":-1.041864,"isPrimary":"Y","inPlanning":"N","isClosed":"N","openToPublic":"Y","locationType":"micro","locationTypeDisplay":"Micro Brewery","countryIsoCode":"GB","yearOpened":"1997","status":"verified","statusDisplay":"Verified","createDate":"2012-08-23 12:33:24","updateDate":"2014-07-23 19:11:34","country":{"isoCode":"GB","name":"UNITED KINGDOM","displayName":"United Kingdom","isoThree":"GBR","numberCode":826,"createDate":"2012-01-03 02:41:33"}},{"id":"ZsEYA4","name":"Main Brewery","streetAddress":"36-38 Main Street","locality":"Eshowe","region":"RSA","postalCode":"3815","phone":"+27 (0) 35 474 2298","website":"http://www.zulublonde.com/","latitude":-29.029359,"longitude":31.5833957,"isPrimary":"Y","inPlanning":"N","isClosed":"N","openToPublic":"Y","locationType":"micro","locationTypeDisplay":"Micro Brewery","countryIsoCode":"ZA","status":"verified","statusDisplay":"Verified","createDate":"2014-11-22 12:43:26","updateDate":"2014-11-22 12:43:26","country":{"isoCode":"ZA","name":"SOUTH AFRICA","displayName":"South Africa","isoThree":"ZAF","numberCode":710,"createDate":"2012-01-03 02:41:33"}},{"id":"hCg2RZ","name":"Main Brewery","streetAddress":"529 Grant St. Suite B","locality":"Akron","region":"Ohio","postalCode":"44311","phone":"330-252-2739","website":"http://www.thirstydog.com/","latitude":41.068898,"longitude":-81.51722,"isPrimary":"Y","inPlanning":"N","isClosed":"N","openToPublic":"Y","locationType":"micro","locationTypeDisplay":"Micro Brewery","countryIsoCode":"US","yearOpened":"1997","status":"verified","statusDisplay":"Verified","createDate":"2012-01-03 02:42:10","updateDate":"2014-07-23 19:11:34","country":{"isoCode":"US","name":"UNITED STATES","displayName":"United States","isoThree":"USA","numberCode":840,"createDate":"2012-01-03 02:41:33"}},{"id":"aIEysX","name":"Main Brewery","streetAddress":"101 E. Main St.","locality":"Farmington","region":"New Mexico","postalCode":"87401","phone":"505-324-2187","website":"http://www.threeriversbrewery.com/","latitude":36.7290749,"longitude":-108.2052546,"isPrimary":"Y","inPlanning":"N","isClosed":"N","openToPublic":"Y","locationType":"micro","locationTypeDisplay":"Micro Brewery","countryIsoCode":"US","yearOpened":"1997","status":"verified","statusDisplay":"Verified","createDate":"2012-01-03 02:42:10","updateDate":"2014-07-23 19:11:34","country":{"isoCode":"US","name":"UNITED STATES","displayName":"United States","isoThree":"USA","numberCode":840,"createDate":"2012-01-03 02:41:33"}},{"id":"3Z8DUH","name":"Main Brewery","streetAddress":"7401 North La Cholla Boulevard","locality":"Tucson","region":"Arizona","postalCode":"85741","phone":"520-797-2652","website":"http://www.thundercanyonbrewery.com/","hoursOfOperation":"Mon - Wed: 11:00 am - 11:00 pm\r\nThu - Sat: 11:00 am - 2:00 am\r\nSun: 11:00 am - 11:00 pm","latitude":32.3407193,"longitude":-111.0149001,"isPrimary":"Y","inPlanning":"N","isClosed":"N","openToPublic":"Y","locationType":"micro","locationTypeDisplay":"Micro Brewery","countryIsoCode":"US","yearOpened":"1997","status":"verified","statusDisplay":"Verified","createDate":"2012-01-03 02:42:10","updateDate":"2014-07-23 19:11:34","country":{"isoCode":"US","name":"UNITED STATES","displayName":"United States","isoThree":"USA","numberCode":840,"createDate":"2012-01-03 02:41:33"}},{"id":"qaVDKC","name":"Main Brewery","streetAddress":"1430 Washington Avenue South","locality":"Minneapolis","region":"Minnesota","postalCode":"55454","phone":"1-612-339-8696","website":"http://www.townhallbrewery.com/","latitude":44.9734667,"longitude":-93.2484763,"isPrimary":"Y","inPlanning":"N","isClosed":"N","openToPublic":"Y","locationType":"micro","locationTypeDisplay":"Micro Brewery","countryIsoCode":"US","status":"verified","statusDisplay":"Verified","createDate":"2012-01-03 02:42:02","updateDate":"2014-07-23 19:11:34","country":{"isoCode":"US","name":"UNITED STATES","displayName":"United States","isoThree":"USA","numberCode":840,"createDate":"2012-01-03 02:41:33"}},{"id":"DsRaFT","name":"Town Hall Tap","streetAddress":"4810 Chicago Ave S","locality":"Minneapolis","region":"Minnesota","postalCode":"55417","phone":"(612) 767-7307","website":"http://www.townhalltap.com/","hoursOfOperation":"Monday-Thursday: 11am – 1am\r\nFriday: 11am – 2am\r\nSaturday: 9am – 2am\r\nSunday: 10am – 12am","latitude":44.9157644,"longitude":-93.2628038,"isPrimary":"N","inPlanning":"N","isClosed":"N","openToPublic":"Y","locationType":"restaurant","locationTypeDisplay":"Restaurant/Ale House","countryIsoCode":"US","status":"verified","statusDisplay":"Verified","createDate":"2013-03-26 12:25:05","updateDate":"2014-07-23 19:11:34","country":{"isoCode":"US","name":"UNITED STATES","displayName":"United States","isoThree":"USA","numberCode":840,"createDate":"2012-01-03 02:41:33"}},{"id":"pkG6MD","name":"Main Brewery","streetAddress":"279 Springfield Avenue","locality":"Berkeley Heights","region":"New Jersey","postalCode":"07922","phone":"908-665-1755","website":"http://traprockrestaurant.net/","hoursOfOperation":"Monday-Thursday: 11:30AM-10PM\r\nFriday-Saturday: 11:30AM-11PM\r\nSunday: 12 Noon-9PM","latitude":40.688869,"longitude":-74.434723,"isPrimary":"Y","inPlanning":"N","isClosed":"N","openToPublic":"Y","locationType":"brewpub","locationTypeDisplay":"Brewpub","countryIsoCode":"US","yearOpened":"1997","status":"verified","statusDisplay":"Verified","createDate":"2012-01-03 02:42:10","updateDate":"2014-09-26 13:56:47","country":{"isoCode":"US","name":"UNITED STATES","displayName":"United States","isoThree":"USA","numberCode":840,"createDate":"2012-01-03 02:41:33"}},{"id":"C6iHOv","name":"Main Brewery","streetAddress":"200 E Hersheypark Dr","locality":"Hershey","region":"Pennsylvania","postalCode":"17033","phone":"717-232-1297","website":"http://www.troegs.com/","hoursOfOperation":"Sun:  11:00am - 9:00pm\nThu:  11:00am - 10:00pm\nFri:  11:00am - 10:00pm\nSat:  11:00am - 10:00pm\n\nGeneral Store Hours\r\n------------------------------\r\nSunday: 11am to 5pm\r\nMonday - Saturday: 11am to 8pm","latitude":40.2972852,"longitude":-76.6428527,"isPrimary":"Y","inPlanning":"N","isClosed":"N","openToPublic":"Y","locationType":"micro","locationTypeDisplay":"Micro Brewery","countryIsoCode":"US","yearOpened":"1997","status":"verified","statusDisplay":"Verified","createDate":"2012-01-03 02:42:11","updateDate":"2014-10-02 18:04:49","country":{"isoCode":"US","name":"UNITED STATES","displayName":"United States","isoThree":"USA","numberCode":840,"createDate":"2012-01-03 02:41:33"}},{"id":"EF6nNa","name":"Main Brewery","streetAddress":"2 Miss America Way","locality":"Atlantic City","region":"New Jersey","postalCode":"08401","phone":"609-347-7800","website":"http://tuntavern.com/","latitude":39.362029,"longitude":-74.438908,"isPrimary":"Y","inPlanning":"N","isClosed":"N","openToPublic":"Y","locationType":"brewpub","locationTypeDisplay":"Brewpub","countryIsoCode":"US","yearOpened":"1997","status":"verified","statusDisplay":"Verified","createDate":"2012-01-03 02:42:11","updateDate":"2014-09-26 13:59:09","country":{"isoCode":"US","name":"UNITED STATES","displayName":"United States","isoThree":"USA","numberCode":840,"createDate":"2012-01-03 02:41:33"}},{"id":"FsFnjC","name":"Main Brewery","streetAddress":"48 South Main Street","locality":"Bradford","region":"Vermont","postalCode":"05033","phone":"802-222-5912","website":"http://theperfectpearcafe.com/","hoursOfOperation":"Open Lunch Tuesday-Saturday 11:30-2:00\r\n\r\nDinner - Tuesday- Saturday 5:00- 9:00\r\n\r\nPub - Tuesday-Saturday 2:00-Close","latitude":43.992538,"longitude":-72.127632,"isPrimary":"Y","inPlanning":"N","isClosed":"N","openToPublic":"Y","locationType":"brewpub","locationTypeDisplay":"Brewpub","countryIsoCode":"US","status":"verified","statusDisplay":"Verified","createDate":"2012-01-03 02:42:11","updateDate":"2014-07-23 19:11:34","country":{"isoCode":"US","name":"UNITED STATES","displayName":"United States","isoThree":"USA","numberCode":840,"createDate":"2012-01-03 02:41:33"}},{"id":"zuzAcT","name":"Main Brewery","streetAddress":"9322 State Route 414","locality":"Lodi","region":"New York","postalCode":"14860","phone":"607-582-6450","website":"http://www.wagnervineyards.com/WagnerBrewery/","hoursOfOperation":"Open Year Round for Tours, Tastings, & Sales, 10am-5pm Daily\r\n\r\nWe are closed only on Christmas, Thanksgiving & New Year’s Day","latitude":42.5738525,"longitude":-76.8581633,"isPrimary":"Y","inPlanning":"N","isClosed":"N","openToPublic":"Y","locationType":"micro","locationTypeDisplay":"Micro Brewery","countryIsoCode":"US","yearOpened":"1997","status":"verified","statusDisplay":"Verified","createDate":"2012-01-03 02:42:12","updateDate":"2014-07-23 19:11:34","country":{"isoCode":"US","name":"UNITED STATES","displayName":"United States","isoThree":"USA","numberCode":840,"createDate":"2012-01-03 02:41:33"}},{"id":"5VbDNe","name":"Main Brewery","streetAddress":"921 Mason Way","locality":"Medford","region":"Oregon","postalCode":"97501","phone":"(541) 734-4677","latitude":42.3478795,"longitude":-122.9026997,"isPrimary":"Y","inPlanning":"N","isClosed":"N","openToPublic":"Y","locationType":"micro","locationTypeDisplay":"Micro Brewery","countryIsoCode":"US","yearOpened":"1997","status":"verified","statusDisplay":"Verified","createDate":"2012-01-03 02:42:12","updateDate":"2014-07-23 19:11:34","country":{"isoCode":"US","name":"UNITED STATES","displayName":"United States","isoThree":"USA","numberCode":840,"createDate":"2012-01-03 02:41:33"}},{"id":"xHL90l","name":"Main Brewery","streetAddress":"144 11th St","locality":"Astoria","region":"Oregon","postalCode":"97103","phone":"503-325-6975","website":"http://www.wetdogcafe.com/","latitude":46.190165,"longitude":-123.831405,"isPrimary":"Y","inPlanning":"N","isClosed":"N","openToPublic":"Y","locationType":"brewpub","locationTypeDisplay":"Brewpub","countryIsoCode":"US","yearOpened":"1997","status":"verified","statusDisplay":"Verified","createDate":"2012-01-03 02:42:12","updateDate":"2014-07-23 19:11:34","country":{"isoCode":"US","name":"UNITED STATES","displayName":"United States","isoThree":"USA","numberCode":840,"createDate":"2012-01-03 02:41:33"}},{"id":"y5ueBZ","name":"Main Brewery","streetAddress":"402 W. Pine St.","locality":"Pinedale","region":"Wyoming","postalCode":"82941","phone":"307-367-2337","website":"http://www.windriverbrewingco.com/","hoursOfOperation":"Sunday - Thursday: 11 a.m. - 11 p.m.\r\nFriday & Saturday: 11 a.m. - Midnight","latitude":42.8665738,"longitude":-109.8658053,"isPrimary":"Y","inPlanning":"N","isClosed":"N","openToPublic":"Y","locationType":"micro","locationTypeDisplay":"Micro Brewery","countryIsoCode":"US","status":"verified","statusDisplay":"Verified","createDate":"2012-01-03 02:42:13","updateDate":"2014-07-23 19:11:34","country":{"isoCode":"US","name":"UNITED STATES","displayName":"United States","isoThree":"USA","numberCode":840,"createDate":"2012-01-03 02:41:33"}},{"id":"RMnsnJ","name":"Main Brewery","streetAddress":"793 Exchange Street","locality":"Middlebury","region":"Vermont","postalCode":"05753","website":"http://www.wolavers.com/","latitude":44.019665,"longitude":-73.169251,"isPrimary":"Y","inPlanning":"N","isClosed":"N","openToPublic":"Y","locationType":"micro","locationTypeDisplay":"Micro Brewery","countryIsoCode":"US","yearOpened":"1997","status":"verified","statusDisplay":"Verified","createDate":"2012-01-03 02:42:13","updateDate":"2014-07-23 19:11:34","country":{"isoCode":"US","name":"UNITED STATES","displayName":"United States","isoThree":"USA","numberCode":840,"createDate":"2012-01-03 02:41:33"}},{"id":"3gWgwk","name":"Main Brewery","streetAddress":"27746 McBean Pkwy","locality":"Valencia","region":"California","postalCode":"91354","phone":"661-263-9653","latitude":34.4453226,"longitude":-118.5532826,"isPrimary":"Y","inPlanning":"N","isClosed":"N","openToPublic":"Y","locationType":"brewpub","locationTypeDisplay":"Brewpub","countryIsoCode":"US","status":"verified","statusDisplay":"Verified","createDate":"2012-01-03 02:42:13","updateDate":"2014-07-23 19:11:34","country":{"isoCode":"US","name":"UNITED STATES","displayName":"United States","isoThree":"USA","numberCode":840,"createDate":"2012-01-03 02:41:33"}},{"id":"5ovCvP","name":"Main Brewery","streetAddress":"22646 Woodward Ave","locality":"Ferndale","region":"Michigan","postalCode":"48220","phone":"248-546-3696","website":"http://www.thewabsite.com/","latitude":42.4591932,"longitude":-83.133351,"isPrimary":"Y","inPlanning":"N","isClosed":"N","openToPublic":"Y","locationType":"brewpub","locationTypeDisplay":"Brewpub","countryIsoCode":"US","status":"verified","statusDisplay":"Verified","createDate":"2012-01-03 02:42:13","updateDate":"2014-07-23 19:11:34","country":{"isoCode":"US","name":"UNITED STATES","displayName":"United States","isoThree":"USA","numberCode":840,"createDate":"2012-01-03 02:41:33"}},{"id":"3LX5bo","name":"Main Brewery","streetAddress":"Kleine Flurstraße 5","locality":"Barmen","region":"Nordrhein-Westfalen","postalCode":"D-42275","latitude":51.271556,"longitude":7.19657,"isPrimary":"N","inPlanning":"N","isClosed":"N","openToPublic":"Y","locationType":"micro","locationTypeDisplay":"Micro Brewery","countryIsoCode":"DE","status":"verified","statusDisplay":"Verified","createDate":"2012-08-12 14:47:28","updateDate":"2014-07-23 19:11:34","country":{"isoCode":"DE","name":"GERMANY","displayName":"Germany","isoThree":"DEU","numberCode":276,"createDate":"2012-01-03 02:41:33"}},{"id":"catP9J","name":"Main Brewery","streetAddress":"102 Copper Road","locality":"Whitehorse","region":"Yukon","postalCode":"Y1A 2Z6","phone":"867-668-4183","website":"http://yukonbeer.com/","hoursOfOperation":"OPEN 7 DAYS A WEEK\r\n11am to 6pm\r\nTours Everyday at 12, 2 & 4\r\nCall ahead to reserve your spot!","latitude":60.737891,"longitude":-135.079566,"isPrimary":"Y","inPlanning":"N","isClosed":"N","openToPublic":"Y","locationType":"micro","locationTypeDisplay":"Micro Brewery","countryIsoCode":"CA","status":"verified","statusDisplay":"Verified","createDate":"2012-08-03 12:43:04","updateDate":"2014-07-23 19:11:34","country":{"isoCode":"CA","name":"CANADA","displayName":"Canada","isoThree":"CAN","numberCode":124,"createDate":"2012-01-03 02:41:33"}}]