[{"id":"U5SjmY","name":"Main Brewery","streetAddress":"De Kluis 1","locality":"Achel","region":"Limburg","phone":"32-011-80-07-60","website":"http://www.achelsekluis.org/","latitude":51.2989957,"longitude":5.4892148,"isPrimary":"Y","inPlanning":"N","isClosed":"N","openToPublic":"Y","locationType":"micro","locationTypeDisplay":"Micro Brewery","countryIsoCode":"BE","yearOpened":"1998","status":"verified","statusDisplay":"Verified","createDate":"2012-01-03 02:41:43","updateDate":"2014-07-23 19:11:34","country":{"isoCode":"BE","name":"BELGIUM","displayName":"Belgium","isoThree":"BEL","numberCode":56,"createDate":"2012-01-03 02:41:33"}},{"id":"BznahA","name":"Main Brewery","streetAddress":"PO Box 42008","locality":"Winnipeg","region":"Manitoba","phone":"1-204-233-4677","latitude":49.89944,"longitude":-97.140794,"isPrimary":"Y","inPlanning":"N","isClosed":"Y","openToPublic":"Y","locationType":"micro","locationTypeDisplay":"Micro Brewery","countryIsoCode":"CA","yearOpened":"1998","status":"verified","statusDisplay":"Verified","createDate":"2012-01-03 02:41:43","updateDate":"2014-07-23 19:11:34","country":{"isoCode":"CA","name":"CANADA","displayName":"Canada","isoThree":"CAN","numberCode":124,"createDate":"2012-01-03 02:41:33"}},{"id":"Jio9R0","name":"Main Brewery","streetAddress":"814 W Hamilton St","locality":"Allentown","region":"Pennsylvania","postalCode":"18101","phone":"610.433.7777","website":"http://www.thebrewworks.com/allentown-brewworks/","latitude":40.6015629,"longitude":-75.4740442,"isPrimary":"Y","inPlanning":"N","isClosed":"N","openToPublic":"Y","locationType":"micro","locationTypeDisplay":"Micro Brewery","countryIsoCode":"US","yearOpened":"1998","status":"verified","statusDisplay":"Verified","createDate":"2012-01-03 02:41:44","updateDate":"2014-07-23 19:11:34","country":{"isoCode":"US","name":"UNITED STATES","displayName":"United States","isoThree":"USA","numberCode":840,"createDate":"2012-01-03 02:41:33"}},{"id":"eGBo2o","name":"Main Brewery","streetAddress":"401 E. 30th St","locality":"Baltimore","region":"Maryland","postalCode":"21218","phone":"410.321.1892","website":"http://www.ravenbeer.com/home.html","latitude":39.324338,"longitude":-76.610422,"isPrimary":"Y","inPlanning":"N","isClosed":"N","openToPublic":"Y","locationType":"micro","locationTypeDisplay":"Micro Brewery","countryIsoCode":"US","status":"verified","statusDisplay":"Verified","createDate":"2012-01-03 02:41:45","updateDate":"2014-07-23 19:11:34","country":{"isoCode":"US","name":"UNITED STATES","displayName":"United States","isoThree":"USA","numberCode":840,"createDate":"2012-01-03 02:41:33"}},{"id":"9fTYdD","name":"Main Brewery","streetAddress":"2190 Main Street","locality":"Baker City","region":"Oregon","postalCode":"97814","phone":"541-523-4266","website":"http://www.barleybrowns.com/","hoursOfOperation":"Monday - Saturday: 4:00 p.m. - 10:00 p.m.\r\nClosed most holidays","latitude":44.7788287,"longitude":-117.8295549,"isPrimary":"Y","inPlanning":"N","isClosed":"N","openToPublic":"Y","locationType":"brewpub","locationTypeDisplay":"Brewpub","countryIsoCode":"US","yearOpened":"1998","status":"verified","statusDisplay":"Verified","createDate":"2012-01-03 02:41:45","updateDate":"2014-07-23 19:11:34","country":{"isoCode":"US","name":"UNITED STATES","displayName":"United States","isoThree":"USA","numberCode":840,"createDate":"2012-01-03 02:41:33"}},{"id":"DR14xU","name":"Main Brewery","locality":"Urbana","region":"Illinois","latitude":40.11727,"longitude":-88.204489,"isPrimary":"Y","inPlanning":"N","isClosed":"Y","openToPublic":"Y","locationType":"micro","locationTypeDisplay":"Micro Brewery","countryIsoCode":"US","yearOpened":"1998","status":"verified","statusDisplay":"Verified","createDate":"2012-01-03 02:41:46","updateDate":"2014-07-23 19:11:34","country":{"isoCode":"US","name":"UNITED STATES","displayName":"United States","isoThree":"USA","numberCode":840,"createDate":"2012-01-03 02:41:33"}},{"id":"QFOApS","name":"Main Brewery","streetAddress":"66 South Park Avenue","locality":"Helena","region":"Montana","postalCode":"59601","phone":"406-449-3005","website":"http://www.blackfootriverbrewing.com/","latitude":46.5872708,"longitude":-112.0406585,"isPrimary":"Y","inPlanning":"N","isClosed":"N","openToPublic":"Y","locationType":"micro","locationTypeDisplay":"Micro Brewery","countryIsoCode":"US","yearOpened":"1998","status":"verified","statusDisplay":"Verified","createDate":"2012-01-03 02:41:46","updateDate":"2014-07-23 19:11:34","country":{"isoCode":"US","name":"UNITED STATES","displayName":"United States","isoThree":"USA","numberCode":840,"createDate":"2012-01-03 02:41:33"}},{"id":"MnAe2w","name":"Main Brewery","streetAddress":"Thomas Avenue","locality":"Davis","region":"West Virginia","postalCode":"26260","phone":"304-259-4221","website":"http://blackwater-brewing.com/","latitude":39.128142,"longitude":-79.472265,"isPrimary":"Y","inPlanning":"N","isClosed":"N","openToPublic":"Y","locationType":"brewpub","locationTypeDisplay":"Brewpub","countryIsoCode":"US","yearOpened":"1998","status":"verified","statusDisplay":"Verified","createDate":"2012-01-03 02:41:46","updateDate":"2014-07-23 19:11:34","country":{"isoCode":"US","name":"UNITED STATES","displayName":"United States","isoThree":"USA","numberCode":840,"createDate":"2012-01-03 02:41:33"}},{"id":"e26tPd","name":"Main Brewery","streetAddress":"Olewiger Straße 135","locality":"Trier","region":"Rheinland-Pfalz","postalCode":"54295","latitude":49.74306,"longitude":6.660074,"isPrimary":"N","inPlanning":"N","isClosed":"N","openToPublic":"Y","locationType":"micro","locationTypeDisplay":"Micro Brewery","countryIsoCode":"DE","status":"verified","statusDisplay":"Verified","createDate":"2012-08-12 14:46:47","updateDate":"2014-07-23 19:11:34","country":{"isoCode":"DE","name":"GERMANY","displayName":"Germany","isoThree":"DEU","numberCode":276,"createDate":"2012-01-03 02:41:33"}},{"id":"3NgU9h","name":"Main Brewery","streetAddress":"161 River Avenue","locality":"Patchogue","region":"New York","postalCode":"11772","phone":"631-475-6944","website":"http://www.bluepointbrewing.com/","hoursOfOperation":"Brewery & Tasting Room Hours:\r\nThursday and Friday 3-7pm\r\nSaturday 12-7pm","latitude":40.759127,"longitude":-73.021493,"isPrimary":"Y","inPlanning":"N","isClosed":"N","openToPublic":"Y","locationType":"micro","locationTypeDisplay":"Micro Brewery","countryIsoCode":"US","yearOpened":"1997","status":"verified","statusDisplay":"Verified","createDate":"2012-01-03 02:41:47","updateDate":"2014-07-23 19:11:34","country":{"isoCode":"US","name":"UNITED STATES","displayName":"United States","isoThree":"USA","numberCode":840,"createDate":"2012-01-03 02:41:33"}},{"id":"7ve76t","name":"Main Brewery","streetAddress":"Kaiser-Wilhelm-Str. 25","locality":"Bocholt","region":"North Rhine-Westphalia","postalCode":"46395","latitude":51.832499,"longitude":6.615698,"isPrimary":"Y","inPlanning":"N","isClosed":"N","openToPublic":"Y","locationType":"micro","locationTypeDisplay":"Micro Brewery","countryIsoCode":"DE","status":"verified","statusDisplay":"Verified","createDate":"2012-08-13 00:34:50","updateDate":"2014-07-23 19:11:34","country":{"isoCode":"DE","name":"GERMANY","displayName":"Germany","isoThree":"DEU","numberCode":276,"createDate":"2012-01-03 02:41:33"}},{"id":"VKkhxa","name":"Main Brewery","streetAddress":"3401 Chester Avenue","locality":"Bakersfield","region":"California","postalCode":"93301","latitude":35.390786,"longitude":-119.019748,"isPrimary":"Y","inPlanning":"N","isClosed":"Y","openToPublic":"Y","locationType":"micro","locationTypeDisplay":"Micro Brewery","countryIsoCode":"US","yearOpened":"1998","status":"verified","statusDisplay":"Verified","createDate":"2012-01-03 02:41:47","updateDate":"2014-07-23 19:11:34","country":{"isoCode":"US","name":"UNITED STATES","displayName":"United States","isoThree":"USA","numberCode":840,"createDate":"2012-01-03 02:41:33"}},{"id":"KQhDR6","name":"Main Brewery","streetAddress":"Thomaskirchhof 3-5","locality":"Leipzig","region":"Saxony","postalCode":"04109","latitude":51.337854,"longitude":12.365695,"isPrimary":"Y","inPlanning":"N","isClosed":"N","openToPublic":"Y","locationType":"micro","locationTypeDisplay":"Micro Brewery","countryIsoCode":"DE","status":"verified","statusDisplay":"Verified","createDate":"2012-08-13 00:01:26","updateDate":"2014-07-23 19:11:34","country":{"isoCode":"DE","name":"GERMANY","displayName":"Germany","isoThree":"DEU","numberCode":276,"createDate":"2012-01-03 02:41:33"}},{"id":"Hyyhug","name":"Main Brewery","streetAddress":"Basteistraße 60","locality":"Pirna-Copitz, Saxony","region":"Sachsen","postalCode":"01796","latitude":50.956621,"longitude":13.952654,"isPrimary":"N","inPlanning":"N","isClosed":"N","openToPublic":"Y","locationType":"micro","locationTypeDisplay":"Micro Brewery","countryIsoCode":"DE","status":"verified","statusDisplay":"Verified","createDate":"2012-08-12 14:47:30","updateDate":"2014-07-23 19:11:34","country":{"isoCode":"DE","name":"GERMANY","displayName":"Germany","isoThree":"DEU","numberCode":276,"createDate":"2012-01-03 02:41:33"}},{"id":"JSLait","name":"Main Brewery","streetAddress":"Netestraat 67","locality":"Westmeerbeek","postalCode":"2235","phone":"016-68 09 78","website":"http://users.telenet.be/denhopperd/default.htm","latitude":51.0628611,"longitude":4.8343388,"isPrimary":"Y","inPlanning":"N","isClosed":"N","openToPublic":"Y","locationType":"micro","locationTypeDisplay":"Micro Brewery","countryIsoCode":"BE","yearOpened":"1998","status":"verified","statusDisplay":"Verified","createDate":"2012-01-03 02:41:49","updateDate":"2014-07-23 19:11:34","country":{"isoCode":"BE","name":"BELGIUM","displayName":"Belgium","isoThree":"BEL","numberCode":56,"createDate":"2012-01-03 02:41:33"}},{"id":"9uGVY9","name":"Main Brewery","streetAddress":"706 West Shaw Avenue","locality":"Fresno","region":"California","postalCode":"93704","latitude":36.8085092,"longitude":-119.8045594,"isPrimary":"Y","inPlanning":"N","isClosed":"Y","openToPublic":"Y","locationType":"micro","locationTypeDisplay":"Micro Brewery","countryIsoCode":"US","yearOpened":"1998","status":"verified","statusDisplay":"Verified","createDate":"2012-01-03 02:41:49","updateDate":"2014-07-23 19:11:34","country":{"isoCode":"US","name":"UNITED STATES","displayName":"United States","isoThree":"USA","numberCode":840,"createDate":"2012-01-03 02:41:33"}},{"id":"L5Ub4V","name":"Main Brewery","streetAddress":"1601 Airport Road","locality":"Ukiah","region":"California","postalCode":"95482","phone":"707-463-2627","latitude":39.128176,"longitude":-123.199955,"isPrimary":"Y","inPlanning":"N","isClosed":"N","openToPublic":"Y","locationType":"micro","locationTypeDisplay":"Micro Brewery","countryIsoCode":"US","yearOpened":"1998","status":"verified","statusDisplay":"Verified","createDate":"2012-01-03 02:41:49","updateDate":"2014-07-23 19:11:34","country":{"isoCode":"US","name":"UNITED STATES","displayName":"United States","isoThree":"USA","numberCode":840,"createDate":"2012-01-03 02:41:33"}},{"id":"lijo4X","name":"Main Brewery","streetAddress":"7424 SW Beaverton Hillsdale Hwy.","locality":"Portland","region":"Oregon","postalCode":"97225","phone":"503-296-0110","website":"http://www.cascadebrewing.com/","latitude":45.485627,"longitude":-122.753996,"isPrimary":"Y","inPlanning":"N","isClosed":"N","openToPublic":"Y","locationType":"micro","locationTypeDisplay":"Micro Brewery","countryIsoCode":"US","yearOpened":"1998","status":"verified","statusDisplay":"Verified","createDate":"2012-01-03 02:41:50","updateDate":"2014-07-23 19:11:34","country":{"isoCode":"US","name":"UNITED STATES","displayName":"United States","isoThree":"USA","numberCode":840,"createDate":"2012-01-03 02:41:33"}},{"id":"MidbQ7","name":"Main Brewery","streetAddress":"1422 Monterey Street","extendedAddress":"Suite B100","locality":"San Luis Obispo","region":"California","postalCode":"93401","phone":"805-783-2739","website":"http://www.centralcoastbrew.com/","latitude":35.2857992,"longitude":-120.6552655,"isPrimary":"Y","inPlanning":"N","isClosed":"N","openToPublic":"Y","locationType":"micro","locationTypeDisplay":"Micro Brewery","countryIsoCode":"US","status":"verified","statusDisplay":"Verified","createDate":"2012-01-03 02:41:50","updateDate":"2014-07-23 19:11:34","country":{"isoCode":"US","name":"UNITED STATES","displayName":"United States","isoThree":"USA","numberCode":840,"createDate":"2012-01-03 02:41:33"}},{"id":"z2MPZY","name":"Main Brewery","streetAddress":"351 Allen Street","locality":"Amherst","region":"Wisconsin","postalCode":"54406","phone":"715-824-2739","website":"http://www.centralwaters.com/","hoursOfOperation":"Fri:  3:00pm - 10:00pm\nSat:  3:00pm - 10:00pm\n\nFri - Sat:3:00 pm - 10:00 pm","latitude":44.4418999,"longitude":-89.2797,"isPrimary":"Y","inPlanning":"N","isClosed":"N","openToPublic":"Y","locationType":"micro","locationTypeDisplay":"Micro Brewery","countryIsoCode":"US","status":"verified","statusDisplay":"Verified","createDate":"2012-01-03 02:41:50","updateDate":"2014-09-29 20:12:14","country":{"isoCode":"US","name":"UNITED STATES","displayName":"United States","isoThree":"USA","numberCode":840,"createDate":"2012-01-03 02:41:33"}},{"id":"GUtmoi","name":"Montréal Brewpub","streetAddress":"29 Laurier West","locality":"Montréal","region":"Québec","postalCode":"H2T 2N2","phone":"514-490-9555","website":"http://www.dieuduciel.com/","hoursOfOperation":"Monday to Friday, from 3:00 PM to 3 AM\r\nSaturday and Sunday, from 1:00 PM to 3 AM","latitude":45.522765,"longitude":-73.593091,"isPrimary":"Y","inPlanning":"N","isClosed":"N","openToPublic":"Y","locationType":"brewpub","locationTypeDisplay":"Brewpub","countryIsoCode":"CA","yearOpened":"1998","status":"verified","statusDisplay":"Verified","createDate":"2012-01-03 02:42:14","updateDate":"2014-07-23 19:11:34","country":{"isoCode":"CA","name":"CANADA","displayName":"Canada","isoThree":"CAN","numberCode":124,"createDate":"2012-01-03 02:41:33"}},{"id":"socay9","name":"St-Jérôme Micro Brewery","streetAddress":"259 rue de Villemure","locality":"Saint-Jérôme","region":"Quebec","postalCode":"J7Z 5J4","phone":"450-436-3438","website":"http://www.dieuduciel.com/","hoursOfOperation":"Open Monday to Wednesday from 11:30 AM - 11 PM.\r\nThursday and Friday from 11:30 AM - 2:30 AM.\r\nSaturday from 2 PM - 2:30 AM\r\nSunday from 2 PM - 11:00 PM","latitude":45.773742,"longitude":-73.990711,"isPrimary":"N","inPlanning":"N","isClosed":"N","openToPublic":"Y","locationType":"micro","locationTypeDisplay":"Micro Brewery","countryIsoCode":"CA","yearOpened":"1998","status":"verified","statusDisplay":"Verified","createDate":"2012-01-03 02:42:14","updateDate":"2014-07-23 19:11:34","country":{"isoCode":"CA","name":"CANADA","displayName":"Canada","isoThree":"CAN","numberCode":124,"createDate":"2012-01-03 02:41:33"}},{"id":"OyQarF","name":"Main Brewery","streetAddress":"14600 East Eleven Mile Road","locality":"Warren","region":"Michigan","postalCode":"48089","phone":"586-776-9428","website":"http://dragonmead.com/","latitude":42.493159,"longitude":-82.9741767,"isPrimary":"Y","inPlanning":"N","isClosed":"N","openToPublic":"Y","locationType":"brewpub","locationTypeDisplay":"Brewpub","countryIsoCode":"US","status":"verified","statusDisplay":"Verified","createDate":"2012-01-03 02:41:53","updateDate":"2014-07-23 19:11:34","country":{"isoCode":"US","name":"UNITED STATES","displayName":"United States","isoThree":"USA","numberCode":840,"createDate":"2012-01-03 02:41:33"}},{"id":"txhujB","name":"Main Brewery","streetAddress":"14 North Mall","locality":"Cork","region":"Co. Cork","phone":"+353 (0)21 4210 130","website":"http://www.franciscanwellbrewery.com/","hoursOfOperation":"Mon - Thu: 3:00 pm - 11:30 pm\r\nFri - Sat: 3:00 pm - 12:30 am\r\nSun: 3:00 pm - 11:00 pm","latitude":51.9009944,"longitude":-8.482041,"isPrimary":"Y","inPlanning":"N","isClosed":"N","openToPublic":"Y","locationType":"micro","locationTypeDisplay":"Micro Brewery","countryIsoCode":"IE","yearOpened":"1998","status":"verified","statusDisplay":"Verified","createDate":"2013-05-10 19:18:33","updateDate":"2014-07-23 19:11:34","country":{"isoCode":"IE","name":"IRELAND","displayName":"Ireland","isoThree":"IRL","numberCode":372,"createDate":"2012-01-03 02:41:33"}},{"id":"8khP2P","name":"Ithaca Beer Co.","streetAddress":"122 Ithaca Beer Dr.","locality":"Ithaca","region":"New York","postalCode":"14850","phone":"607-273-0766","website":"http://ithacabeer.com/","hoursOfOperation":"Wed - Sun\r\n12pm - 9pm","latitude":42.4144515,"longitude":-76.5343016,"isPrimary":"Y","inPlanning":"N","isClosed":"N","openToPublic":"Y","locationType":"micro","locationTypeDisplay":"Micro Brewery","countryIsoCode":"US","yearOpened":"1998","status":"verified","statusDisplay":"Verified","createDate":"2012-01-03 02:41:58","updateDate":"2014-07-23 19:11:34","country":{"isoCode":"US","name":"UNITED STATES","displayName":"United States","isoThree":"USA","numberCode":840,"createDate":"2012-01-03 02:41:33"}},{"id":"peXEgv","name":"Main Brewery","streetAddress":"5919 Chicago Road","locality":"Warren","region":"Michigan","postalCode":"48092","phone":"1-586-979-8361","website":"http://www.kbrewery.com/","latitude":42.527938,"longitude":-83.0472865,"isPrimary":"Y","inPlanning":"N","isClosed":"N","openToPublic":"Y","locationType":"micro","locationTypeDisplay":"Micro Brewery","countryIsoCode":"US","yearOpened":"1998","status":"verified","statusDisplay":"Verified","createDate":"2012-01-03 02:42:00","updateDate":"2014-07-23 19:11:34","country":{"isoCode":"US","name":"UNITED STATES","displayName":"United States","isoThree":"USA","numberCode":840,"createDate":"2012-01-03 02:41:33"}},{"id":"O0n0Qn","name":"Main Brewery","streetAddress":"6720 Schirra Ct","locality":"Bakersfield","region":"California","postalCode":"93309","phone":"661-836-2537","website":"http://www.lengthwise.com/","latitude":35.316907,"longitude":-119.077613,"isPrimary":"Y","inPlanning":"N","isClosed":"N","openToPublic":"Y","locationType":"brewpub","locationTypeDisplay":"Brewpub","countryIsoCode":"US","status":"verified","statusDisplay":"Verified","createDate":"2012-01-03 02:42:00","updateDate":"2014-07-23 19:11:34","country":{"isoCode":"US","name":"UNITED STATES","displayName":"United States","isoThree":"USA","numberCode":840,"createDate":"2012-01-03 02:41:33"}},{"id":"XMwZWF","name":"Main Brewery","streetAddress":"2002 Broadway","locality":"Fort Wayne","region":"Indiana","postalCode":"46802","phone":"(260) 426-2537","website":"http://www.madbrew.com/","hoursOfOperation":"Mon:  11:00am - 12:00am\nTue:  11:00am - 11:00pm\nWed:  11:00am - 11:00pm\nThu:  11:00am - 12:00am\nFri:  11:00am - 1:00am\nSat:  11:00am - 1:00am\nSun:  11:00am - 11:00pm\n\n","latitude":41.067636,"longitude":-85.152766,"isPrimary":"N","inPlanning":"N","isClosed":"N","openToPublic":"Y","locationType":"micro","locationTypeDisplay":"Micro Brewery","countryIsoCode":"US","yearOpened":"1998","status":"verified","statusDisplay":"Verified","createDate":"2012-01-03 02:42:01","updateDate":"2014-10-02 17:16:39","country":{"isoCode":"US","name":"UNITED STATES","displayName":"United States","isoThree":"USA","numberCode":840,"createDate":"2012-01-03 02:41:33"}},{"id":"btEagG","name":"Mad Anthony's Lakeview Alehouse and Reception Hall","streetAddress":"4080 N 300W","locality":"Angola","region":"Indiana","postalCode":"46703","phone":"(260) 833-2537","website":"https://www.madbrew.com/angola","hoursOfOperation":"Sun:  11:00am - 9:00pm\nMon:  11:00am - 10:00pm\nTue:  11:00am - 10:00pm\nWed:  11:00am - 10:00pm\nThu:  11:00am - 10:00pm\nFri:  11:00am - 12:00am\nSat:  11:00am - 12:00am\n\n","latitude":41.7018568,"longitude":-85.0480084,"isPrimary":"N","inPlanning":"N","isClosed":"N","openToPublic":"Y","locationType":"restaurant","locationTypeDisplay":"Restaurant/Ale House","countryIsoCode":"US","status":"verified","statusDisplay":"Verified","createDate":"2014-10-02 12:55:06","updateDate":"2014-10-02 17:17:41","country":{"isoCode":"US","name":"UNITED STATES","displayName":"United States","isoThree":"USA","numberCode":840,"createDate":"2012-01-03 02:41:33"}},{"id":"ECxOph","name":"Mad Anthony's Auburn Tap Room","streetAddress":"114 North Main St","locality":"Auburn","region":"Indiana","postalCode":"46706","phone":"(260) 927-0500","website":"https://www.madbrew.com/auburn","hoursOfOperation":"Mon:  11:00am - 11:00pm\nTue:  11:00am - 11:00pm\nWed:  11:00am - 11:00pm\nThu:  11:00am - 11:00pm\nFri:  11:00am - 12:00am\nSat:  11:00am - 12:00am\nSun:  11:00am - 10:00pm\n\n","latitude":41.3672315,"longitude":-85.0558421,"isPrimary":"N","inPlanning":"N","isClosed":"N","openToPublic":"Y","locationType":"tasting","locationTypeDisplay":"Tasting Room","countryIsoCode":"US","status":"verified","statusDisplay":"Verified","createDate":"2014-10-02 12:57:09","updateDate":"2014-10-02 17:18:13","country":{"isoCode":"US","name":"UNITED STATES","displayName":"United States","isoThree":"USA","numberCode":840,"createDate":"2012-01-03 02:41:33"}},{"id":"qWgCz8","name":"Mad Anthony's Lake City Tap House","streetAddress":"113 E. Center St","locality":"Warsaw","region":"Indiana","postalCode":"46580","phone":"(574) 268-2537","website":"https://www.madbrew.com/warsaw","hoursOfOperation":"Mon:  11:00am - 11:00pm\nTue:  11:00am - 11:00pm\nWed:  11:00am - 11:00pm\nThu:  11:00am - 11:00pm\nFri:  11:00am - 1:00am\nSat:  11:00am - 1:00am\nSun:  11:00am - 10:00pm\n\n","latitude":41.2381087,"longitude":-85.8559674,"isPrimary":"Y","inPlanning":"N","isClosed":"N","openToPublic":"Y","locationType":"restaurant","locationTypeDisplay":"Restaurant/Ale House","countryIsoCode":"US","status":"verified","statusDisplay":"Verified","createDate":"2014-10-02 12:59:26","updateDate":"2014-10-02 17:18:13","country":{"isoCode":"US","name":"UNITED STATES","displayName":"United States","isoThree":"USA","numberCode":840,"createDate":"2012-01-03 02:41:33"}},{"id":"Em1uno","name":"Main Brewery","streetAddress":"320 Peachtree Street","locality":"Atlanta","region":"Georgia","postalCode":"30308","phone":"404-525-4400","website":"http://www.maxlagers.com/","latitude":33.7636949,"longitude":-84.3865194,"isPrimary":"Y","inPlanning":"N","isClosed":"N","openToPublic":"Y","locationType":"micro","locationTypeDisplay":"Micro Brewery","countryIsoCode":"US","yearOpened":"1998","status":"verified","statusDisplay":"Verified","createDate":"2012-01-03 02:42:01","updateDate":"2014-07-23 19:11:34","country":{"isoCode":"US","name":"UNITED STATES","displayName":"United States","isoThree":"USA","numberCode":840,"createDate":"2012-01-03 02:41:33"}},{"id":"XgGZ40","name":"Main Brewery","streetAddress":"6, rue Paul-René Tremblay","locality":"Baie-Saint-Paul","region":"Quebec","postalCode":"G3Z 3E4","phone":"418-435-3877","website":"http://www.microbrasserie.com/","latitude":47.435849,"longitude":-70.5021289,"isPrimary":"N","inPlanning":"N","isClosed":"N","openToPublic":"Y","locationType":"production","locationTypeDisplay":"Production Facility","countryIsoCode":"CA","yearOpened":"1998","status":"verified","statusDisplay":"Verified","createDate":"2012-01-03 02:42:02","updateDate":"2014-07-23 19:11:34","country":{"isoCode":"CA","name":"CANADA","displayName":"Canada","isoThree":"CAN","numberCode":124,"createDate":"2012-01-03 02:41:33"}},{"id":"ZXijZq","name":"Le Saint-Pub","streetAddress":"2, rue Racine","locality":"Baie-Saint-Paul","region":"Québec","postalCode":"g3z2p8","phone":"1-418-240-2332","website":"http://www.saint-pub.com/","latitude":47.4428785,"longitude":-70.5070812,"isPrimary":"Y","inPlanning":"N","isClosed":"N","openToPublic":"Y","locationType":"brewpub","locationTypeDisplay":"Brewpub","countryIsoCode":"CA","status":"verified","statusDisplay":"Verified","createDate":"2013-07-03 15:18:42","updateDate":"2014-07-23 19:11:34","country":{"isoCode":"CA","name":"CANADA","displayName":"Canada","isoThree":"CAN","numberCode":124,"createDate":"2012-01-03 02:41:33"}},{"id":"TTWmyn","name":"Main Brewery","streetAddress":"Hauptstrasse 30","locality":"Ossling-Lieske","region":"Saxony","postalCode":"01920","latitude":51.356832,"longitude":14.140979,"isPrimary":"Y","inPlanning":"N","isClosed":"N","openToPublic":"Y","locationType":"micro","locationTypeDisplay":"Micro Brewery","countryIsoCode":"DE","status":"verified","statusDisplay":"Verified","createDate":"2012-08-12 23:53:39","updateDate":"2014-07-23 19:11:34","country":{"isoCode":"DE","name":"GERMANY","displayName":"Germany","isoThree":"DEU","numberCode":276,"createDate":"2012-01-03 02:41:33"}},{"id":"B7srw0","name":"Main Brewery","streetAddress":"119 North L Street","locality":"Livingston","region":"Montana","postalCode":"59047","phone":"406-222-7837","latitude":45.6676589,"longitude":-110.5487233,"isPrimary":"Y","inPlanning":"N","isClosed":"N","openToPublic":"Y","locationType":"micro","locationTypeDisplay":"Micro Brewery","countryIsoCode":"US","status":"verified","statusDisplay":"Verified","createDate":"2012-01-03 02:42:03","updateDate":"2014-07-23 19:11:34","country":{"isoCode":"US","name":"UNITED STATES","displayName":"United States","isoThree":"USA","numberCode":840,"createDate":"2012-01-03 02:41:33"}},{"id":"XUL2yi","name":"Main Brewery","streetAddress":"1109 Campbell St.","locality":"Myrtle Beach","region":"South Carolina","postalCode":"29577","phone":"843-916-2337","website":"http://www.newsouthbrewing.com/","hoursOfOperation":"Tue:\t3:00 pm - 5:30 pm\r\nThu:\t3:00 pm - 5:30 pm","latitude":33.698254,"longitude":-78.88868,"isPrimary":"Y","inPlanning":"N","isClosed":"N","openToPublic":"Y","locationType":"micro","locationTypeDisplay":"Micro Brewery","countryIsoCode":"US","yearOpened":"1998","status":"verified","statusDisplay":"Verified","createDate":"2012-01-03 02:42:03","updateDate":"2014-07-23 19:11:34","country":{"isoCode":"US","name":"UNITED STATES","displayName":"United States","isoThree":"USA","numberCode":840,"createDate":"2012-01-03 02:41:33"}},{"id":"14YH8D","name":"Main Brewery","streetAddress":"114 North Main Street","locality":"Lawton","region":"Michigan","postalCode":"49065","phone":"269-624-6445","website":"http://oldhatbeer.com/","latitude":42.1682351,"longitude":-85.849743,"isPrimary":"Y","inPlanning":"N","isClosed":"N","openToPublic":"Y","locationType":"micro","locationTypeDisplay":"Micro Brewery","countryIsoCode":"US","yearOpened":"1998","status":"verified","statusDisplay":"Verified","createDate":"2012-01-03 02:42:04","updateDate":"2014-07-23 19:11:34","country":{"isoCode":"US","name":"UNITED STATES","displayName":"United States","isoThree":"USA","numberCode":840,"createDate":"2012-01-03 02:41:33"}},{"id":"aTgiD7","name":"Main Brewery","streetAddress":"Antinkatu 11","locality":"Pori","postalCode":"28100","phone":"+358 2 6415599","website":"http://www.beerhunters.fi/","hoursOfOperation":"Mon - Sun: 11:00 am - 2:00 am","latitude":61.4869747,"longitude":21.7957909,"isPrimary":"Y","inPlanning":"N","isClosed":"N","openToPublic":"Y","locationType":"micro","locationTypeDisplay":"Micro Brewery","countryIsoCode":"FI","yearOpened":"1998","status":"verified","statusDisplay":"Verified","createDate":"2013-08-30 12:50:51","updateDate":"2014-07-23 19:11:34","country":{"isoCode":"FI","name":"FINLAND","displayName":"Finland","isoThree":"FIN","numberCode":246,"createDate":"2012-01-03 02:41:33"}},{"id":"MjpQSa","name":"Main Brewery","streetAddress":"1445 North Broadway","locality":"Red Lodge","region":"Montana","postalCode":"59068","phone":"406-446-4607","website":"http://redlodgeales.com/","latitude":45.1985478,"longitude":-109.2461283,"isPrimary":"Y","inPlanning":"N","isClosed":"N","openToPublic":"Y","locationType":"micro","locationTypeDisplay":"Micro Brewery","countryIsoCode":"US","yearOpened":"1998","status":"verified","statusDisplay":"Verified","createDate":"2012-01-03 02:42:06","updateDate":"2014-07-23 19:11:34","country":{"isoCode":"US","name":"UNITED STATES","displayName":"United States","isoThree":"USA","numberCode":840,"createDate":"2012-01-03 02:41:33"}},{"id":"HxmssD","name":"Main Brewery","streetAddress":"619A Water St","locality":"Peoria","region":"Illinois","postalCode":"61601","phone":"309-674-7267","website":"http://www.rhodells.com/","hoursOfOperation":"Tuesday - Thursday: 3:00 p.m. - 10:00 p.m.\r\nFriday: 3:00 p.m. - 12:00 a.m.\r\nSaturday: 2:00 p.m. - 12:00 a.m","latitude":40.6858616,"longitude":-89.5940051,"isPrimary":"Y","inPlanning":"N","isClosed":"N","openToPublic":"Y","locationType":"brewpub","locationTypeDisplay":"Brewpub","countryIsoCode":"US","yearOpened":"1998","status":"verified","statusDisplay":"Verified","createDate":"2012-01-03 02:42:07","updateDate":"2014-07-23 19:11:34","country":{"isoCode":"US","name":"UNITED STATES","displayName":"United States","isoThree":"USA","numberCode":840,"createDate":"2012-01-03 02:41:33"}},{"id":"MEZupX","name":"Main Brewery","streetAddress":"400 Water St.","locality":"Rochester","region":"Michigan","postalCode":"48307","phone":"248-650-5080","website":"http://www.rochestermillsbeerco.com/","hoursOfOperation":"Monday:\t11:30am-12:00am\r\nTuesday:\t11:30am-12:00am\r\nWednesday:\t11:30am-12:00am\r\nThursday:\t11:30am-1:00am\r\nFriday:\t11:30am-2:00am\r\nSaturday:\t11:30am-2:00am\r\nSunday:\t12:00pm-12:00am","latitude":42.6804798,"longitude":-83.1312141,"isPrimary":"Y","inPlanning":"N","isClosed":"N","openToPublic":"Y","locationType":"micro","locationTypeDisplay":"Micro Brewery","countryIsoCode":"US","yearOpened":"1998","status":"verified","statusDisplay":"Verified","createDate":"2012-01-03 02:42:07","updateDate":"2014-07-23 19:11:34","country":{"isoCode":"US","name":"UNITED STATES","displayName":"United States","isoThree":"USA","numberCode":840,"createDate":"2012-01-03 02:41:33"}},{"id":"P2TqjM","name":"Charlotte","streetAddress":"401 North Tryon Street","locality":"Charlotte","region":"North Carolina","postalCode":"28202","phone":"704-334-2739","website":"http://www.rockbottomsouth.com/","hoursOfOperation":"Sun: 11:00 AM - 11:00 PM\r\nMon-Sat: 11:00 AM - 2:00  AM","latitude":35.230194,"longitude":-80.839336,"isPrimary":"N","inPlanning":"N","isClosed":"N","openToPublic":"Y","locationType":"brewpub","locationTypeDisplay":"Brewpub","countryIsoCode":"US","yearOpened":"1998","status":"verified","statusDisplay":"Verified","createDate":"2012-01-03 02:42:15","updateDate":"2014-07-23 19:11:34","country":{"isoCode":"US","name":"UNITED STATES","displayName":"United States","isoThree":"USA","numberCode":840,"createDate":"2012-01-03 02:41:33"}},{"id":"1MCesn","name":"Chicago","streetAddress":"1 West Grand Avenue","locality":"Chicago","region":"Illinois","postalCode":"60610","phone":"1-312-755-9339","latitude":41.891512,"longitude":-87.628412,"isPrimary":"N","inPlanning":"N","isClosed":"N","openToPublic":"Y","locationType":"brewpub","locationTypeDisplay":"Brewpub","countryIsoCode":"US","yearOpened":"1998","status":"verified","statusDisplay":"Verified","createDate":"2012-01-03 02:42:15","updateDate":"2014-07-23 19:11:34","country":{"isoCode":"US","name":"UNITED STATES","displayName":"United States","isoThree":"USA","numberCode":840,"createDate":"2012-01-03 02:41:33"}},{"id":"dfvT2E","name":"Cincinnati","streetAddress":"10 Fountain Square","locality":"Cincinnati","region":"Ohio","postalCode":"45202","phone":"513-621-1588","website":"http://www.rockbottom.com/cincinnati","latitude":39.101088,"longitude":-84.512678,"isPrimary":"N","inPlanning":"N","isClosed":"N","openToPublic":"Y","locationType":"brewpub","locationTypeDisplay":"Brewpub","countryIsoCode":"US","yearOpened":"1998","status":"verified","statusDisplay":"Verified","createDate":"2012-01-03 02:42:15","updateDate":"2014-07-23 19:11:34","country":{"isoCode":"US","name":"UNITED STATES","displayName":"United States","isoThree":"USA","numberCode":840,"createDate":"2012-01-03 02:41:33"}},{"id":"FzeHBf","name":"Denver Downtown","streetAddress":"1001 16th Street #A-100","locality":"Denver","region":"Colorado","postalCode":"80202","phone":"1-303-534-7616","latitude":39.7474837,"longitude":-104.9948016,"isPrimary":"N","inPlanning":"N","isClosed":"N","openToPublic":"Y","locationType":"brewpub","locationTypeDisplay":"Brewpub","countryIsoCode":"US","yearOpened":"1998","status":"verified","statusDisplay":"Verified","createDate":"2012-01-03 02:42:15","updateDate":"2014-07-23 19:11:34","country":{"isoCode":"US","name":"UNITED STATES","displayName":"United States","isoThree":"USA","numberCode":840,"createDate":"2012-01-03 02:41:33"}},{"id":"sJN5L6","name":"Des Moines","streetAddress":"4508 University Ave","locality":"West Des Moines","region":"Iowa","postalCode":"50266","phone":"515-267-8900","latitude":41.6003698,"longitude":-93.7657443,"isPrimary":"N","inPlanning":"N","isClosed":"N","openToPublic":"Y","locationType":"brewpub","locationTypeDisplay":"Brewpub","countryIsoCode":"US","yearOpened":"1998","status":"verified","statusDisplay":"Verified","createDate":"2012-01-03 02:42:15","updateDate":"2014-07-23 19:11:34","country":{"isoCode":"US","name":"UNITED STATES","displayName":"United States","isoThree":"USA","numberCode":840,"createDate":"2012-01-03 02:41:33"}},{"id":"Ud5tUX","name":"Milwaukee","streetAddress":"740 North Plankinton Avenue","locality":"Milwaukee","region":"Wisconsin","postalCode":"53203","phone":"1-414-276-3030","latitude":43.039585,"longitude":-87.911765,"isPrimary":"N","inPlanning":"N","isClosed":"N","openToPublic":"Y","locationType":"brewpub","locationTypeDisplay":"Brewpub","countryIsoCode":"US","yearOpened":"1998","status":"verified","statusDisplay":"Verified","createDate":"2012-01-03 02:42:15","updateDate":"2014-07-23 19:11:34","country":{"isoCode":"US","name":"UNITED STATES","displayName":"United States","isoThree":"USA","numberCode":840,"createDate":"2012-01-03 02:41:33"}},{"id":"6wohdy","name":"Minneapolis","streetAddress":"800 LaSalle Plaza","locality":"Minneapolis","region":"Minnesota","postalCode":"55402","phone":"1-612-332-2739","latitude":44.976479,"longitude":-93.27472,"isPrimary":"N","inPlanning":"N","isClosed":"N","openToPublic":"Y","locationType":"brewpub","locationTypeDisplay":"Brewpub","countryIsoCode":"US","yearOpened":"1998","status":"verified","statusDisplay":"Verified","createDate":"2012-01-03 02:42:15","updateDate":"2014-07-23 19:11:34","country":{"isoCode":"US","name":"UNITED STATES","displayName":"United States","isoThree":"USA","numberCode":840,"createDate":"2012-01-03 02:41:33"}},{"id":"jGXVnP","name":"Portland","streetAddress":"206 SW Morrison St","locality":"Portland","region":"Oregon","postalCode":"97204","phone":"503-796-BREW","website":"http://www.rockbottom.com/","hoursOfOperation":"Mon - Sun: Open at 11am","latitude":45.518008,"longitude":-122.67482,"isPrimary":"N","inPlanning":"N","isClosed":"N","openToPublic":"Y","locationType":"brewpub","locationTypeDisplay":"Brewpub","countryIsoCode":"US","yearOpened":"1998","status":"verified","statusDisplay":"Verified","createDate":"2012-01-03 02:42:15","updateDate":"2014-07-23 19:11:34","country":{"isoCode":"US","name":"UNITED STATES","displayName":"United States","isoThree":"USA","numberCode":840,"createDate":"2012-01-03 02:41:33"}},{"id":"LaGJwq","name":"Campbell","streetAddress":"1875 South Bascom Avenue #700","locality":"Campbell","region":"California","postalCode":"95008","phone":"1-408-377-0707","latitude":37.289111,"longitude":-121.932449,"isPrimary":"N","inPlanning":"N","isClosed":"N","openToPublic":"Y","locationType":"brewpub","locationTypeDisplay":"Brewpub","countryIsoCode":"US","yearOpened":"1998","status":"verified","statusDisplay":"Verified","createDate":"2012-01-03 02:42:15","updateDate":"2014-07-23 19:11:34","country":{"isoCode":"US","name":"UNITED STATES","displayName":"United States","isoThree":"USA","numberCode":840,"createDate":"2012-01-03 02:41:33"}},{"id":"xtz86H","name":"South Denver","streetAddress":"9627 East County Line Road","locality":"Englewood","region":"Colorado","postalCode":"80112","phone":"1-303-792-9090","latitude":39.567775,"longitude":-104.873876,"isPrimary":"N","inPlanning":"N","isClosed":"N","openToPublic":"Y","locationType":"brewpub","locationTypeDisplay":"Brewpub","countryIsoCode":"US","yearOpened":"1998","status":"verified","statusDisplay":"Verified","createDate":"2012-01-03 02:42:15","updateDate":"2014-07-23 19:11:34","country":{"isoCode":"US","name":"UNITED STATES","displayName":"United States","isoThree":"USA","numberCode":840,"createDate":"2012-01-03 02:41:33"}},{"id":"z9H6HJ","name":"Bethesda","streetAddress":"7900 Norfolk Ave","locality":"Bethesda","region":"Maryland","postalCode":"20814","phone":"301-652-1311","website":"http://www.rockbottom.com/bethesda","hoursOfOperation":"Sunday - Thursday: 11am - 1am\r\nFriday - Saturday: 11am - 2am","latitude":38.988988,"longitude":-77.097413,"isPrimary":"N","inPlanning":"N","isClosed":"N","openToPublic":"Y","locationType":"brewpub","locationTypeDisplay":"Brewpub","countryIsoCode":"US","status":"verified","statusDisplay":"Verified","createDate":"2012-05-14 20:29:40","updateDate":"2014-07-23 19:11:34","country":{"isoCode":"US","name":"UNITED STATES","displayName":"United States","isoThree":"USA","numberCode":840,"createDate":"2012-01-03 02:41:33"}},{"id":"xpS5TS","name":"Westminster","streetAddress":"14694 Orchard Parkway","locality":"Westminster","region":"Colorado","postalCode":"80023","phone":"303-255-1625","website":"http://www.rockbottom.com/westminster-orchard-town-center","hoursOfOperation":"Sun - Thur: 11am to 11pm \r\nFri - Sat: 11am to midnight","latitude":39.962965,"longitude":-104.993611,"isPrimary":"Y","inPlanning":"N","isClosed":"N","openToPublic":"Y","locationType":"brewpub","locationTypeDisplay":"Brewpub","countryIsoCode":"US","status":"verified","statusDisplay":"Verified","createDate":"2012-06-10 22:26:13","updateDate":"2014-07-23 19:11:34","country":{"isoCode":"US","name":"UNITED STATES","displayName":"United States","isoThree":"USA","numberCode":840,"createDate":"2012-01-03 02:41:33"}},{"id":"igkxXX","name":"Indianapolis College Park","streetAddress":"2801 Lake Circle Drive","locality":"Indianapolis","region":"Indiana","postalCode":"46268","phone":"317-471-8840","website":"http://www.rockbottom.com/indianapolis-college-park","hoursOfOperation":"Mon-Fri: Opens at 11:am\r\nSat & Sun: Opens at 11:30am","latitude":39.913214,"longitude":-86.209555,"isPrimary":"N","inPlanning":"N","isClosed":"N","openToPublic":"Y","locationType":"brewpub","locationTypeDisplay":"Brewpub","countryIsoCode":"US","status":"verified","statusDisplay":"Verified","createDate":"2012-07-13 00:40:34","updateDate":"2014-07-23 19:11:34","country":{"isoCode":"US","name":"UNITED STATES","displayName":"United States","isoThree":"USA","numberCode":840,"createDate":"2012-01-03 02:41:33"}},{"id":"BxeC9H","name":"Indianapolis Downtown","streetAddress":"10 West Washington","locality":"Indianapolis","region":"Indiana","postalCode":"46204","phone":"317-681-8180","website":"http://www.rockbottom.com/indianapolis-downtown","latitude":39.767118,"longitude":-86.158395,"isPrimary":"N","inPlanning":"N","isClosed":"N","openToPublic":"Y","locationType":"brewpub","locationTypeDisplay":"Brewpub","countryIsoCode":"US","status":"verified","statusDisplay":"Verified","createDate":"2012-07-13 00:55:49","updateDate":"2014-07-23 19:11:34","country":{"isoCode":"US","name":"UNITED STATES","displayName":"United States","isoThree":"USA","numberCode":840,"createDate":"2012-01-03 02:41:33"}},{"id":"yUxVOc","name":"Arrowhead","streetAddress":"7640 W Bell Rd","locality":"Glendale","region":"Arizona","postalCode":"85308","phone":"(623) 878-8822","website":"http://www.rockbottom.com/arrowhead","hoursOfOperation":"Sun - Wed:  11am - Midnight\r\nThurs - Sat:  11am - 1am","latitude":33.638321,"longitude":-112.223181,"isPrimary":"N","inPlanning":"N","isClosed":"N","openToPublic":"Y","locationType":"brewpub","locationTypeDisplay":"Brewpub","countryIsoCode":"US","status":"verified","statusDisplay":"Verified","createDate":"2012-10-04 14:16:33","updateDate":"2014-07-23 19:11:34","country":{"isoCode":"US","name":"UNITED STATES","displayName":"United States","isoThree":"USA","numberCode":840,"createDate":"2012-01-03 02:41:33"}},{"id":"aogJY3","name":"Desert Ridge","streetAddress":"21001 North Tatum Blvd","locality":"Phoenix","region":"Arizona","postalCode":"85050","phone":"480.513.9125","website":"http://www.rockbottom.com/desert-ridge","hoursOfOperation":"Mon - Thurs:  11am - 11pm\r\nFri - Sat:  11am - 1am\r\nSun:  11am - 11pm","latitude":33.677189,"longitude":-111.977311,"isPrimary":"N","inPlanning":"N","isClosed":"N","openToPublic":"Y","locationType":"brewpub","locationTypeDisplay":"Brewpub","countryIsoCode":"US","status":"verified","statusDisplay":"Verified","createDate":"2012-10-04 14:18:59","updateDate":"2014-07-23 19:11:34","country":{"isoCode":"US","name":"UNITED STATES","displayName":"United States","isoThree":"USA","numberCode":840,"createDate":"2012-01-03 02:41:33"}},{"id":"D8P7hU","name":"La Jolla","streetAddress":"8980 Villa La Jolla Drive","locality":"La Jolla","region":"California","postalCode":"92037","phone":"858.450.9277","website":"http://www.rockbottom.com/la-jolla","hoursOfOperation":"Mon - Thurs:  11am - midnight\r\nFri:  11am - 1am\r\nSat:  11:30am - 1am\r\nSun:  11:30am - midnight","latitude":32.871176,"longitude":-117.233853,"isPrimary":"N","inPlanning":"N","isClosed":"N","openToPublic":"Y","locationType":"brewpub","locationTypeDisplay":"Brewpub","countryIsoCode":"US","status":"verified","statusDisplay":"Verified","createDate":"2012-10-04 14:21:31","updateDate":"2014-07-23 19:11:34","country":{"isoCode":"US","name":"UNITED STATES","displayName":"United States","isoThree":"USA","numberCode":840,"createDate":"2012-01-03 02:41:33"}},{"id":"pS7vqv","name":"Long Beach","streetAddress":"One Pine Avenue","locality":"Long Beach","region":"California","postalCode":"90802","phone":"562.308.2255","website":"http://www.rockbottom.com/long-beach","latitude":33.767143,"longitude":-118.192407,"isPrimary":"N","inPlanning":"N","isClosed":"N","openToPublic":"Y","locationType":"brewpub","locationTypeDisplay":"Brewpub","countryIsoCode":"US","status":"verified","statusDisplay":"Verified","createDate":"2012-10-04 14:22:37","updateDate":"2014-07-23 19:11:34","country":{"isoCode":"US","name":"UNITED STATES","displayName":"United States","isoThree":"USA","numberCode":840,"createDate":"2012-01-03 02:41:33"}},{"id":"Rlqk0M","name":"San Diego","streetAddress":"401 G Street","locality":"San Diego","region":"California","postalCode":"92101","phone":"619.231.7000","website":"http://www.rockbottom.com/san-diego","hoursOfOperation":"Sun - Thur:  11:30am - midnight\r\nFri - Sat:  11:30am - 2am","latitude":32.712573,"longitude":-117.160962,"isPrimary":"N","inPlanning":"N","isClosed":"N","openToPublic":"Y","locationType":"brewpub","locationTypeDisplay":"Brewpub","countryIsoCode":"US","status":"verified","statusDisplay":"Verified","createDate":"2012-10-04 14:23:53","updateDate":"2014-07-23 19:11:34","country":{"isoCode":"US","name":"UNITED STATES","displayName":"United States","isoThree":"USA","numberCode":840,"createDate":"2012-01-03 02:41:33"}},{"id":"45ZY9n","name":"Colorado Springs","streetAddress":"3316 Cinema Point Drive","extendedAddress":"First and Main Town Center","locality":"Colorado Springs","region":"Colorado","postalCode":"80922","phone":"719.550.3586","website":"http://www.rockbottom.com/colorado-springs","hoursOfOperation":"Sun - Thurs:  11am - 11pm\r\nFri - Sat:  11am - Midnight","latitude":38.8971,"longitude":-104.701424,"isPrimary":"N","inPlanning":"N","isClosed":"N","openToPublic":"Y","locationType":"brewpub","locationTypeDisplay":"Brewpub","countryIsoCode":"US","status":"verified","statusDisplay":"Verified","createDate":"2012-10-04 14:25:47","updateDate":"2014-07-23 19:11:34","country":{"isoCode":"US","name":"UNITED STATES","displayName":"United States","isoThree":"USA","numberCode":840,"createDate":"2012-01-03 02:41:33"}},{"id":"gPIMJE","name":"Denver International Airport","streetAddress":"9100 N Pena Blvd","extendedAddress":"Concourse C","locality":"Denver","region":"Colorado","postalCode":"80249","phone":"303.342.6667","website":"http://www.rockbottom.com/denver-international-airport","latitude":39.839076,"longitude":-104.676111,"isPrimary":"N","inPlanning":"N","isClosed":"N","openToPublic":"Y","locationType":"brewpub","locationTypeDisplay":"Brewpub","countryIsoCode":"US","status":"verified","statusDisplay":"Verified","createDate":"2012-10-04 14:27:22","updateDate":"2014-07-23 19:11:34","country":{"isoCode":"US","name":"UNITED STATES","displayName":"United States","isoThree":"USA","numberCode":840,"createDate":"2012-01-03 02:41:33"}},{"id":"Ij1ASf","name":"Loveland Centerra Promenade","streetAddress":"6025 Sky Pond Drive","locality":"Loveland","region":"Colorado","postalCode":"80538","phone":"970.622.2077","website":"http://www.rockbottom.com/loveland-centerra-promenade","hoursOfOperation":"Sun - Thur:  11am - 11pm\r\nFri - Sat:  11am - Midnight","latitude":40.410854,"longitude":-104.989839,"isPrimary":"N","inPlanning":"N","isClosed":"N","openToPublic":"Y","locationType":"brewpub","locationTypeDisplay":"Brewpub","countryIsoCode":"US","status":"verified","statusDisplay":"Verified","createDate":"2012-10-04 14:28:30","updateDate":"2014-07-23 19:11:34","country":{"isoCode":"US","name":"UNITED STATES","displayName":"United States","isoThree":"USA","numberCode":840,"createDate":"2012-01-03 02:41:33"}},{"id":"v2jyc6","name":"Westminster Promenade","streetAddress":"10633 Westminster Blvd","extendedAddress":"Suite 900","locality":"Westminster","region":"Colorado","postalCode":"80020","phone":"720.566.0198","website":"http://www.rockbottom.com/westminster-promenade","hoursOfOperation":"Sun - Thurs:  11am - Midnight\r\nFri - Sat:  11am - 1am","latitude":39.890364,"longitude":-105.068326,"isPrimary":"N","inPlanning":"N","isClosed":"N","openToPublic":"Y","locationType":"brewpub","locationTypeDisplay":"Brewpub","countryIsoCode":"US","status":"verified","statusDisplay":"Verified","createDate":"2012-10-04 14:30:24","updateDate":"2014-07-23 19:11:34","country":{"isoCode":"US","name":"UNITED STATES","displayName":"United States","isoThree":"USA","numberCode":840,"createDate":"2012-01-03 02:41:33"}},{"id":"XMSmlX","name":"Lombard Yorktown Center","streetAddress":"94 Yorktown Center","locality":"Lombard","region":"Illinois","postalCode":"60148","phone":"630.424.1550","website":"http://www.rockbottom.com/lombard-yorktown-center","hoursOfOperation":"Sun - Thur:  11am - 1am\r\nFri - Sat:  11am - 2am","latitude":41.837313,"longitude":-88.010078,"isPrimary":"N","inPlanning":"N","isClosed":"N","openToPublic":"Y","locationType":"brewpub","locationTypeDisplay":"Brewpub","countryIsoCode":"US","status":"verified","statusDisplay":"Verified","createDate":"2012-10-04 14:31:59","updateDate":"2014-07-23 19:11:34","country":{"isoCode":"US","name":"UNITED STATES","displayName":"United States","isoThree":"USA","numberCode":840,"createDate":"2012-01-03 02:41:33"}},{"id":"9gBauy","name":"Orland Park","streetAddress":"16156 South La Grange Road","locality":"Orland Park","region":"Illinois","postalCode":"60467","phone":"708.226.0021","website":"http://www.rockbottom.com/orland-park","hoursOfOperation":"Sun - Tues:  1am - Midnight\r\nWed - Thur:  11am - 1am\r\nFri - Sat:  11am - 2am","latitude":41.59588,"longitude":-87.852676,"isPrimary":"N","inPlanning":"N","isClosed":"N","openToPublic":"Y","locationType":"brewpub","locationTypeDisplay":"Brewpub","countryIsoCode":"US","status":"verified","statusDisplay":"Verified","createDate":"2012-10-04 14:33:51","updateDate":"2014-07-23 19:11:34","country":{"isoCode":"US","name":"UNITED STATES","displayName":"United States","isoThree":"USA","numberCode":840,"createDate":"2012-01-03 02:41:33"}},{"id":"lzuP4P","name":"Warrenville","streetAddress":"28256 Diehl Road","locality":"Warrenville","region":"Illinois","postalCode":"60555","phone":"630.836.1380","website":"http://www.rockbottom.com/warrenville","hoursOfOperation":"Mon - Thur:  11am - 1am\r\nFri:  11am - 2am\r\nSat:  11:30am - 2am\r\nSun:  11:30am - Midnight","latitude":41.802305,"longitude":-88.172225,"isPrimary":"N","inPlanning":"N","isClosed":"N","openToPublic":"Y","locationType":"brewpub","locationTypeDisplay":"Brewpub","countryIsoCode":"US","status":"verified","statusDisplay":"Verified","createDate":"2012-10-04 14:35:19","updateDate":"2014-07-23 19:11:34","country":{"isoCode":"US","name":"UNITED STATES","displayName":"United States","isoThree":"USA","numberCode":840,"createDate":"2012-01-03 02:41:33"}},{"id":"OJdDDq","name":"Boston","streetAddress":"115 Stuart Street","locality":"Boston","region":"Massachusetts","postalCode":"02116","phone":"617.742.2739","website":"http://www.rockbottom.com/boston","hoursOfOperation":"Sun - Thurs:  11:30am - Midnight\r\nFri - Sat:  11:30am - 1am","latitude":42.351068,"longitude":-71.065359,"isPrimary":"N","inPlanning":"N","isClosed":"N","openToPublic":"Y","locationType":"brewpub","locationTypeDisplay":"Brewpub","countryIsoCode":"US","status":"verified","statusDisplay":"Verified","createDate":"2012-10-04 14:37:12","updateDate":"2014-07-23 19:11:34","country":{"isoCode":"US","name":"UNITED STATES","displayName":"United States","isoThree":"USA","numberCode":840,"createDate":"2012-01-03 02:41:33"}},{"id":"0dM1NH","name":"Minneapolis-St. Paul International Airport","streetAddress":"4300 Glumack Drive LT 3302","extendedAddress":"Terminal 1","locality":"St. Paul","region":"Minnesota","postalCode":"55111","phone":"612.355.4646","hoursOfOperation":"Mon - Sun: 7am - 9pm","latitude":44.886918,"longitude":-93.201273,"isPrimary":"N","inPlanning":"N","isClosed":"N","openToPublic":"Y","locationType":"brewpub","locationTypeDisplay":"Brewpub","countryIsoCode":"US","status":"verified","statusDisplay":"Verified","createDate":"2012-10-04 14:39:08","updateDate":"2014-07-23 19:11:34","country":{"isoCode":"US","name":"UNITED STATES","displayName":"United States","isoThree":"USA","numberCode":840,"createDate":"2012-01-03 02:41:33"}},{"id":"cx4pWi","name":"Omaha","streetAddress":"1101 Harney St.","locality":"Omaha","region":"Nebraska","postalCode":"68102","phone":"402.614.9333","website":"http://www.rockbottom.com/omaha-gold-medal-tap","hoursOfOperation":"Mon - Fri:  3pm - 6pm\r\nSun - Thurs:  9pm - Close\r\nFri - Sat:  10pm - Close","latitude":41.256512,"longitude":-95.930679,"isPrimary":"N","inPlanning":"N","isClosed":"N","openToPublic":"Y","locationType":"brewpub","locationTypeDisplay":"Brewpub","countryIsoCode":"US","status":"verified","statusDisplay":"Verified","createDate":"2012-10-04 14:40:52","updateDate":"2014-07-23 19:11:34","country":{"isoCode":"US","name":"UNITED STATES","displayName":"United States","isoThree":"USA","numberCode":840,"createDate":"2012-01-03 02:41:33"}},{"id":"FGndg9","name":"King of Prussia","streetAddress":"1001 King of Prussia Plaza","locality":"King of Prussia","region":"Pennsylvania","postalCode":"19406","phone":"610.230.2739","website":"http://www.rockbottom.com/king-of-prussia","hoursOfOperation":"Sun - Wed:  11am - Midnight\r\nThurs - Sat:  11am - 1am","latitude":40.087349,"longitude":-75.389359,"isPrimary":"N","inPlanning":"N","isClosed":"N","openToPublic":"Y","locationType":"brewpub","locationTypeDisplay":"Brewpub","countryIsoCode":"US","status":"verified","statusDisplay":"Verified","createDate":"2012-10-04 14:42:29","updateDate":"2014-07-23 19:11:34","country":{"isoCode":"US","name":"UNITED STATES","displayName":"United States","isoThree":"USA","numberCode":840,"createDate":"2012-01-03 02:41:33"}},{"id":"raWRpa","name":"PIttsburgh","streetAddress":"171 Bridge Street","locality":"Homestead","region":"Pennsylvania","postalCode":"15120","phone":"412.462.2739","website":"http://www.rockbottom.com/pittsburgh","hoursOfOperation":"Mon - Sat:  11am - 2am\r\nSun:  11am - Midnight","latitude":40.409325,"longitude":-79.914842,"isPrimary":"N","inPlanning":"N","isClosed":"N","openToPublic":"Y","locationType":"brewpub","locationTypeDisplay":"Brewpub","countryIsoCode":"US","status":"verified","statusDisplay":"Verified","createDate":"2012-10-04 14:44:06","updateDate":"2014-07-23 19:11:34","country":{"isoCode":"US","name":"UNITED STATES","displayName":"United States","isoThree":"USA","numberCode":840,"createDate":"2012-01-03 02:41:33"}},{"id":"TuFFz1","name":"Arlington","streetAddress":"4238 Wilson Boulevard","extendedAddress":"Suite 1256","locality":"Arlington","region":"Virginia","postalCode":"22203","phone":"703.516.7688","website":"http://www.rockbottom.com/arlington","hoursOfOperation":"Sun - Thur:  11am - 1am\r\nFri - Sat:  11am - 2am","latitude":38.880012,"longitude":-77.111303,"isPrimary":"N","inPlanning":"N","isClosed":"N","openToPublic":"Y","locationType":"brewpub","locationTypeDisplay":"Brewpub","countryIsoCode":"US","status":"verified","statusDisplay":"Verified","createDate":"2012-10-04 14:45:29","updateDate":"2014-07-23 19:11:34","country":{"isoCode":"US","name":"UNITED STATES","displayName":"United States","isoThree":"USA","numberCode":840,"createDate":"2012-01-03 02:41:33"}},{"id":"6Dy48S","name":"Bellevue","streetAddress":"550 106th Avenue NE","extendedAddress":"Suite 103","locality":"Bellevue","region":"Washington","postalCode":"98004","phone":"425.462.9300","website":"http://www.rockbottom.com/bellevue","hoursOfOperation":"Mon - Thurs:  11am - midnight\r\nFri:  11am - 1am\r\nSat:  11:30am - 1am\r\nSun:  11:30am - midnight","latitude":47.615039,"longitude":-122.198919,"isPrimary":"N","inPlanning":"N","isClosed":"N","openToPublic":"Y","locationType":"brewpub","locationTypeDisplay":"Brewpub","countryIsoCode":"US","status":"verified","statusDisplay":"Verified","createDate":"2012-10-04 14:46:58","updateDate":"2014-07-23 19:11:34","country":{"isoCode":"US","name":"UNITED STATES","displayName":"United States","isoThree":"USA","numberCode":840,"createDate":"2012-01-03 02:41:33"}},{"id":"iXgsHt","name":"Seattle","streetAddress":"1333 Fifth Avenue","locality":"Seattle","region":"Washington","postalCode":"98101","phone":"206.623.3070","website":"http://www.rockbottom.com/seattle","hoursOfOperation":"Mon - Thurs:  11am - 11pm\r\nFri - Sat:  11am - 1am\r\nSun:  11am - 11:30pm","latitude":47.608962,"longitude":-122.334067,"isPrimary":"N","inPlanning":"N","isClosed":"N","openToPublic":"Y","locationType":"brewpub","locationTypeDisplay":"Brewpub","countryIsoCode":"US","status":"verified","statusDisplay":"Verified","createDate":"2012-10-04 14:48:04","updateDate":"2014-07-23 19:11:34","country":{"isoCode":"US","name":"UNITED STATES","displayName":"United States","isoThree":"USA","numberCode":840,"createDate":"2012-01-03 02:41:33"}},{"id":"38PkU3","name":"Main Brewery","streetAddress":"48 Sanford Drive","locality":"Gorham","region":"Maine","postalCode":"04038","phone":"207-856-2537","hoursOfOperation":"Mon - Sun: 11:00 am - 1:00 am","latitude":43.679212,"longitude":-70.396424,"isPrimary":"Y","inPlanning":"N","isClosed":"N","openToPublic":"Y","locationType":"brewpub","locationTypeDisplay":"Brewpub","countryIsoCode":"US","yearOpened":"1998","status":"verified","statusDisplay":"Verified","createDate":"2012-01-03 02:42:08","updateDate":"2014-07-23 19:11:34","country":{"isoCode":"US","name":"UNITED STATES","displayName":"United States","isoThree":"USA","numberCode":840,"createDate":"2012-01-03 02:41:33"}},{"id":"A0hPVC","name":"Main Cidery","streetAddress":"Zone Artisanale Lan Zelai","extendedAddress":"Sagarnotegi bidea","region":"ASCAIN","postalCode":"64310","phone":"+33 (0)5 59 54 62 34","website":"http://www.txopinondo.com/","latitude":43.345172,"longitude":-1.621327,"isPrimary":"Y","inPlanning":"N","isClosed":"N","openToPublic":"Y","locationType":"micro","locationTypeDisplay":"Micro Brewery","countryIsoCode":"FR","status":"verified","statusDisplay":"Verified","createDate":"2014-07-16 11:56:13","updateDate":"2014-07-23 19:11:34","country":{"isoCode":"FR","name":"FRANCE","displayName":"France","isoThree":"FRA","numberCode":250,"createDate":"2012-01-03 02:41:33"}},{"id":"cJF1Oj","name":"Main Brewery","streetAddress":"106 South Street","locality":"Charlottesville","region":"Virginia","postalCode":"22902","phone":"434-293-6550","website":"http://www.southstreetbrewery.com/","hoursOfOperation":"Mon - Thu:\t 4:30 pm - 2:00 am\r\nFri - Sat: 11:30 am - 2:00 am\r\nSun:\t11:30 am - 8:00 pm","latitude":38.029328,"longitude":-78.482705,"isPrimary":"Y","inPlanning":"N","isClosed":"N","openToPublic":"Y","locationType":"brewpub","locationTypeDisplay":"Brewpub","countryIsoCode":"US","yearOpened":"1998","status":"verified","statusDisplay":"Verified","createDate":"2012-01-03 02:42:08","updateDate":"2014-07-23 19:11:34","country":{"isoCode":"US","name":"UNITED STATES","displayName":"United States","isoThree":"USA","numberCode":840,"createDate":"2012-01-03 02:41:33"}},{"id":"IAuDzy","name":"Main Brewery","streetAddress":"Dorfstraße 53","locality":"Schlepzig","region":"Brandenburg","postalCode":"15910","latitude":52.07603,"longitude":13.89486,"isPrimary":"N","inPlanning":"N","isClosed":"N","openToPublic":"Y","locationType":"micro","locationTypeDisplay":"Micro Brewery","countryIsoCode":"DE","status":"verified","statusDisplay":"Verified","createDate":"2012-08-12 14:45:59","updateDate":"2014-07-23 19:11:34","country":{"isoCode":"DE","name":"GERMANY","displayName":"Germany","isoThree":"DEU","numberCode":276,"createDate":"2012-01-03 02:41:33"}},{"id":"ATZH3J","name":"Main Brewery","streetAddress":"2054 Piedmont Highway","locality":"Greenville","region":"South Carolina","postalCode":"29605","phone":"864-605-1166","website":"http://www.thomascreekbeer.com/","hoursOfOperation":"Monday – Friday 8:00 AM - 6:00 PM\r\nSaturday 10:00 AM - 2:00 PM","latitude":34.7964746,"longitude":-82.4244992,"isPrimary":"Y","inPlanning":"N","isClosed":"N","openToPublic":"Y","locationType":"micro","locationTypeDisplay":"Micro Brewery","countryIsoCode":"US","yearOpened":"1998","status":"verified","statusDisplay":"Verified","createDate":"2012-01-03 02:42:10","updateDate":"2014-07-23 19:11:34","country":{"isoCode":"US","name":"UNITED STATES","displayName":"United States","isoThree":"USA","numberCode":840,"createDate":"2012-01-03 02:41:33"}},{"id":"8eUkcP","name":"Main Brewery","streetAddress":"64 Hobbs Street","locality":"Conway","region":"New Hampshire","postalCode":"03818","phone":"603-447-5400","website":"http://tuckermanbrewing.com/","hoursOfOperation":"Facility tours every Saturday at 3:00pm.","latitude":43.9752334,"longitude":-71.1295899,"isPrimary":"Y","inPlanning":"N","isClosed":"N","openToPublic":"Y","locationType":"micro","locationTypeDisplay":"Micro Brewery","countryIsoCode":"US","status":"verified","statusDisplay":"Verified","createDate":"2012-01-03 02:42:11","updateDate":"2014-07-23 19:11:34","country":{"isoCode":"US","name":"UNITED STATES","displayName":"United States","isoThree":"USA","numberCode":840,"createDate":"2012-01-03 02:41:33"}},{"id":"esM0Nc","name":"Main Brewery","streetAddress":"350 West 11th Street","locality":"Bloomington","region":"Indiana","postalCode":"47404","phone":"812-336-2337","website":"http://uplandbeer.com/","hoursOfOperation":"Upland offers free tours from 3-5 pm every Saturday and Sunday.\r\n\r\nBrewpub:\r\npen 11:00am until midnight Monday through Thursday\r\nOpen 11:00am until 1:00am Friday and Saturday\r\nOpen noon until midnight Sunday","latitude":39.1732971,"longitude":-86.5368625,"isPrimary":"Y","inPlanning":"N","isClosed":"N","openToPublic":"Y","locationType":"micro","locationTypeDisplay":"Micro Brewery","countryIsoCode":"US","yearOpened":"1998","status":"verified","statusDisplay":"Verified","createDate":"2012-01-03 02:42:11","updateDate":"2014-07-23 19:11:34","country":{"isoCode":"US","name":"UNITED STATES","displayName":"United States","isoThree":"USA","numberCode":840,"createDate":"2012-01-03 02:41:33"}},{"id":"78kDjG","name":"Main Brewery","streetAddress":"4057 Erie St.","locality":"Willoughby","region":"Ohio","postalCode":"44094","phone":"440-975-0202","website":"http://willoughbybrewing.com/","hoursOfOperation":"Mon - Wed: 11:00 am - 11:00 pm\r\nThu - Sat:\t11:00 am - 2:00 am\r\nSun:\t11:00 am - 11:00 pm","latitude":41.641386,"longitude":-81.406621,"isPrimary":"Y","inPlanning":"N","isClosed":"N","openToPublic":"Y","locationType":"micro","locationTypeDisplay":"Micro Brewery","countryIsoCode":"US","status":"verified","statusDisplay":"Verified","createDate":"2012-01-03 02:42:13","updateDate":"2014-07-23 19:11:34","country":{"isoCode":"US","name":"UNITED STATES","displayName":"United States","isoThree":"USA","numberCode":840,"createDate":"2012-01-03 02:41:33"}}]