[{"id":"iiuM5Q","name":"Main Brewery","streetAddress":"33 Canada Street","locality":"Lake George","region":"New York","postalCode":"12845","phone":"518-668-0002","website":"http://www.adkpub.com/","hoursOfOperation":"Fri:  4:00pm - 9:00pm\nSat:  12:00pm - 9:00pm\nSun:  12:00pm - 9:00pm\n\n","latitude":43.418521,"longitude":-73.714111,"isPrimary":"Y","inPlanning":"N","isClosed":"N","openToPublic":"Y","locationType":"micro","locationTypeDisplay":"Micro Brewery","countryIsoCode":"US","status":"verified","statusDisplay":"Verified","createDate":"2012-01-03 02:41:43","updateDate":"2014-07-23 19:38:54","country":{"isoCode":"US","name":"UNITED STATES","displayName":"United States","isoThree":"USA","numberCode":840,"createDate":"2012-01-03 02:41:33"}},{"id":"YMFljs","name":"Main Brewery","streetAddress":"401 Cross Street","locality":"Lexington","region":"Kentucky","postalCode":"40508","phone":"859-887-3406","website":"http://www.kentuckyale.com/","hoursOfOperation":"Scheduled Tour Hours:\r\nMonday - Friday at 3:00pm\r\nSaturday at 1:00pm","latitude":38.049863,"longitude":-84.5095709,"isPrimary":"Y","inPlanning":"N","isClosed":"N","openToPublic":"Y","locationType":"micro","locationTypeDisplay":"Micro Brewery","countryIsoCode":"US","yearOpened":"1999","status":"verified","statusDisplay":"Verified","createDate":"2012-01-03 02:41:44","updateDate":"2014-09-29 20:33:25","country":{"isoCode":"US","name":"UNITED STATES","displayName":"United States","isoThree":"USA","numberCode":840,"createDate":"2012-01-03 02:41:33"}},{"id":"1d90Lc","name":"Main Brewpub","streetAddress":"320 South 2nd St.","locality":"Laramie","region":"Wyoming","postalCode":"82070","phone":"307-721-4031","website":"http://www.Altitudechophouse.com/","hoursOfOperation":"Mon:  11:00am - 10:00pm\nTue:  11:00am - 10:00pm\nWed:  11:00am - 10:00pm\nThu:  11:00am - 10:00pm\nFri:  11:00am - 10:00pm\nSat:  11:00am - 10:00pm\n\nMon - Sat: 11:00 am - 10:00 pm","latitude":41.3103382,"longitude":-105.595231,"isPrimary":"Y","inPlanning":"N","isClosed":"N","openToPublic":"Y","locationType":"brewpub","locationTypeDisplay":"Brewpub","countryIsoCode":"US","yearOpened":"1999","status":"verified","statusDisplay":"Verified","createDate":"2012-01-03 02:41:44","updateDate":"2014-08-25 19:12:39","country":{"isoCode":"US","name":"UNITED STATES","displayName":"United States","isoThree":"USA","numberCode":840,"createDate":"2012-01-03 02:41:33"}},{"id":"8kDcHh","name":"Main Brewery","streetAddress":"Stephanienstrasse 35-43","locality":"Karlsruhe","region":"Baden-Württemberg","postalCode":"76133","latitude":49.011784,"longitude":8.394177,"isPrimary":"Y","inPlanning":"N","isClosed":"N","openToPublic":"Y","locationType":"micro","locationTypeDisplay":"Micro Brewery","countryIsoCode":"DE","status":"verified","statusDisplay":"Verified","createDate":"2012-08-13 10:58:21","updateDate":"2014-07-23 19:11:34","country":{"isoCode":"DE","name":"GERMANY","displayName":"Germany","isoThree":"DEU","numberCode":276,"createDate":"2012-01-03 02:41:33"}},{"id":"A5ES81","name":"Main Brewery","streetAddress":"Z.I. Baragiano Balvano (PZ)","postalCode":"85050","latitude":40.6799615,"longitude":15.5932682,"isPrimary":"Y","inPlanning":"N","isClosed":"N","openToPublic":"Y","locationType":"micro","locationTypeDisplay":"Micro Brewery","countryIsoCode":"IT","status":"verified","statusDisplay":"Verified","createDate":"2014-03-03 11:55:56","updateDate":"2014-07-23 19:11:34","country":{"isoCode":"IT","name":"ITALY","displayName":"Italy","isoThree":"ITA","numberCode":380,"createDate":"2012-01-03 02:41:33"}},{"id":"ckRH9f","name":"Main Brewery","streetAddress":"75 Horner Avenue","extendedAddress":"Unit 1","locality":"Etobicoke","region":"Ontario","postalCode":"M8Z 4X5","phone":"416-252-2739","website":"http://www.blackoakbeer.com/","hoursOfOperation":"Monday – 11 am to 5 pm\r\nTuesday through Friday – 10 am to 5 pm\r\nSaturday – 10 am to 3 pm","latitude":43.6142658,"longitude":-79.5172947,"isPrimary":"Y","inPlanning":"N","isClosed":"N","openToPublic":"Y","locationType":"micro","locationTypeDisplay":"Micro Brewery","countryIsoCode":"CA","yearOpened":"1999","status":"verified","statusDisplay":"Verified","createDate":"2012-01-03 02:41:46","updateDate":"2014-07-23 19:11:34","country":{"isoCode":"CA","name":"CANADA","displayName":"Canada","isoThree":"CAN","numberCode":124,"createDate":"2012-01-03 02:41:33"}},{"id":"Ibch0C","name":"Main Brewery","streetAddress":"Neubranslebener Weg 15","region":"Oschersleben","postalCode":"D-39387","latitude":52.037992,"longitude":11.225553,"isPrimary":"Y","inPlanning":"N","isClosed":"N","openToPublic":"Y","locationType":"micro","locationTypeDisplay":"Micro Brewery","countryIsoCode":"DE","status":"verified","statusDisplay":"Verified","createDate":"2012-08-15 17:54:06","updateDate":"2014-07-23 19:11:34","country":{"isoCode":"DE","name":"GERMANY","displayName":"Germany","isoThree":"DEU","numberCode":276,"createDate":"2012-01-03 02:41:33"}},{"id":"xHovlT","name":"Main Brewery","streetAddress":"8, rue de la Brasserie","locality":"Amos","region":"Quebec","postalCode":"J9T 3A2","phone":"819-732-6519","latitude":48.57574,"longitude":-78.115981,"isPrimary":"Y","inPlanning":"N","isClosed":"N","openToPublic":"Y","locationType":"micro","locationTypeDisplay":"Micro Brewery","countryIsoCode":"CA","yearOpened":"1999","status":"verified","statusDisplay":"Verified","createDate":"2012-01-03 02:41:47","updateDate":"2014-07-23 19:11:34","country":{"isoCode":"CA","name":"CANADA","displayName":"Canada","isoThree":"CAN","numberCode":124,"createDate":"2012-01-03 02:41:33"}},{"id":"S6MYaa","name":"Main Brewery","streetAddress":"270 rue des Fusillés","region":"Villeneuve d'Ascq","postalCode":"59650","phone":"00 33 3 20 41 58 48","website":"http://www.moulinsdascq.fr/","latitude":50.6316211,"longitude":3.1533357,"isPrimary":"Y","inPlanning":"N","isClosed":"N","openToPublic":"Y","locationType":"micro","locationTypeDisplay":"Micro Brewery","countryIsoCode":"FR","status":"verified","statusDisplay":"Verified","createDate":"2014-07-15 11:22:51","updateDate":"2014-07-23 19:11:34","country":{"isoCode":"FR","name":"FRANCE","displayName":"France","isoThree":"FRA","numberCode":250,"createDate":"2012-01-03 02:41:33"}},{"id":"D5Xgrq","name":"Main Brewpub","streetAddress":"Markt 11","locality":"Eutin","region":"Schlewsig-Holstein","postalCode":"23701","latitude":54.136689,"longitude":10.616788,"isPrimary":"N","inPlanning":"N","isClosed":"N","openToPublic":"Y","locationType":"brewpub","locationTypeDisplay":"Brewpub","countryIsoCode":"DE","status":"verified","statusDisplay":"Verified","createDate":"2012-08-12 14:45:23","updateDate":"2014-07-23 19:11:34","country":{"isoCode":"DE","name":"GERMANY","displayName":"Germany","isoThree":"DEU","numberCode":276,"createDate":"2012-01-03 02:41:33"}},{"id":"GLphZ4","name":"Main Brewpub","streetAddress":"Markt 6","locality":"Lutherstadt Wittenberg","region":"Sachsen-Anhalt","latitude":51.866149,"longitude":12.643824,"isPrimary":"N","inPlanning":"N","isClosed":"N","openToPublic":"Y","locationType":"brewpub","locationTypeDisplay":"Brewpub","countryIsoCode":"DE","status":"verified","statusDisplay":"Verified","createDate":"2012-08-12 14:46:47","updateDate":"2014-07-23 19:11:34","country":{"isoCode":"DE","name":"GERMANY","displayName":"Germany","isoThree":"DEU","numberCode":276,"createDate":"2012-01-03 02:41:33"}},{"id":"02rQpe","name":"Main Brewery","streetAddress":"Stationsstraat 89","locality":"Sijsele","postalCode":"8340","phone":"+32 (0)50 35 34 94","website":"http://www.viven.be/","latitude":51.2078041,"longitude":3.3173741,"isPrimary":"Y","inPlanning":"N","isClosed":"N","openToPublic":"Y","locationType":"micro","locationTypeDisplay":"Micro Brewery","countryIsoCode":"BE","yearOpened":"1999","status":"verified","statusDisplay":"Verified","createDate":"2012-01-03 02:41:49","updateDate":"2014-07-23 19:11:34","country":{"isoCode":"BE","name":"BELGIUM","displayName":"Belgium","isoThree":"BEL","numberCode":56,"createDate":"2012-01-03 02:41:33"}},{"id":"wtxtat","name":"Main Brewery","streetAddress":"212 South Green Street","locality":"Morganton","region":"North Carolina","postalCode":"28655","phone":"(828) 430-6883","website":"http://catawbabrewingco.com","hoursOfOperation":"Wed:  5:00pm - 10:00pm\nThu:  5:00pm - 10:00pm\nFri:  5:00pm - 10:00pm\nSat:  2:00pm - 10:00pm\n\nWed - Fri: 5:00 pm - 10:00 pm\r\nSat: 2:00 pm - 10:00 pm","latitude":35.744683,"longitude":-81.685705,"isPrimary":"Y","inPlanning":"N","isClosed":"N","openToPublic":"Y","locationType":"micro","locationTypeDisplay":"Micro Brewery","countryIsoCode":"US","yearOpened":"1999","status":"verified","statusDisplay":"Verified","createDate":"2012-01-03 02:41:50","updateDate":"2014-09-29 20:12:11","country":{"isoCode":"US","name":"UNITED STATES","displayName":"United States","isoThree":"USA","numberCode":840,"createDate":"2012-01-03 02:41:33"}},{"id":"cgcGob","name":"Asheville Brewery","streetAddress":"2 Fairview Rd","locality":"Asheville, NC ‎","region":"North Carolina","postalCode":"28803","website":"http://www.catawbavalleybrewingcompany.com/","isPrimary":"N","inPlanning":"Y","isClosed":"N","openToPublic":"Y","locationType":"micro","locationTypeDisplay":"Micro Brewery","countryIsoCode":"US","status":"verified","statusDisplay":"Verified","createDate":"2013-05-28 00:14:08","updateDate":"2014-07-23 19:11:34","country":{"isoCode":"US","name":"UNITED STATES","displayName":"United States","isoThree":"USA","numberCode":840,"createDate":"2012-01-03 02:41:33"}},{"id":"NXD6av","name":"Main Brewery","streetAddress":"2201 South Fort Apache Road","locality":"Las Vegas","region":"Nevada","postalCode":"89117","phone":"702-254-3333","website":"http://www.chicagobrewingcolv.com/","latitude":36.1474961,"longitude":-115.2980652,"isPrimary":"Y","inPlanning":"N","isClosed":"N","openToPublic":"Y","locationType":"micro","locationTypeDisplay":"Micro Brewery","countryIsoCode":"US","status":"verified","statusDisplay":"Verified","createDate":"2012-01-03 02:41:50","updateDate":"2014-11-14 18:57:39","country":{"isoCode":"US","name":"UNITED STATES","displayName":"United States","isoThree":"USA","numberCode":840,"createDate":"2012-01-03 02:41:33"}},{"id":"47iwhg","name":"Main Brewery","streetAddress":"875 Beach Boulevard","extendedAddress":"Beau Rivage Casino","locality":"Biloxi","region":"Mississippi","postalCode":"39530","latitude":30.393029,"longitude":-88.892298,"isPrimary":"Y","inPlanning":"N","isClosed":"Y","openToPublic":"Y","locationType":"micro","locationTypeDisplay":"Micro Brewery","countryIsoCode":"US","yearOpened":"1999","status":"verified","statusDisplay":"Verified","createDate":"2012-01-03 02:41:51","updateDate":"2014-07-23 19:11:34","country":{"isoCode":"US","name":"UNITED STATES","displayName":"United States","isoThree":"USA","numberCode":840,"createDate":"2012-01-03 02:41:33"}},{"id":"BqjVRW","name":"Main Brewery","streetAddress":"38744 North Highway 59","locality":"Lake Villa","region":"Illinois","postalCode":"60046","latitude":42.4266378,"longitude":-88.1190155,"isPrimary":"Y","inPlanning":"N","isClosed":"Y","openToPublic":"Y","locationType":"micro","locationTypeDisplay":"Micro Brewery","countryIsoCode":"US","yearOpened":"1999","status":"verified","statusDisplay":"Verified","createDate":"2012-01-03 02:41:51","updateDate":"2014-07-23 19:11:34","country":{"isoCode":"US","name":"UNITED STATES","displayName":"United States","isoThree":"USA","numberCode":840,"createDate":"2012-01-03 02:41:33"}},{"id":"oz1oll","name":"Main Brewery","streetAddress":"307 Oliphant Lane","locality":"Middletown","region":"Rhode Island","postalCode":"02842","phone":"401-849-5232","website":"http://www.newportstorm.com/","latitude":41.5369904,"longitude":-71.2796012,"isPrimary":"Y","inPlanning":"N","isClosed":"N","openToPublic":"Y","locationType":"micro","locationTypeDisplay":"Micro Brewery","countryIsoCode":"US","yearOpened":"1999","status":"verified","statusDisplay":"Verified","createDate":"2012-01-03 02:41:51","updateDate":"2014-09-26 13:18:19","country":{"isoCode":"US","name":"UNITED STATES","displayName":"United States","isoThree":"USA","numberCode":840,"createDate":"2012-01-03 02:41:33"}},{"id":"jhjlYL","name":"Main Brewery","streetAddress":"6000 Maribel Road","locality":"Denmark","region":"Wisconsin","postalCode":"54208","latitude":44.351281,"longitude":-87.8069529,"isPrimary":"Y","inPlanning":"N","isClosed":"Y","openToPublic":"Y","locationType":"micro","locationTypeDisplay":"Micro Brewery","countryIsoCode":"US","yearOpened":"1999","status":"verified","statusDisplay":"Verified","createDate":"2012-01-03 02:41:52","updateDate":"2014-07-23 19:11:34","country":{"isoCode":"US","name":"UNITED STATES","displayName":"United States","isoThree":"USA","numberCode":840,"createDate":"2012-01-03 02:41:33"}},{"id":"OTB5EC","name":"Main Brewery","streetAddress":"161 N. High Street","locality":"Columbus","region":"Ohio","postalCode":"43215","phone":"614-679-2337","website":"http://www.elevatorbrewing.com/","hoursOfOperation":"M - W\t11am - 12am\t10pm\r\nT\t11am - 1am\t10pm\r\nF\t11am - 2am\t11pm\r\nSat\t5pm - 2am\t11pm\r\nSun\tClosed","latitude":39.965682,"longitude":-83.001838,"isPrimary":"Y","inPlanning":"N","isClosed":"N","openToPublic":"Y","locationType":"micro","locationTypeDisplay":"Micro Brewery","countryIsoCode":"US","yearOpened":"1999","status":"verified","statusDisplay":"Verified","createDate":"2012-01-03 02:41:53","updateDate":"2014-07-23 19:11:34","country":{"isoCode":"US","name":"UNITED STATES","displayName":"United States","isoThree":"USA","numberCode":840,"createDate":"2012-01-03 02:41:33"}},{"id":"WCBdy2","name":"Emmett's Tavern & Brewing Co.","streetAddress":"128 West Main Street","locality":"West Dundee","region":"Illinois","postalCode":"60118","phone":"847-428-4500","website":"http://www.emmettstavern.com/","hoursOfOperation":"Monday-Thursday: 11:30am - 11:00pm\r\nFriday/Saturday: 11:30am - 12:30am\r\nSunday: 11:30am - 9:00pm","latitude":42.0982603,"longitude":-88.2784071,"isPrimary":"N","inPlanning":"N","isClosed":"N","openToPublic":"Y","locationType":"brewpub","locationTypeDisplay":"Brewpub","countryIsoCode":"US","status":"verified","statusDisplay":"Verified","createDate":"2012-01-03 02:41:53","updateDate":"2014-09-11 10:35:43","country":{"isoCode":"US","name":"UNITED STATES","displayName":"United States","isoThree":"USA","numberCode":840,"createDate":"2012-01-03 02:41:33"}},{"id":"jln1QS","name":"Emmett's Ale House","streetAddress":"5200 Main Street","locality":"Downers Grove","region":"Illinois","postalCode":"60515","phone":"630-434-8500","website":"http://www.emmettstavern.com/","hoursOfOperation":"Monday - Wednesday 11:00am - 12:00am\r\nThursday - Saturday 11:00am - 1:00am\r\nSunday: 12:00pm - 10:00pm","latitude":41.792574,"longitude":-88.010838,"isPrimary":"N","inPlanning":"N","isClosed":"N","openToPublic":"N","locationType":"brewpub","locationTypeDisplay":"Brewpub","countryIsoCode":"US","status":"verified","statusDisplay":"Verified","createDate":"2012-01-03 02:42:15","updateDate":"2014-09-11 10:27:11","country":{"isoCode":"US","name":"UNITED STATES","displayName":"United States","isoThree":"USA","numberCode":840,"createDate":"2012-01-03 02:41:33"}},{"id":"T2KXDr","name":"Emmett's Tavern & Brewing Co.","streetAddress":"110 N. Brockway St.","locality":"Palatine","region":"Illinois","postalCode":"60067","latitude":42.1128507,"longitude":-88.0464561,"isPrimary":"Y","inPlanning":"N","isClosed":"N","openToPublic":"Y","locationType":"micro","locationTypeDisplay":"Micro Brewery","countryIsoCode":"US","status":"verified","statusDisplay":"Verified","createDate":"2014-09-10 17:28:46","updateDate":"2014-09-11 10:35:43","country":{"isoCode":"US","name":"UNITED STATES","displayName":"United States","isoThree":"USA","numberCode":840,"createDate":"2012-01-03 02:41:33"}},{"id":"mh5Qmk","name":"Main Brewery","streetAddress":"Buchstr. 5","locality":"Jockgrim","postalCode":"76751","latitude":49.091274,"longitude":8.271557,"isPrimary":"Y","inPlanning":"N","isClosed":"N","openToPublic":"Y","locationType":"micro","locationTypeDisplay":"Micro Brewery","countryIsoCode":"DE","status":"verified","statusDisplay":"Verified","createDate":"2012-08-16 12:36:05","updateDate":"2014-07-23 19:11:34","country":{"isoCode":"DE","name":"GERMANY","displayName":"Germany","isoThree":"DEU","numberCode":276,"createDate":"2012-01-03 02:41:33"}},{"id":"Trrbu5","name":"Main Brewery","streetAddress":"46 Durham Road","locality":"Freeport","region":"Maine","postalCode":"04032","phone":"207-767-2577","latitude":43.870648,"longitude":-70.107544,"isPrimary":"Y","inPlanning":"N","isClosed":"N","openToPublic":"Y","locationType":"micro","locationTypeDisplay":"Micro Brewery","countryIsoCode":"US","status":"verified","statusDisplay":"Verified","createDate":"2012-01-03 02:41:55","updateDate":"2014-07-23 19:11:34","country":{"isoCode":"US","name":"UNITED STATES","displayName":"United States","isoThree":"USA","numberCode":840,"createDate":"2012-01-03 02:41:33"}},{"id":"PuOZUW","name":"Main Brewery","streetAddress":"272 W. Main St.","locality":"Kutztown","region":"Pennsylvania","postalCode":"19530","phone":"610-683-9600","website":"http://kutztowntavern.com/golden.html","latitude":40.5161762,"longitude":-75.7783332,"isPrimary":"Y","inPlanning":"N","isClosed":"N","openToPublic":"Y","locationType":"brewpub","locationTypeDisplay":"Brewpub","countryIsoCode":"US","status":"verified","statusDisplay":"Verified","createDate":"2012-01-03 02:41:55","updateDate":"2014-07-23 19:11:34","country":{"isoCode":"US","name":"UNITED STATES","displayName":"United States","isoThree":"USA","numberCode":840,"createDate":"2012-01-03 02:41:33"}},{"id":"Tfw5on","name":"Main Brewery","streetAddress":"White Fang Drive","locality":"Haines","region":"Alaska","postalCode":"99827","phone":"907-766-3823","website":"http://www.hainesbrewing.com/","hoursOfOperation":"1pm - 6pm : Monday-Saturday","latitude":59.23483,"longitude":-135.443049,"isPrimary":"Y","inPlanning":"N","isClosed":"N","openToPublic":"Y","locationType":"micro","locationTypeDisplay":"Micro Brewery","countryIsoCode":"US","status":"verified","statusDisplay":"Verified","createDate":"2012-01-03 02:41:56","updateDate":"2014-07-23 19:11:34","country":{"isoCode":"US","name":"UNITED STATES","displayName":"United States","isoThree":"USA","numberCode":840,"createDate":"2012-01-03 02:41:33"}},{"id":"XJbLvt","name":"Main Brewery","streetAddress":"Alter Pfarrweg 1","locality":"Riesa","region":"Sachsen","postalCode":"D-01587","latitude":51.300642,"longitude":13.267943,"isPrimary":"N","inPlanning":"N","isClosed":"N","openToPublic":"Y","locationType":"micro","locationTypeDisplay":"Micro Brewery","countryIsoCode":"DE","status":"verified","statusDisplay":"Verified","createDate":"2012-08-12 14:45:28","updateDate":"2014-07-23 19:11:34","country":{"isoCode":"DE","name":"GERMANY","displayName":"Germany","isoThree":"DEU","numberCode":276,"createDate":"2012-01-03 02:41:33"}},{"id":"XAXGgF","name":"Main Brewery","streetAddress":"79 High Street","locality":"Woodend","region":"Victoria","postalCode":"3442","phone":"+61 3 5427 2510","website":"http://www.holgatebrewhouse.com/","hoursOfOperation":"12:00noon till late 7 days\r\n\r\nLunch & Dinner 7 days with all-day meals Sat., Sun. & Public Holidays","latitude":-37.355564,"longitude":144.528305,"isPrimary":"Y","inPlanning":"N","isClosed":"N","openToPublic":"Y","locationType":"micro","locationTypeDisplay":"Micro Brewery","countryIsoCode":"AU","status":"verified","statusDisplay":"Verified","createDate":"2012-11-06 11:41:52","updateDate":"2014-07-23 19:11:34","country":{"isoCode":"AU","name":"AUSTRALIA","displayName":"Australia","isoThree":"AUS","numberCode":36,"createDate":"2012-01-03 02:41:33"}},{"id":"voS2xG","name":"Main Brewery","streetAddress":"Kehrstraße 1","locality":"Halberstadt","region":"Sachsen-Anhalt","postalCode":"38820","latitude":51.895342,"longitude":11.049883,"isPrimary":"N","inPlanning":"N","isClosed":"N","openToPublic":"Y","locationType":"micro","locationTypeDisplay":"Micro Brewery","countryIsoCode":"DE","status":"verified","statusDisplay":"Verified","createDate":"2012-08-12 14:45:47","updateDate":"2014-07-23 19:11:34","country":{"isoCode":"DE","name":"GERMANY","displayName":"Germany","isoThree":"DEU","numberCode":276,"createDate":"2012-01-03 02:41:33"}},{"id":"x7nH0P","name":"Main Brewery","streetAddress":"55 Benara Road","locality":"Caversham Perth","region":"Western Australia","postalCode":"6055","phone":"93774400","website":"http://ironbarkbrewery.com.au/","hoursOfOperation":"Wed:  10:30am - 6:00pm\nThu:  10:30am - 6:00pm\nFri:  10:30am - 6:00pm\nSat:  10:30am - 6:00pm\nSun:  10:30am - 6:00pm\n\n","latitude":-31.878086,"longitude":115.968932,"isPrimary":"Y","inPlanning":"N","isClosed":"N","openToPublic":"Y","locationType":"micro","locationTypeDisplay":"Micro Brewery","countryIsoCode":"AU","yearOpened":"1999","status":"verified","statusDisplay":"Verified","createDate":"2014-09-21 14:55:27","updateDate":"2014-09-21 14:55:27","country":{"isoCode":"AU","name":"AUSTRALIA","displayName":"Australia","isoThree":"AUS","numberCode":36,"createDate":"2012-01-03 02:41:33"}},{"id":"Bt79WS","name":"Main Brewery","streetAddress":"Eisenbahnstraße 6","locality":"Seligenstadt","region":"Hessen","postalCode":"D-63500","latitude":50.034874,"longitude":8.979335,"isPrimary":"N","inPlanning":"N","isClosed":"N","openToPublic":"Y","locationType":"micro","locationTypeDisplay":"Micro Brewery","countryIsoCode":"DE","status":"verified","statusDisplay":"Verified","createDate":"2012-08-12 14:47:59","updateDate":"2014-07-23 19:11:34","country":{"isoCode":"DE","name":"GERMANY","displayName":"Germany","isoThree":"DEU","numberCode":276,"createDate":"2012-01-03 02:41:33"}},{"id":"nVevxY","name":"Main Brewery","streetAddress":"Dircksenstr. 143","locality":"Berlin","region":"Berlin","postalCode":"10178","latitude":52.523413,"longitude":13.404643,"isPrimary":"Y","inPlanning":"N","isClosed":"N","openToPublic":"Y","locationType":"micro","locationTypeDisplay":"Micro Brewery","countryIsoCode":"DE","status":"verified","statusDisplay":"Verified","createDate":"2012-08-16 13:54:16","updateDate":"2014-07-23 19:11:34","country":{"isoCode":"DE","name":"GERMANY","displayName":"Germany","isoThree":"DEU","numberCode":276,"createDate":"2012-01-03 02:41:33"}},{"id":"R7X97f","name":"Main Brewery","streetAddress":"Walmersley Old Road","locality":"Nangreaves","region":"Bury","postalCode":"BL9 6SP","phone":"0161 764 6680","website":"http://www.lordraglannangreaves.co.uk/","hoursOfOperation":"Mon-Thurs   12pm-2:30pm & 6pm-11pm\r\nFriday   12pm-2:30pm & 5pm-11pm\r\nSaturday 12pm-11pm\r\nSunday  12pm-10:30pm","latitude":53.625495,"longitude":-2.2907023,"isPrimary":"Y","inPlanning":"N","isClosed":"N","openToPublic":"Y","locationType":"micro","locationTypeDisplay":"Micro Brewery","countryIsoCode":"GB","yearOpened":"1999","status":"verified","statusDisplay":"Verified","createDate":"2013-08-06 20:35:06","updateDate":"2014-07-23 19:11:34","country":{"isoCode":"GB","name":"UNITED KINGDOM","displayName":"United Kingdom","isoThree":"GBR","numberCode":826,"createDate":"2012-01-03 02:41:33"}},{"id":"H6Lwrl","name":"Main Brewery","streetAddress":"410 S. Washington","locality":"Royal Oak","region":"Michigan","postalCode":"48067","phone":"248-591-5459","website":"http://www.lilysseafood.com/","latitude":42.486871,"longitude":-83.1465785,"isPrimary":"Y","inPlanning":"N","isClosed":"N","openToPublic":"Y","locationType":"brewpub","locationTypeDisplay":"Brewpub","countryIsoCode":"US","yearOpened":"1999","status":"verified","statusDisplay":"Verified","createDate":"2012-01-03 02:42:00","updateDate":"2014-07-23 19:11:34","country":{"isoCode":"US","name":"UNITED STATES","displayName":"United States","isoThree":"USA","numberCode":840,"createDate":"2012-01-03 02:41:33"}},{"id":"N2fdFd","name":"Microbrasserie La Memphré","streetAddress":"12, rue Merry Sud","locality":"Magog","region":"Québec","postalCode":"j1x2e6","phone":"1-819-843-3405","website":"http://www.lamic.ca/","latitude":45.2672658,"longitude":-72.15507,"isPrimary":"Y","inPlanning":"N","isClosed":"N","openToPublic":"Y","locationType":"brewpub","locationTypeDisplay":"Brewpub","countryIsoCode":"CA","yearOpened":"1999","status":"verified","statusDisplay":"Verified","createDate":"2013-07-04 20:29:40","updateDate":"2014-07-23 19:11:34","country":{"isoCode":"CA","name":"CANADA","displayName":"Canada","isoThree":"CAN","numberCode":124,"createDate":"2012-01-03 02:41:33"}},{"id":"XB13Qx","name":"Main Brewery","streetAddress":"21 W. Bay St.","locality":"Savannah","region":"Georgia","postalCode":"31401","phone":"912.447.0943","website":"http://www.moonriverbrewing.com/","latitude":32.0809761,"longitude":-81.0915086,"isPrimary":"Y","inPlanning":"N","isClosed":"N","openToPublic":"Y","locationType":"micro","locationTypeDisplay":"Micro Brewery","countryIsoCode":"US","yearOpened":"1999","status":"verified","statusDisplay":"Verified","createDate":"2012-01-03 02:42:02","updateDate":"2014-07-23 19:11:34","country":{"isoCode":"US","name":"UNITED STATES","displayName":"United States","isoThree":"USA","numberCode":840,"createDate":"2012-01-03 02:41:33"}},{"id":"QZtzPg","name":"Brewpub","streetAddress":"1516 Sansom Street","extendedAddress":"2nd Floor","locality":"Philadelphia","region":"Pennsylvania","postalCode":"19102","phone":"1-215-569-9525","website":"http://www.noddinghead.com/","hoursOfOperation":"M-Sat: 11:30am - 2am\r\nSunday Brunch: 11am - 5pm","latitude":39.950347,"longitude":-75.166162,"isPrimary":"Y","inPlanning":"N","isClosed":"N","openToPublic":"Y","locationType":"brewpub","locationTypeDisplay":"Brewpub","countryIsoCode":"US","status":"verified","statusDisplay":"Verified","createDate":"2012-01-03 02:42:03","updateDate":"2014-07-23 19:11:34","country":{"isoCode":"US","name":"UNITED STATES","displayName":"United States","isoThree":"USA","numberCode":840,"createDate":"2012-01-03 02:41:33"}},{"id":"9ROe02","name":"Main Brewery","streetAddress":"Voerstad 8","locality":"Großefehn","region":"Niedersachsen","postalCode":"26629","latitude":53.402745,"longitude":7.60364,"isPrimary":"N","inPlanning":"N","isClosed":"N","openToPublic":"Y","locationType":"micro","locationTypeDisplay":"Micro Brewery","countryIsoCode":"DE","status":"verified","statusDisplay":"Verified","createDate":"2012-08-12 14:46:57","updateDate":"2014-07-23 19:11:34","country":{"isoCode":"DE","name":"GERMANY","displayName":"Germany","isoThree":"DEU","numberCode":276,"createDate":"2012-01-03 02:41:33"}},{"id":"OVYjJ8","name":"Main Brewery","streetAddress":"Strandstraße 41","locality":"Kühlungsborn","postalCode":"18225","latitude":40.962986,"longitude":-76.007797,"isPrimary":"Y","inPlanning":"N","isClosed":"N","openToPublic":"Y","locationType":"micro","locationTypeDisplay":"Micro Brewery","countryIsoCode":"DE","status":"verified","statusDisplay":"Verified","createDate":"2012-08-16 14:24:20","updateDate":"2014-07-23 19:11:34","country":{"isoCode":"DE","name":"GERMANY","displayName":"Germany","isoThree":"DEU","numberCode":276,"createDate":"2012-01-03 02:41:33"}},{"id":"Y6z24E","name":"Main Brewery","streetAddress":"1401 Saint Andrew Street","locality":"La Crosse","region":"Wisconsin","postalCode":"54603","phone":"608-784-4832","website":"http://www.pearlstreetbrewery.com/brewin/","hoursOfOperation":"Tue - Fri: 4:00 pm - 8:00 pm\r\nSat: 12:00 pm - 5:00 am","latitude":43.834352,"longitude":-91.236154,"isPrimary":"Y","inPlanning":"N","isClosed":"N","openToPublic":"Y","locationType":"micro","locationTypeDisplay":"Micro Brewery","countryIsoCode":"US","yearOpened":"1999","status":"verified","statusDisplay":"Verified","createDate":"2012-01-03 02:42:05","updateDate":"2014-07-23 19:11:34","country":{"isoCode":"US","name":"UNITED STATES","displayName":"United States","isoThree":"USA","numberCode":840,"createDate":"2012-01-03 02:41:33"}},{"id":"47F9wy","name":"Main Brewery","streetAddress":"1249-A Wicker Drive","locality":"Raleigh","region":"North Carolina","postalCode":"27604","latitude":35.809712,"longitude":-78.618223,"isPrimary":"Y","inPlanning":"N","isClosed":"Y","openToPublic":"N","locationType":"micro","locationTypeDisplay":"Micro Brewery","countryIsoCode":"US","yearOpened":"2000","yearClosed":"2001","status":"verified","statusDisplay":"Verified","createDate":"2012-03-29 21:40:15","updateDate":"2014-07-23 19:11:34","country":{"isoCode":"US","name":"UNITED STATES","displayName":"United States","isoThree":"USA","numberCode":840,"createDate":"2012-01-03 02:41:33"}},{"id":"XPo0Lt","name":"Main Brewery","streetAddress":"880 West Castleton Road","locality":"Castle Rock","region":"Colorado","postalCode":"80109","phone":"303-814-9273","website":"http://www.rockyard.com/","latitude":39.409056,"longitude":-104.869718,"isPrimary":"Y","inPlanning":"N","isClosed":"N","openToPublic":"Y","locationType":"micro","locationTypeDisplay":"Micro Brewery","countryIsoCode":"US","status":"verified","statusDisplay":"Verified","createDate":"2012-01-03 02:42:07","updateDate":"2014-07-23 19:11:34","country":{"isoCode":"US","name":"UNITED STATES","displayName":"United States","isoThree":"USA","numberCode":840,"createDate":"2012-01-03 02:41:33"}},{"id":"EotLdS","name":"Main Brewery","streetAddress":"331 West 6th Street","locality":"San Pedro","region":"California","postalCode":"90731","phone":"310-831-5663","website":"http://sanpedrobrewing.com/","latitude":33.738739,"longitude":-118.2838236,"isPrimary":"Y","inPlanning":"N","isClosed":"N","openToPublic":"Y","locationType":"micro","locationTypeDisplay":"Micro Brewery","countryIsoCode":"US","yearOpened":"1999","status":"verified","statusDisplay":"Verified","createDate":"2012-01-03 02:42:07","updateDate":"2014-07-23 19:11:34","country":{"isoCode":"US","name":"UNITED STATES","displayName":"United States","isoThree":"USA","numberCode":840,"createDate":"2012-01-03 02:41:33"}},{"id":"TSKxwK","name":"Main Brewery","streetAddress":"320 Pierce St","locality":"Black River Falls","region":"Wisconsin","postalCode":"54615","phone":"(715) 284-7553","website":"http://www.sandcreekbrewing.com/","latitude":44.2928569,"longitude":-90.8510691,"isPrimary":"Y","inPlanning":"N","isClosed":"N","openToPublic":"Y","locationType":"micro","locationTypeDisplay":"Micro Brewery","countryIsoCode":"US","status":"verified","statusDisplay":"Verified","createDate":"2012-01-03 02:42:07","updateDate":"2014-07-23 19:11:34","country":{"isoCode":"US","name":"UNITED STATES","displayName":"United States","isoThree":"USA","numberCode":840,"createDate":"2012-01-03 02:41:33"}},{"id":"NBjiVH","name":"Main Brewery","streetAddress":"Mühlstraße 15","locality":"Nürtingen","postalCode":"72622","latitude":48.605989,"longitude":9.306445,"isPrimary":"Y","inPlanning":"N","isClosed":"N","openToPublic":"Y","locationType":"micro","locationTypeDisplay":"Micro Brewery","countryIsoCode":"DE","status":"verified","statusDisplay":"Verified","createDate":"2012-08-16 15:02:28","updateDate":"2014-07-23 19:11:34","country":{"isoCode":"DE","name":"GERMANY","displayName":"Germany","isoThree":"DEU","numberCode":276,"createDate":"2012-01-03 02:41:33"}},{"id":"r9nypM","name":"Main Brewpub","streetAddress":"Am Schlossberg 1","locality":"Müglitztal","region":"Saxony","postalCode":"01809","latitude":50.95442,"longitude":13.86028,"isPrimary":"Y","inPlanning":"N","isClosed":"N","openToPublic":"Y","locationType":"brewpub","locationTypeDisplay":"Brewpub","countryIsoCode":"DE","status":"verified","statusDisplay":"Verified","createDate":"2012-08-12 23:52:10","updateDate":"2014-07-23 19:11:34","country":{"isoCode":"DE","name":"GERMANY","displayName":"Germany","isoThree":"DEU","numberCode":276,"createDate":"2012-01-03 02:41:33"}},{"id":"9XbIQ2","name":"Main Brewery","streetAddress":"N57W6172 Portland Rd","locality":"Cedarburg","region":"Wisconsin","postalCode":"53012","phone":"262-375-4444","website":"http://www.silvercreekbrewing.com/","latitude":43.296378,"longitude":-87.986004,"isPrimary":"Y","inPlanning":"N","isClosed":"N","openToPublic":"Y","locationType":"brewpub","locationTypeDisplay":"Brewpub","countryIsoCode":"US","yearOpened":"1999","status":"verified","statusDisplay":"Verified","createDate":"2012-01-03 02:42:08","updateDate":"2014-07-23 19:11:34","country":{"isoCode":"US","name":"UNITED STATES","displayName":"United States","isoThree":"USA","numberCode":840,"createDate":"2012-01-03 02:41:33"}},{"id":"HZvqhd","name":"Main Brewery","streetAddress":"5391 Three Notch'D Road","locality":"Crozet","region":"Virginia","postalCode":"22932","phone":"434-823-5671","website":"http://www.starrhill.com/","latitude":38.0692617,"longitude":-78.6866452,"isPrimary":"Y","inPlanning":"N","isClosed":"N","openToPublic":"Y","locationType":"tasting","locationTypeDisplay":"Tasting Room","countryIsoCode":"US","yearOpened":"1999","status":"verified","statusDisplay":"Verified","createDate":"2012-01-03 02:42:09","updateDate":"2014-09-10 18:18:10","country":{"isoCode":"US","name":"UNITED STATES","displayName":"United States","isoThree":"USA","numberCode":840,"createDate":"2012-01-03 02:41:33"}},{"id":"LLTN1u","name":"Main Brewery","streetAddress":"101 E. Imperial Highway","locality":"Brea","region":"California","postalCode":"92821","phone":"714-257-0101","website":"http://www.tapsfishhouse.com/","hoursOfOperation":"Mon - Tues: 11:00 am - 9:00 pm\r\nWed: 11:00 am - 9:00 am\r\nThurs: 11:00 am - 9:00 pm\r\nFri - Sat: 11:00 am - 10:00 pm\r\nSun: 10:00 am - 9:00 pm","latitude":33.9165763,"longitude":-117.9000186,"isPrimary":"Y","inPlanning":"N","isClosed":"N","openToPublic":"Y","locationType":"micro","locationTypeDisplay":"Micro Brewery","countryIsoCode":"US","yearOpened":"1999","status":"verified","statusDisplay":"Verified","createDate":"2012-01-03 02:42:09","updateDate":"2014-07-23 19:11:34","country":{"isoCode":"US","name":"UNITED STATES","displayName":"United States","isoThree":"USA","numberCode":840,"createDate":"2012-01-03 02:41:33"}},{"id":"BDbjbI","name":"Brea","streetAddress":"101 E Imperial Hwy","locality":"Brea","region":"California","postalCode":"92821","phone":"714-257-0101","website":"http://www.tapsfishhouse.com/brea/","latitude":33.9165763,"longitude":-117.9000186,"isPrimary":"N","inPlanning":"N","isClosed":"N","openToPublic":"N","locationType":"brewpub","locationTypeDisplay":"Brewpub","countryIsoCode":"US","yearOpened":"1999","status":"verified","statusDisplay":"Verified","createDate":"2012-01-03 02:42:16","updateDate":"2014-07-23 19:11:34","country":{"isoCode":"US","name":"UNITED STATES","displayName":"United States","isoThree":"USA","numberCode":840,"createDate":"2012-01-03 02:41:33"}},{"id":"nXKXkj","name":"Inland Empire","streetAddress":"2745 Lakeshore Drive","locality":"Corona","region":"California","postalCode":"92883","phone":"951-277-5800","website":"http://www.tapsfishhouse.com/","latitude":33.814164,"longitude":-117.508389,"isPrimary":"N","inPlanning":"N","isClosed":"N","openToPublic":"N","locationType":"micro","locationTypeDisplay":"Micro Brewery","countryIsoCode":"US","yearOpened":"1999","status":"verified","statusDisplay":"Verified","createDate":"2012-01-03 02:42:16","updateDate":"2014-07-23 19:11:34","country":{"isoCode":"US","name":"UNITED STATES","displayName":"United States","isoThree":"USA","numberCode":840,"createDate":"2012-01-03 02:41:33"}},{"id":"HtFqFO","name":"Main Brewery","streetAddress":"3101 North Tenaya Way","locality":"Las Vegas","region":"Nevada","postalCode":"89128","phone":"702-362-7335","website":"http://tenayacreekbrewery.com/","hoursOfOperation":"Daily: 11:00 a.m. to 2:00 a.m.\r\nClosed on Independence Day, Thanksgiving and Christmas.","latitude":36.2161144,"longitude":-115.251306,"isPrimary":"Y","inPlanning":"N","isClosed":"N","openToPublic":"Y","locationType":"micro","locationTypeDisplay":"Micro Brewery","countryIsoCode":"US","yearOpened":"1999","status":"verified","statusDisplay":"Verified","createDate":"2012-01-03 02:42:09","updateDate":"2014-07-23 19:11:34","country":{"isoCode":"US","name":"UNITED STATES","displayName":"United States","isoThree":"USA","numberCode":840,"createDate":"2012-01-03 02:41:33"}},{"id":"dBrmRe","name":"Main Brewery","streetAddress":"86 Cannon St","locality":"Bury","region":"St Edmunds","postalCode":"IP33 1JR","phone":"+44 1284 768769","website":"http://www.oldcannonbrewery.co.uk/","hoursOfOperation":"Mon - Sat: 12:00 pm - 11:00 pm\r\nSun: 12:00 pm - 10:00 pm","latitude":52.2497703,"longitude":0.7148066,"isPrimary":"Y","inPlanning":"N","isClosed":"N","openToPublic":"Y","locationType":"micro","locationTypeDisplay":"Micro Brewery","countryIsoCode":"GB","yearOpened":"1999","status":"verified","statusDisplay":"Verified","createDate":"2013-05-10 13:23:51","updateDate":"2014-07-23 19:11:34","country":{"isoCode":"GB","name":"UNITED KINGDOM","displayName":"United Kingdom","isoThree":"GBR","numberCode":826,"createDate":"2012-01-03 02:41:33"}},{"id":"ICZpn9","name":"Main Brewery","streetAddress":"18 East 21st St.","locality":"Kearney","region":"Nebraska","postalCode":"68847","phone":"308-237-1558","website":"http://www.thunderheadbrewing.com/","hoursOfOperation":"Mon:\t1:00 pm - 10:00 pm\r\nTue:\t7:00 pm - 10:00 pm\r\nWed:\t5:00 pm - 12:00 am\r\nThu - Sat:\t11:00 am - 1:00 am\r\nSun:\t11:00 am - 9:00 pm","latitude":40.6965995,"longitude":-99.0814827,"isPrimary":"Y","inPlanning":"N","isClosed":"N","openToPublic":"Y","locationType":"micro","locationTypeDisplay":"Micro Brewery","countryIsoCode":"US","yearOpened":"1999","status":"verified","statusDisplay":"Verified","createDate":"2012-01-03 02:42:10","updateDate":"2014-07-23 19:11:34","country":{"isoCode":"US","name":"UNITED STATES","displayName":"United States","isoThree":"USA","numberCode":840,"createDate":"2012-01-03 02:41:33"}},{"id":"V50BXE","name":"Thunderhead Brewery #2","streetAddress":"120 East Third Street","locality":"Grand Island","region":"Nebraska","postalCode":"68801","phone":"308-398-2500","website":"http://www.thunderheadbrewing.com/","hoursOfOperation":"Open Daily 11:00am-1:00am.","latitude":40.9262595,"longitude":-98.3392961,"isPrimary":"N","inPlanning":"N","isClosed":"N","openToPublic":"Y","locationType":"micro","locationTypeDisplay":"Micro Brewery","countryIsoCode":"US","status":"verified","statusDisplay":"Verified","createDate":"2013-08-01 17:25:29","updateDate":"2014-07-23 19:11:34","country":{"isoCode":"US","name":"UNITED STATES","displayName":"United States","isoThree":"USA","numberCode":840,"createDate":"2012-01-03 02:41:33"}},{"id":"7pvFRb","name":"Wells Park","streetAddress":"1800 4TH St NW","locality":"Albuquerque","region":"New Mexico","postalCode":"87102","phone":"(505) 243-6752","website":"http://www.getplowed.com/","hoursOfOperation":"MONDAY -THURSDAY 3:00PM – CLOSE\r\n\r\nFRIDAY-SUNDAY 1:00PM – CLOSE","latitude":35.102217,"longitude":-106.647701,"isPrimary":"Y","inPlanning":"N","isClosed":"N","openToPublic":"Y","locationType":"micro","locationTypeDisplay":"Micro Brewery","countryIsoCode":"US","yearOpened":"1999","status":"verified","statusDisplay":"Verified","createDate":"2012-01-03 02:42:10","updateDate":"2014-07-23 19:11:34","country":{"isoCode":"US","name":"UNITED STATES","displayName":"United States","isoThree":"USA","numberCode":840,"createDate":"2012-01-03 02:41:33"}},{"id":"sb1T5g","name":"Nob Hill Tap Room","streetAddress":"118 Tulane SE","locality":"Albuquerque","region":"New Mexico","postalCode":"87106","phone":"(505) 433-5654","latitude":35.079808,"longitude":-106.607021,"isPrimary":"N","inPlanning":"N","isClosed":"N","openToPublic":"Y","locationType":"tasting","locationTypeDisplay":"Tasting Room","countryIsoCode":"US","yearOpened":"2011","status":"verified","statusDisplay":"Verified","createDate":"2012-08-18 03:28:06","updateDate":"2014-07-23 19:11:34","country":{"isoCode":"US","name":"UNITED STATES","displayName":"United States","isoThree":"USA","numberCode":840,"createDate":"2012-01-03 02:41:33"}},{"id":"7kuQ44","name":"Brewing Location","streetAddress":"120 Nelson Lane","locality":"Los Lunas","region":"New Mexico","postalCode":"87031","phone":"(505) 866-0000","website":"http://getplowed.com/","latitude":34.8034407,"longitude":-106.7060584,"isPrimary":"N","inPlanning":"N","isClosed":"N","openToPublic":"Y","locationType":"production","locationTypeDisplay":"Production Facility","countryIsoCode":"US","status":"verified","statusDisplay":"Verified","createDate":"2014-03-30 16:13:12","updateDate":"2014-07-23 19:11:34","country":{"isoCode":"US","name":"UNITED STATES","displayName":"United States","isoThree":"USA","numberCode":840,"createDate":"2012-01-03 02:41:33"}},{"id":"YTASRd","name":"Main Brewery","streetAddress":"905 36th Place SE","locality":"Rio Rancho","region":"New Mexico","postalCode":"87124","phone":"505-994-9497","website":"http://www.turtlemountainbrewing.com/","latitude":35.242565,"longitude":-106.664416,"isPrimary":"Y","inPlanning":"N","isClosed":"N","openToPublic":"Y","locationType":"micro","locationTypeDisplay":"Micro Brewery","countryIsoCode":"US","yearOpened":"1999","status":"verified","statusDisplay":"Verified","createDate":"2012-01-03 02:42:11","updateDate":"2014-07-23 19:11:34","country":{"isoCode":"US","name":"UNITED STATES","displayName":"United States","isoThree":"USA","numberCode":840,"createDate":"2012-01-03 02:41:33"}},{"id":"aPdSL0","name":"Main Brewery","streetAddress":"500 Redwood Boulevard","extendedAddress":"Suite 200","locality":"Novato","region":"California","postalCode":"94947","phone":"877-946-3793","website":"http://www.wineryexchange.com/","latitude":38.0740437,"longitude":-122.5428807,"isPrimary":"Y","inPlanning":"N","isClosed":"N","openToPublic":"Y","locationType":"micro","locationTypeDisplay":"Micro Brewery","countryIsoCode":"US","yearOpened":"1999","status":"verified","statusDisplay":"Verified","createDate":"2012-01-03 02:42:13","updateDate":"2014-07-23 19:11:34","country":{"isoCode":"US","name":"UNITED STATES","displayName":"United States","isoThree":"USA","numberCode":840,"createDate":"2012-01-03 02:41:33"}}]