[{"id":"dPwh4p","name":"Prado","streetAddress":"5600 Roswell Road","locality":"Sandy Springs","region":"Georgia","postalCode":"30342","phone":"404-255-5911","website":"http://www.5seasonsbrewing.com/","hoursOfOperation":"Mon:  11:00am - 12:00am\nTue:  11:00am - 12:00am\nWed:  11:00am - 12:00am\nThu:  11:00am - 12:00am\nFri:  11:00am - 2:00am\nSat:  11:00am - 2:00am\nSun:  12:00pm - 12:00am\n\n","latitude":33.9075567,"longitude":-84.378776,"isPrimary":"N","inPlanning":"N","isClosed":"N","openToPublic":"Y","locationType":"brewpub","locationTypeDisplay":"Brewpub","countryIsoCode":"US","yearOpened":"2001","status":"verified","statusDisplay":"Verified","createDate":"2012-01-03 02:41:54","updateDate":"2014-07-23 19:38:32","country":{"isoCode":"US","name":"UNITED STATES","displayName":"United States","isoThree":"USA","numberCode":840,"createDate":"2012-01-03 02:41:33"}},{"id":"UDZFWm","name":"North","streetAddress":"3655 Old Milton Pkwy","locality":"Alpharetta","region":"Georgia","postalCode":"30022","phone":"(770) 521-5551","website":"http://www.5seasonsbrewing.com/","hoursOfOperation":"Mon:  11:00am - 12:00am\nTue:  11:00am - 12:00am\nWed:  11:00am - 12:00am\nThu:  11:00am - 12:00am\nFri:  11:00am - 12:00am\nSat:  12:00pm - 12:00am\nSun:  12:00pm - 12:00am\n\n","latitude":34.063801,"longitude":-84.25326,"isPrimary":"N","inPlanning":"N","isClosed":"N","openToPublic":"Y","locationType":"brewpub","locationTypeDisplay":"Brewpub","countryIsoCode":"US","status":"verified","statusDisplay":"Verified","createDate":"2012-10-23 13:31:09","updateDate":"2014-07-23 19:38:33","country":{"isoCode":"US","name":"UNITED STATES","displayName":"United States","isoThree":"USA","numberCode":840,"createDate":"2012-01-03 02:41:33"}},{"id":"6XI3gD","name":"Westside","streetAddress":"1000 Marietta St NW #204","locality":"Atlanta","region":"Georgia","postalCode":"30318","phone":"(404) 875-3232","website":"http://www.5seasonsbrewing/","hoursOfOperation":"Sun:  11:30am - 12:00am\nMon:  11:30am - 12:00am\nTue:  11:30am - 12:00am\nWed:  11:30am - 12:00am\nThu:  11:30am - 12:30am\nFri:  11:30am - 1:00am\nSat:  11:30am - 1:00am\n\n","latitude":33.7790059,"longitude":-84.4107147,"isPrimary":"Y","inPlanning":"N","isClosed":"N","openToPublic":"Y","locationType":"brewpub","locationTypeDisplay":"Brewpub","countryIsoCode":"US","status":"verified","statusDisplay":"Verified","createDate":"2012-10-23 13:32:49","updateDate":"2014-07-23 19:38:35","country":{"isoCode":"US","name":"UNITED STATES","displayName":"United States","isoThree":"USA","numberCode":840,"createDate":"2012-01-03 02:41:33"}},{"id":"cWMMWU","name":"Main Brewpub","streetAddress":"Lange Gasse 16","locality":"Dessau","region":"Saxony-Anhalt","postalCode":"06844","latitude":51.83551,"longitude":12.24556,"isPrimary":"Y","inPlanning":"N","isClosed":"N","openToPublic":"Y","locationType":"brewpub","locationTypeDisplay":"Brewpub","countryIsoCode":"DE","status":"verified","statusDisplay":"Verified","createDate":"2012-08-12 23:49:35","updateDate":"2014-07-23 19:11:34","country":{"isoCode":"DE","name":"GERMANY","displayName":"Germany","isoThree":"DEU","numberCode":276,"createDate":"2012-01-03 02:41:33"}},{"id":"myjoXK","name":"Main Brewery","streetAddress":"1 Orondo Ave","locality":"Wenatchee","region":"Washington","postalCode":"98801","phone":"(509) 888-2234","hoursOfOperation":"Tue:  11:30am - 10:00pm\nWed:  11:30am - 10:00pm\nThu:  11:30am - 10:00pm\nFri:  11:30am - 12:00am\nSat:  11:30am - 12:00am\n\nTue - Thu: 11:30 am - 10:00 pm\r\nFri - Sat: 11:30 am - 12:00 am","latitude":47.4238716,"longitude":-120.3092545,"isPrimary":"Y","inPlanning":"N","isClosed":"N","openToPublic":"Y","locationType":"micro","locationTypeDisplay":"Micro Brewery","countryIsoCode":"US","yearOpened":"2012","status":"verified","statusDisplay":"Verified","createDate":"2013-08-24 12:34:45","updateDate":"2014-09-29 20:33:47","country":{"isoCode":"US","name":"UNITED STATES","displayName":"United States","isoThree":"USA","numberCode":840,"createDate":"2012-01-03 02:41:33"}},{"id":"hpnoHn","name":"Main Brewery","streetAddress":"94 East 7200 South","locality":"Midvale","region":"Utah","postalCode":"84047","phone":"801-566-5474","website":"http://www.bohemianbrewery.com/","latitude":40.6207965,"longitude":-111.8880479,"isPrimary":"Y","inPlanning":"N","isClosed":"N","openToPublic":"Y","locationType":"micro","locationTypeDisplay":"Micro Brewery","countryIsoCode":"US","status":"verified","statusDisplay":"Verified","createDate":"2012-01-03 02:41:47","updateDate":"2014-07-23 19:11:34","country":{"isoCode":"US","name":"UNITED STATES","displayName":"United States","isoThree":"USA","numberCode":840,"createDate":"2012-01-03 02:41:33"}},{"id":"RX3n5Q","name":"Main Brewery","streetAddress":"Gebrüder-Wahl-Strasse 19","locality":"Braunfels","region":"Sachsen","postalCode":"D-35619","latitude":50.542843,"longitude":8.510667,"isPrimary":"N","inPlanning":"N","isClosed":"N","openToPublic":"Y","locationType":"micro","locationTypeDisplay":"Micro Brewery","countryIsoCode":"DE","status":"verified","statusDisplay":"Verified","createDate":"2012-08-12 14:46:53","updateDate":"2014-07-23 19:11:34","country":{"isoCode":"DE","name":"GERMANY","displayName":"Germany","isoThree":"DEU","numberCode":276,"createDate":"2012-01-03 02:41:33"}},{"id":"q9IxZG","name":"Main Brewery","streetAddress":"Hasenheide 69","locality":"Berlin","region":"Berlin","postalCode":"10967","latitude":52.488611,"longitude":13.410513,"isPrimary":"Y","inPlanning":"N","isClosed":"N","openToPublic":"Y","locationType":"micro","locationTypeDisplay":"Micro Brewery","countryIsoCode":"DE","status":"verified","statusDisplay":"Verified","createDate":"2012-08-16 12:19:50","updateDate":"2014-07-23 19:11:34","country":{"isoCode":"DE","name":"GERMANY","displayName":"Germany","isoThree":"DEU","numberCode":276,"createDate":"2012-01-03 02:41:33"}},{"id":"1D8Zd9","name":"Main Brewery","streetAddress":"Peter-Breuer-straße 12","locality":"Zwickau","region":"Sachsen","postalCode":"08056","latitude":50.705986,"longitude":12.497355,"isPrimary":"N","inPlanning":"N","isClosed":"N","openToPublic":"Y","locationType":"micro","locationTypeDisplay":"Micro Brewery","countryIsoCode":"DE","status":"verified","statusDisplay":"Verified","createDate":"2012-08-12 14:47:20","updateDate":"2014-07-23 19:11:34","country":{"isoCode":"DE","name":"GERMANY","displayName":"Germany","isoThree":"DEU","numberCode":276,"createDate":"2012-01-03 02:41:33"}},{"id":"uUd29P","name":"Main Brewery","streetAddress":"Baumstraße 46","locality":"Hamm","region":"North Rhine-Westphalia","postalCode":"59071","latitude":51.675241,"longitude":7.875594,"isPrimary":"N","inPlanning":"N","isClosed":"N","openToPublic":"Y","locationType":"micro","locationTypeDisplay":"Micro Brewery","countryIsoCode":"DE","status":"verified","statusDisplay":"Verified","createDate":"2012-08-12 14:46:00","updateDate":"2014-07-23 19:11:34","country":{"isoCode":"DE","name":"GERMANY","displayName":"Germany","isoThree":"DEU","numberCode":276,"createDate":"2012-01-03 02:41:33"}},{"id":"Jc7iGI","name":"Main Brewery","streetAddress":"Lindenallee 54","locality":"Warnitz/Uckermark","region":"Brandenburg","postalCode":"D-17291","latitude":53.186395,"longitude":13.877279,"isPrimary":"N","inPlanning":"N","isClosed":"N","openToPublic":"Y","locationType":"micro","locationTypeDisplay":"Micro Brewery","countryIsoCode":"DE","status":"verified","statusDisplay":"Verified","createDate":"2012-08-12 14:48:11","updateDate":"2014-07-23 19:11:34","country":{"isoCode":"DE","name":"GERMANY","displayName":"Germany","isoThree":"DEU","numberCode":276,"createDate":"2012-01-03 02:41:33"}},{"id":"RnWLnX","name":"Main Brewery","streetAddress":"1249-A Wicker Drive","locality":"Raleigh","region":"North Carolina","postalCode":"27604","latitude":35.809712,"longitude":-78.618223,"isPrimary":"Y","inPlanning":"N","isClosed":"Y","openToPublic":"N","locationType":"micro","locationTypeDisplay":"Micro Brewery","countryIsoCode":"US","yearOpened":"2001","yearClosed":"2004","status":"verified","statusDisplay":"Verified","createDate":"2012-03-29 21:37:03","updateDate":"2014-07-23 19:11:34","country":{"isoCode":"US","name":"UNITED STATES","displayName":"United States","isoThree":"USA","numberCode":840,"createDate":"2012-01-03 02:41:33"}},{"id":"qcAp7N","name":"Main Brewery","streetAddress":"Woesten","locality":"Woesten","region":"West-Vlaanderen","website":"http://www.struisebrouwers.be/","latitude":50.900311,"longitude":2.7831,"isPrimary":"Y","inPlanning":"N","isClosed":"N","openToPublic":"Y","locationType":"micro","locationTypeDisplay":"Micro Brewery","countryIsoCode":"BE","yearOpened":"2001","status":"verified","statusDisplay":"Verified","createDate":"2012-01-03 02:41:52","updateDate":"2014-07-23 19:11:34","country":{"isoCode":"BE","name":"BELGIUM","displayName":"Belgium","isoThree":"BEL","numberCode":56,"createDate":"2012-01-03 02:41:33"}},{"id":"XCgfE8","name":"Main Brewery","streetAddress":"934 Washington Street","locality":"San Carlos","region":"California","postalCode":"94070","phone":"650-592-2739","website":"http://www.DevilsCanyon.com/","latitude":37.49888,"longitude":-122.244886,"isPrimary":"Y","inPlanning":"N","isClosed":"N","openToPublic":"Y","locationType":"micro","locationTypeDisplay":"Micro Brewery","countryIsoCode":"US","yearOpened":"2001","status":"verified","statusDisplay":"Verified","createDate":"2012-01-03 02:41:52","updateDate":"2014-08-31 13:42:11","country":{"isoCode":"US","name":"UNITED STATES","displayName":"United States","isoThree":"USA","numberCode":840,"createDate":"2012-01-03 02:41:33"}},{"id":"gn9OTo","name":"Main Brewpub","streetAddress":"Dörperweg 22","locality":"Norddeich","region":"Lower Saxony","postalCode":"26506","latitude":53.595665,"longitude":7.201855,"isPrimary":"Y","inPlanning":"N","isClosed":"N","openToPublic":"Y","locationType":"brewpub","locationTypeDisplay":"Brewpub","countryIsoCode":"DE","status":"verified","statusDisplay":"Verified","createDate":"2012-08-13 01:15:35","updateDate":"2014-07-23 19:11:34","country":{"isoCode":"DE","name":"GERMANY","displayName":"Germany","isoThree":"DEU","numberCode":276,"createDate":"2012-01-03 02:41:33"}},{"id":"pWBBj2","name":"Field Bordatto","locality":"Jaxu","postalCode":"64220","phone":"05 59 49 18 22","website":"http://domainebordatto.com/","latitude":43.195854,"longitude":-1.191563,"isPrimary":"Y","inPlanning":"N","isClosed":"N","openToPublic":"Y","locationType":"micro","locationTypeDisplay":"Micro Brewery","countryIsoCode":"FR","status":"verified","statusDisplay":"Verified","createDate":"2014-10-20 19:05:04","updateDate":"2014-10-20 19:05:04","country":{"isoCode":"FR","name":"FRANCE","displayName":"France","isoThree":"FRA","numberCode":250,"createDate":"2012-01-03 02:41:33"}},{"id":"x8kqVp","name":"Main Brewery","streetAddress":"101 Fairview Rd # D","locality":"Asheville","region":"North Carolina","postalCode":"28803","phone":"828-277-0222","website":"http://frenchbroadbrewery.com/","hoursOfOperation":"1p-8p Mon-Sat","latitude":35.5664832,"longitude":-82.5374074,"isPrimary":"Y","inPlanning":"N","isClosed":"N","openToPublic":"Y","locationType":"micro","locationTypeDisplay":"Micro Brewery","countryIsoCode":"US","yearOpened":"2001","status":"verified","statusDisplay":"Verified","createDate":"2012-01-03 02:41:55","updateDate":"2014-07-23 19:11:34","country":{"isoCode":"US","name":"UNITED STATES","displayName":"United States","isoThree":"USA","numberCode":840,"createDate":"2012-01-03 02:41:33"}},{"id":"MZ5jPl","name":"Main Brewpub","streetAddress":"Christianstraße 2","locality":"Cologne-Ehrenfeld","region":"North Rhine-Westphalia","postalCode":"50825","latitude":50.959443,"longitude":6.917946,"isPrimary":"Y","inPlanning":"N","isClosed":"N","openToPublic":"Y","locationType":"brewpub","locationTypeDisplay":"Brewpub","countryIsoCode":"DE","status":"verified","statusDisplay":"Verified","createDate":"2012-08-13 00:40:25","updateDate":"2014-07-23 19:11:34","country":{"isoCode":"DE","name":"GERMANY","displayName":"Germany","isoThree":"DEU","numberCode":276,"createDate":"2012-01-03 02:41:33"}},{"id":"R9Ckuq","name":"Main Brewery","streetAddress":"Bahnhofstraße 42","locality":"Riesa","postalCode":"01587","latitude":51.30197,"longitude":13.26639,"isPrimary":"Y","inPlanning":"N","isClosed":"N","openToPublic":"Y","locationType":"micro","locationTypeDisplay":"Micro Brewery","countryIsoCode":"DE","status":"verified","statusDisplay":"Verified","createDate":"2012-08-16 13:04:15","updateDate":"2014-07-23 19:11:34","country":{"isoCode":"DE","name":"GERMANY","displayName":"Germany","isoThree":"DEU","numberCode":276,"createDate":"2012-01-03 02:41:33"}},{"id":"2XRNBi","name":"Main Brewery","streetAddress":"701 Evans Street","locality":"Greenville","region":"North Carolina","postalCode":"27834","phone":"1-252-830-2739","latitude":35.608278,"longitude":-77.3731619,"isPrimary":"Y","inPlanning":"N","isClosed":"Y","openToPublic":"Y","locationType":"micro","locationTypeDisplay":"Micro Brewery","countryIsoCode":"US","yearOpened":"2001","yearClosed":"2011","status":"verified","statusDisplay":"Verified","createDate":"2012-01-03 02:41:56","updateDate":"2014-07-23 19:11:34","country":{"isoCode":"US","name":"UNITED STATES","displayName":"United States","isoThree":"USA","numberCode":840,"createDate":"2012-01-03 02:41:33"}},{"id":"6IV6lH","name":"Main Brewery","streetAddress":"Triftstraße 67 Wedding","locality":"Berlin","region":"Berlin","postalCode":"D-13353","latitude":52.547815,"longitude":13.354735,"isPrimary":"N","inPlanning":"N","isClosed":"N","openToPublic":"Y","locationType":"micro","locationTypeDisplay":"Micro Brewery","countryIsoCode":"DE","status":"verified","statusDisplay":"Verified","createDate":"2012-08-12 14:47:57","updateDate":"2014-07-23 19:11:34","country":{"isoCode":"DE","name":"GERMANY","displayName":"Germany","isoThree":"DEU","numberCode":276,"createDate":"2012-01-03 02:41:33"}},{"id":"dy3dXW","name":"Main Brewery","streetAddress":"5115 Ne Sandy Blvd","locality":"Portland","region":"Oregon","postalCode":"97213","phone":"503-282-0622","website":"http://www.laurelwoodbrewpub.com/","latitude":45.5399762,"longitude":-122.6108575,"isPrimary":"Y","inPlanning":"N","isClosed":"N","openToPublic":"Y","locationType":"micro","locationTypeDisplay":"Micro Brewery","countryIsoCode":"US","yearOpened":"2001","status":"verified","statusDisplay":"Verified","createDate":"2012-01-03 02:42:00","updateDate":"2014-07-23 19:11:34","country":{"isoCode":"US","name":"UNITED STATES","displayName":"United States","isoThree":"USA","numberCode":840,"createDate":"2012-01-03 02:41:33"}},{"id":"WvGX0b","name":"SE Portland","streetAddress":"6716 SE Milwaukie Ave","locality":"Portland","region":"Oregon","postalCode":"97202","phone":"503-894-8267","hoursOfOperation":"Breakfast served 10:00AM – 3:00PM on weekends, along with the full menu.","latitude":45.4740308,"longitude":-122.6483916,"isPrimary":"N","inPlanning":"N","isClosed":"N","openToPublic":"Y","locationType":"brewpub","locationTypeDisplay":"Brewpub","countryIsoCode":"US","status":"verified","statusDisplay":"Verified","createDate":"2014-11-12 22:06:03","updateDate":"2014-11-12 22:06:04","country":{"isoCode":"US","name":"UNITED STATES","displayName":"United States","isoThree":"USA","numberCode":840,"createDate":"2012-01-03 02:41:33"}},{"id":"nkRssU","name":"Main Brewery","streetAddress":"La Poelerie","locality":"Joué-du-Bois","region":"Normandy","postalCode":"61320","phone":"(+33) 02 33 37 77 26","website":"http://www.le-brewery.com/","hoursOfOperation":"9am - 6pm from Tuesday until Saturday","latitude":48.5786777,"longitude":-0.1482296,"isPrimary":"Y","inPlanning":"N","isClosed":"N","openToPublic":"Y","locationType":"micro","locationTypeDisplay":"Micro Brewery","countryIsoCode":"FR","yearOpened":"2001","status":"verified","statusDisplay":"Verified","createDate":"2013-02-03 14:43:07","updateDate":"2014-07-23 19:11:34","country":{"isoCode":"FR","name":"FRANCE","displayName":"France","isoThree":"FRA","numberCode":250,"createDate":"2012-01-03 02:41:33"}},{"id":"QUtA29","name":"Multi-Brasses","streetAddress":"1209, rue Saint-Joseph","locality":"Tingwick","region":"Québec","postalCode":"j0a1l0","phone":"1-819-359-3887","website":"http://microbrasserie.ca/","latitude":45.8806453,"longitude":-71.9428699,"isPrimary":"Y","inPlanning":"N","isClosed":"N","openToPublic":"N","locationType":"production","locationTypeDisplay":"Production Facility","countryIsoCode":"CA","yearOpened":"2001","status":"verified","statusDisplay":"Verified","createDate":"2013-07-03 15:31:57","updateDate":"2014-07-23 19:11:34","country":{"isoCode":"CA","name":"CANADA","displayName":"Canada","isoThree":"CAN","numberCode":124,"createDate":"2012-01-03 02:41:33"}},{"id":"EKpf2s","name":"Main Brewpub","streetAddress":"Felix-Wankel-Strasse 9","locality":"Neckarsulm","region":"Baden-Württemberg","postalCode":"74172","isPrimary":"Y","inPlanning":"N","isClosed":"N","openToPublic":"Y","locationType":"brewpub","locationTypeDisplay":"Brewpub","countryIsoCode":"DE","status":"verified","statusDisplay":"Verified","createDate":"2012-08-13 11:21:13","updateDate":"2014-07-23 19:11:34","country":{"isoCode":"DE","name":"GERMANY","displayName":"Germany","isoThree":"DEU","numberCode":276,"createDate":"2012-01-03 02:41:33"}},{"id":"jzO9Iv","name":"Main Brewery","streetAddress":"7 Selden St","locality":"Woodbridge","region":"Connecticut","postalCode":"06525","phone":"203-387-2222","website":"http://newenglandbrewing.com/","latitude":41.3389393,"longitude":-72.9816961,"isPrimary":"Y","inPlanning":"N","isClosed":"N","openToPublic":"Y","locationType":"micro","locationTypeDisplay":"Micro Brewery","countryIsoCode":"US","yearOpened":"2001","status":"verified","statusDisplay":"Verified","createDate":"2012-01-03 02:42:03","updateDate":"2014-07-23 19:11:34","country":{"isoCode":"US","name":"UNITED STATES","displayName":"United States","isoThree":"USA","numberCode":840,"createDate":"2012-01-03 02:41:33"}},{"id":"ufMjCE","name":"Main Brewery","streetAddress":"2050 Yavapai Dr.","locality":"Sedona","region":"Arizona","postalCode":"86336","phone":"(928) 204-1300","website":"http://oakcreekbrew.com/","hoursOfOperation":"Monday -Thursday 4pm - Close\r\nFriday - Sunday 12noon - Close","latitude":34.8663917,"longitude":-111.7961404,"isPrimary":"Y","inPlanning":"N","isClosed":"N","openToPublic":"Y","locationType":"micro","locationTypeDisplay":"Micro Brewery","countryIsoCode":"US","yearOpened":"2012","status":"verified","statusDisplay":"Verified","createDate":"2012-01-03 02:42:04","updateDate":"2014-07-23 19:11:34","country":{"isoCode":"US","name":"UNITED STATES","displayName":"United States","isoThree":"USA","numberCode":840,"createDate":"2012-01-03 02:41:33"}},{"id":"fbugAt","name":"Pub and Grill","streetAddress":"336 Rte. 179","locality":"Sedona","region":"Arizona","postalCode":"86336","phone":"(928) 282-3300","website":"http://www.oakcreekpub.com","hoursOfOperation":"Mon - Sun: 11:30 am - 8:30 pm","latitude":34.8623829,"longitude":-111.7621428,"isPrimary":"N","inPlanning":"N","isClosed":"N","openToPublic":"Y","locationType":"restaurant","locationTypeDisplay":"Restaurant/Ale House","countryIsoCode":"US","yearOpened":"2012","status":"verified","statusDisplay":"Verified","createDate":"2014-05-30 11:58:48","updateDate":"2014-07-23 19:11:34","country":{"isoCode":"US","name":"UNITED STATES","displayName":"United States","isoThree":"USA","numberCode":840,"createDate":"2012-01-03 02:41:33"}},{"id":"41WIHg","name":"Main Brewery","streetAddress":"600 South Croatan Hwy","locality":"Kill Devil Hills","region":"North Carolina","postalCode":"27948","phone":"252-449-2739","website":"http://obbrewing.com/","hoursOfOperation":"Open 7 days a week!\r\nMon – Thurs at 3:00 pm\r\nFri – Sun at 11:30 am\r\nBrunch on Sat and Sun til 4 pm","latitude":36.009996,"longitude":-75.658754,"isPrimary":"Y","inPlanning":"N","isClosed":"N","openToPublic":"Y","locationType":"brewpub","locationTypeDisplay":"Brewpub","countryIsoCode":"US","yearOpened":"2001","status":"verified","statusDisplay":"Verified","createDate":"2012-01-03 02:42:05","updateDate":"2014-07-23 19:11:34","country":{"isoCode":"US","name":"UNITED STATES","displayName":"United States","isoThree":"USA","numberCode":840,"createDate":"2012-01-03 02:41:33"}},{"id":"HL8tmh","name":"Main Brewery","streetAddress":"7107 East Mcdowell Road","locality":"Scottsdale","region":"Arizona","postalCode":"85257","phone":"(480) 425-7439","website":"http://www.papagobrewing.com/","hoursOfOperation":"Mon - Thu: 12:00 pm - 12:00 am\r\nFri - Sat: 12:00 pm - 2:00 am\r\nSun: 12:00 pm - 12:00 am","latitude":33.4655863,"longitude":-111.9279622,"isPrimary":"Y","inPlanning":"N","isClosed":"N","openToPublic":"Y","locationType":"micro","locationTypeDisplay":"Micro Brewery","countryIsoCode":"US","yearOpened":"2001","status":"verified","statusDisplay":"Verified","createDate":"2012-01-03 02:42:05","updateDate":"2014-07-23 19:11:34","country":{"isoCode":"US","name":"UNITED STATES","displayName":"United States","isoThree":"USA","numberCode":840,"createDate":"2012-01-03 02:41:33"}},{"id":"6yUJR9","name":"Main Brewery","streetAddress":"279 South Main Street","locality":"Winterport","region":"Maine","postalCode":"04496","phone":"207-223-4500","hoursOfOperation":"Tue - Sat: 11:00am - 5:00pm","latitude":44.634813,"longitude":-68.8472098,"isPrimary":"Y","inPlanning":"N","isClosed":"N","openToPublic":"Y","locationType":"micro","locationTypeDisplay":"Micro Brewery","countryIsoCode":"US","status":"verified","statusDisplay":"Verified","createDate":"2012-01-03 02:42:05","updateDate":"2014-07-23 19:11:34","country":{"isoCode":"US","name":"UNITED STATES","displayName":"United States","isoThree":"USA","numberCode":840,"createDate":"2012-01-03 02:41:33"}},{"id":"vTSRcK","name":"Main Brewery","streetAddress":"2010 Government St.","locality":"Victoria","region":"British Columbia","postalCode":"V8T 4P1","phone":"250 380-1912","hoursOfOperation":"Mon: 9am - 5pm\r\nTues-Thurs: 10am - 6pm\r\nFri: 10am - 7pm\r\nSat: 11am - 6pm","latitude":48.4326736,"longitude":-123.3673092,"isPrimary":"Y","inPlanning":"N","isClosed":"N","openToPublic":"Y","locationType":"micro","locationTypeDisplay":"Micro Brewery","countryIsoCode":"CA","yearOpened":"2001","status":"verified","statusDisplay":"Verified","createDate":"2013-02-18 15:06:45","updateDate":"2014-07-23 19:11:34","country":{"isoCode":"CA","name":"CANADA","displayName":"Canada","isoThree":"CAN","numberCode":124,"createDate":"2012-01-03 02:41:33"}},{"id":"lQbdZF","name":"Main Brewery","streetAddress":"1927 West North Avenue","locality":"Chicago","region":"Illinois","postalCode":"60622","phone":"773-772-4422","website":"http://www.piecechicago.com/","latitude":41.9104207,"longitude":-87.6761293,"isPrimary":"Y","inPlanning":"N","isClosed":"N","openToPublic":"Y","locationType":"brewpub","locationTypeDisplay":"Brewpub","countryIsoCode":"US","yearOpened":"2001","status":"verified","statusDisplay":"Verified","createDate":"2012-01-03 02:42:05","updateDate":"2014-07-23 19:11:34","country":{"isoCode":"US","name":"UNITED STATES","displayName":"United States","isoThree":"USA","numberCode":840,"createDate":"2012-01-03 02:41:33"}},{"id":"r1DgKQ","name":"Main Brewery","streetAddress":"1200 NC Hwy 211 East","locality":"Aberdeen","region":"North Carolina","postalCode":"28315","latitude":35.12637,"longitude":-79.420649,"isPrimary":"Y","inPlanning":"N","isClosed":"Y","openToPublic":"N","locationType":"micro","locationTypeDisplay":"Micro Brewery","countryIsoCode":"US","yearOpened":"1996","yearClosed":"2001","status":"verified","statusDisplay":"Verified","createDate":"2012-01-03 02:42:05","updateDate":"2014-07-23 19:11:34","country":{"isoCode":"US","name":"UNITED STATES","displayName":"United States","isoThree":"USA","numberCode":840,"createDate":"2012-01-03 02:41:33"}},{"id":"kWJGj9","name":"Production Facility","streetAddress":"1203 New Windsor Rd","locality":"Westminster","region":"Maryland","postalCode":"21158","phone":"410-848-3993","website":"http://www.pubdog.net/","latitude":39.556366,"longitude":-77.040959,"isPrimary":"Y","inPlanning":"N","isClosed":"N","openToPublic":"Y","locationType":"production","locationTypeDisplay":"Production Facility","countryIsoCode":"US","status":"verified","statusDisplay":"Verified","createDate":"2012-01-03 02:41:52","updateDate":"2014-07-23 19:11:34","country":{"isoCode":"US","name":"UNITED STATES","displayName":"United States","isoThree":"USA","numberCode":840,"createDate":"2012-01-03 02:41:33"}},{"id":"qPlWHN","name":"Federal Hill","streetAddress":"20 East Cross Street","locality":"Baltimore","region":"Maryland","postalCode":"21230","phone":"410-727-6077","website":"http://www.pubdog.net/federal_hill.html","hoursOfOperation":"Daily 5:00pm - 2:00am","latitude":39.276927,"longitude":-76.613478,"isPrimary":"N","inPlanning":"N","isClosed":"N","openToPublic":"Y","locationType":"restaurant","locationTypeDisplay":"Restaurant/Ale House","countryIsoCode":"US","yearOpened":"2001","status":"verified","statusDisplay":"Verified","createDate":"2012-07-21 16:25:20","updateDate":"2014-07-23 19:11:34","country":{"isoCode":"US","name":"UNITED STATES","displayName":"United States","isoThree":"USA","numberCode":840,"createDate":"2012-01-03 02:41:33"}},{"id":"SjUKQo","name":"Columbia","streetAddress":"8865 Stanford Boulevard","locality":"Columbia","region":"Maryland","postalCode":"21045","phone":"410-872-0364","website":"http://www.pubdog.net/columbia.html","hoursOfOperation":"Daily 11:00am - 2:00am","latitude":39.191673,"longitude":-76.817143,"isPrimary":"N","inPlanning":"N","isClosed":"N","openToPublic":"Y","locationType":"restaurant","locationTypeDisplay":"Restaurant/Ale House","countryIsoCode":"US","yearOpened":"2007","status":"verified","statusDisplay":"Verified","createDate":"2012-07-21 16:26:58","updateDate":"2014-07-23 19:11:34","country":{"isoCode":"US","name":"UNITED STATES","displayName":"United States","isoThree":"USA","numberCode":840,"createDate":"2012-01-03 02:41:33"}},{"id":"JBPFG4","name":"Main Brewery","streetAddress":"Arnoldstraße 3","locality":"73614","region":"Schorndorf","phone":"07181-484933","hoursOfOperation":"Monday - Thursday: 11:00 - Midnight\r\nFriday - Saturday: 11:00 - 1:00am\r\nSundays and public holidays: 11:00 - 11:00PM","latitude":48.80368,"longitude":9.52891,"isPrimary":"Y","inPlanning":"N","isClosed":"N","openToPublic":"Y","locationType":"brewpub","locationTypeDisplay":"Brewpub","countryIsoCode":"DE","yearOpened":"2001","status":"verified","statusDisplay":"Verified","createDate":"2012-08-07 21:01:53","updateDate":"2014-07-23 19:11:34","country":{"isoCode":"DE","name":"GERMANY","displayName":"Germany","isoThree":"DEU","numberCode":276,"createDate":"2012-01-03 02:41:33"}},{"id":"rZKcn7","name":"Main Brewery","streetAddress":"4150 Sycamore Dairy Road","locality":"Fayetteville","region":"North Carolina","postalCode":"28303","phone":"910-867-9223","website":"http://www.themashhouse.com/","hoursOfOperation":"DINING ROOM & PATIO\r\nSun:  12pm - 9pm\r\nMon-Thurs:  5pm - 10pm\r\nFri:  5pm - 11pm\r\nSat:  12pm - 11pm\r\n\r\nBAR\r\nMon-Fri:  4pm - 12am\r\nSat:  12pm - 12am\r\nSun:  12pm - 12am","latitude":35.0706848,"longitude":-78.954515,"isPrimary":"Y","inPlanning":"N","isClosed":"N","openToPublic":"Y","locationType":"brewpub","locationTypeDisplay":"Brewpub","countryIsoCode":"US","yearOpened":"2001","status":"verified","statusDisplay":"Verified","createDate":"2012-01-03 02:42:10","updateDate":"2014-07-23 19:11:34","country":{"isoCode":"US","name":"UNITED STATES","displayName":"United States","isoThree":"USA","numberCode":840,"createDate":"2012-01-03 02:41:33"}},{"id":"Tt3QwY","name":"Main Brewery","streetAddress":"140 Aspinall Ave","extendedAddress":"Suite 101","locality":"Hagåtña","region":"Guam","postalCode":"96910","phone":"671-472-2337","website":"http://www.greatdeepbrewing.com/","hoursOfOperation":"Monday - Thursday: 11:00am - 10:00pm\r\nFriday - Saturday: 11:00am - 11:00pm\r\nSunday: Closed","latitude":13.449525,"longitude":144.749847,"isPrimary":"Y","inPlanning":"N","isClosed":"N","openToPublic":"Y","locationType":"brewpub","locationTypeDisplay":"Brewpub","countryIsoCode":"GU","yearOpened":"2001","status":"verified","statusDisplay":"Verified","createDate":"2012-01-03 02:42:10","updateDate":"2014-07-23 19:11:34","country":{"isoCode":"GU","name":"GUAM","displayName":"Guam","isoThree":"GUM","numberCode":316,"createDate":"2012-01-03 02:41:33"}},{"id":"aZPZsP","name":"Main Brewery","locality":"Cincinnati","region":"Ohio","latitude":39.1031182,"longitude":-84.5120196,"isPrimary":"Y","inPlanning":"N","isClosed":"N","openToPublic":"N","locationType":"office","locationTypeDisplay":"Office","countryIsoCode":"US","status":"verified","statusDisplay":"Verified","createDate":"2014-10-07 16:05:09","updateDate":"2014-10-07 16:05:09","country":{"isoCode":"US","name":"UNITED STATES","displayName":"United States","isoThree":"USA","numberCode":840,"createDate":"2012-01-03 02:41:33"}}]