[{"id":"8Xa3ue","name":"Main Brewery","streetAddress":"135 Magnolia Dr","extendedAddress":"#6101","locality":"San Antonio","region":"Texas","postalCode":"78212","phone":"210-872-5589","website":"http://www.alamobeer.com/","latitude":29.453234,"longitude":-98.478967,"isPrimary":"Y","inPlanning":"N","isClosed":"N","openToPublic":"N","locationType":"production","locationTypeDisplay":"Production Facility","countryIsoCode":"US","yearOpened":"2002","status":"verified","statusDisplay":"Verified","createDate":"2012-01-03 02:41:43","updateDate":"2014-07-23 19:11:34","country":{"isoCode":"US","name":"UNITED STATES","displayName":"United States","isoThree":"USA","numberCode":840,"createDate":"2012-01-03 02:41:33"}},{"id":"AfyZtJ","name":"Main Brewery","streetAddress":"2351 Alpine Boulevard","locality":"Alpine","region":"California","postalCode":"91901","phone":"619-445-2337","website":"http://www.alpinebeerco.com/","hoursOfOperation":"Tue:  12:00pm - 6:00pm, 11:00am - 10:00pm\nWed:  12:00pm - 6:00pm, 11:00am - 10:00pm\nThu:  12:00pm - 6:00pm, 11:00am - 10:00pm\nFri:  12:00pm - 6:00pm, 11:00am - 12:00am\nSat:  12:00pm - 6:00pm, 11:00am - 12:00am\nSun:  12:00pm - 9:00pm\n\nBrewery Hours:\r\nTues-Sat Noon-6pm\r\n\r\nPub Hours:\r\nTues-Thurs 11am-10pm\r\nFri/Sat 11am-Midnight\r\nSun Noon-9pm","latitude":32.8352225,"longitude":-116.7628953,"isPrimary":"Y","inPlanning":"N","isClosed":"N","openToPublic":"Y","locationType":"micro","locationTypeDisplay":"Micro Brewery","countryIsoCode":"US","yearOpened":"2002","status":"verified","statusDisplay":"Verified","createDate":"2012-01-03 02:41:44","updateDate":"2014-08-25 19:12:37","country":{"isoCode":"US","name":"UNITED STATES","displayName":"United States","isoThree":"USA","numberCode":840,"createDate":"2012-01-03 02:41:33"}},{"id":"3lXWKH","name":"Main Brewery","streetAddress":"136 East Second Street","locality":"Salida","region":"Colorado","postalCode":"81201","phone":"719-539-5219","website":"http://www.amicassalida.com/","latitude":38.535016,"longitude":-105.991877,"isPrimary":"Y","inPlanning":"N","isClosed":"N","openToPublic":"Y","locationType":"micro","locationTypeDisplay":"Micro Brewery","countryIsoCode":"US","yearOpened":"2002","status":"verified","statusDisplay":"Verified","createDate":"2012-01-03 02:41:44","updateDate":"2014-07-23 19:11:34","country":{"isoCode":"US","name":"UNITED STATES","displayName":"United States","isoThree":"USA","numberCode":840,"createDate":"2012-01-03 02:41:33"}},{"id":"tWHPRC","name":"Main Brewery","extendedAddress":"P.O. Box 315","locality":"Blacksburg","region":"Virginia","postalCode":"24063","phone":"540-382-3212","website":"http://www.blacksburgbrewing.com/","latitude":37.226263,"longitude":-80.410584,"isPrimary":"Y","inPlanning":"N","isClosed":"N","openToPublic":"Y","locationType":"micro","locationTypeDisplay":"Micro Brewery","countryIsoCode":"US","yearOpened":"2002","status":"verified","statusDisplay":"Verified","createDate":"2012-01-03 02:41:46","updateDate":"2014-07-23 19:11:34","country":{"isoCode":"US","name":"UNITED STATES","displayName":"United States","isoThree":"USA","numberCode":840,"createDate":"2012-01-03 02:41:33"}},{"id":"OvZA1b","name":"Main Brewery","streetAddress":"3321 Dill Smith Dr","extendedAddress":"Bowman Center","locality":"Fredericksburg","region":"Virginia","phone":"540-371-7799","website":"http://www.blueandgraybrewingco.com/","latitude":38.30089,"longitude":-77.459144,"isPrimary":"Y","inPlanning":"N","isClosed":"N","openToPublic":"Y","locationType":"micro","locationTypeDisplay":"Micro Brewery","countryIsoCode":"US","yearOpened":"2002","status":"verified","statusDisplay":"Verified","createDate":"2012-01-03 02:41:46","updateDate":"2014-07-23 19:11:34","country":{"isoCode":"US","name":"UNITED STATES","displayName":"United States","isoThree":"USA","numberCode":840,"createDate":"2012-01-03 02:41:33"}},{"id":"EYuZg3","name":"Main Brewery","streetAddress":"4 Main Street","locality":"Bristol","region":"Vermont","postalCode":"05443","phone":"(802) 453-3311","website":"http://www.bobcatcafe.com/","hoursOfOperation":"Bar opens daily at 4pm\r\n\r\nSunday - Thursday\r\n5:00 PM - 9:00 PM\r\n\r\nFriday - Saturday\r\n5:00 PM - 9:30 PM","latitude":44.1331567,"longitude":-73.0784259,"isPrimary":"Y","inPlanning":"N","isClosed":"N","openToPublic":"Y","locationType":"brewpub","locationTypeDisplay":"Brewpub","countryIsoCode":"US","status":"verified","statusDisplay":"Verified","createDate":"2012-01-03 02:41:47","updateDate":"2014-09-26 13:03:14","country":{"isoCode":"US","name":"UNITED STATES","displayName":"United States","isoThree":"USA","numberCode":840,"createDate":"2012-01-03 02:41:33"}},{"id":"cVsZlm","name":"Main Brewery","streetAddress":"Avenida Carrera 72 # 80-94","extendedAddress":"Centro Comercial Titán Plaza  Local 3-58","locality":"Bogotá","region":"Cundinamarca","website":"http://bogotabeercompany.com/","latitude":5.026003,"longitude":-74.0300122,"isPrimary":"Y","inPlanning":"N","isClosed":"N","openToPublic":"Y","locationType":"micro","locationTypeDisplay":"Micro Brewery","countryIsoCode":"CO","status":"verified","statusDisplay":"Verified","createDate":"2014-11-13 18:25:56","updateDate":"2014-11-13 18:25:56","country":{"isoCode":"CO","name":"COLOMBIA","displayName":"Colombia","isoThree":"COL","numberCode":170,"createDate":"2012-01-03 02:41:33"}},{"id":"TACnR2","name":"Main Brewery","streetAddress":"Rostocker Straße 33","locality":"Neubrandenburg","region":"Mecklenburg-Vorpommern","postalCode":"D-17033","latitude":53.558463,"longitude":13.246158,"isPrimary":"N","inPlanning":"N","isClosed":"N","openToPublic":"Y","locationType":"micro","locationTypeDisplay":"Micro Brewery","countryIsoCode":"DE","status":"verified","statusDisplay":"Verified","createDate":"2012-08-12 14:47:35","updateDate":"2014-07-23 19:11:34","country":{"isoCode":"DE","name":"GERMANY","displayName":"Germany","isoThree":"DEU","numberCode":276,"createDate":"2012-01-03 02:41:33"}},{"id":"YwkMHV","name":"Main Brewery","streetAddress":"Wilhelm-Baur-Straße 3a","locality":"Karlsruhe","region":"Baden-Württemberg","postalCode":"D-76135","latitude":49.018225,"longitude":8.414965,"isPrimary":"N","inPlanning":"N","isClosed":"N","openToPublic":"Y","locationType":"micro","locationTypeDisplay":"Micro Brewery","countryIsoCode":"DE","status":"verified","statusDisplay":"Verified","createDate":"2012-08-12 14:46:09","updateDate":"2014-07-23 19:11:34","country":{"isoCode":"DE","name":"GERMANY","displayName":"Germany","isoThree":"DEU","numberCode":276,"createDate":"2012-01-03 02:41:33"}},{"id":"mqdIn6","name":"Main Brewery","streetAddress":"120 East Third Street","locality":"Grand Island","region":"Nebraska","postalCode":"68801","latitude":40.9261005,"longitude":-98.339348,"isPrimary":"Y","inPlanning":"N","isClosed":"Y","openToPublic":"Y","locationType":"micro","locationTypeDisplay":"Micro Brewery","countryIsoCode":"US","yearOpened":"2002","status":"verified","statusDisplay":"Verified","createDate":"2012-01-03 02:41:51","updateDate":"2014-07-23 19:11:34","country":{"isoCode":"US","name":"UNITED STATES","displayName":"United States","isoThree":"USA","numberCode":840,"createDate":"2012-01-03 02:41:33"}},{"id":"IBO0kg","name":"Main Brewery","streetAddress":"5200 Denver Ave. S","locality":"Seattle","region":"Washington","postalCode":"98108","phone":"206-766-8055","website":"http://www.georgetownbeer.com/","hoursOfOperation":"Monday to Friday 10am to 6pm\r\nSaturday 10am to 4pm","latitude":47.555477,"longitude":-122.326707,"isPrimary":"Y","inPlanning":"N","isClosed":"N","openToPublic":"Y","locationType":"micro","locationTypeDisplay":"Micro Brewery","countryIsoCode":"US","yearOpened":"2002","status":"verified","statusDisplay":"Verified","createDate":"2012-01-03 02:41:55","updateDate":"2014-07-23 19:11:34","country":{"isoCode":"US","name":"UNITED STATES","displayName":"United States","isoThree":"USA","numberCode":840,"createDate":"2012-01-03 02:41:33"}},{"id":"QX2Ya2","name":"Main Brewery","streetAddress":"25 Centennial Rd","locality":"Orangeville","region":"Ontario","postalCode":"L9W 1R1","phone":"519-941-8887","website":"http://www.hockleybeer.ca/","latitude":43.9128271,"longitude":-80.1075394,"isPrimary":"Y","inPlanning":"N","isClosed":"N","openToPublic":"Y","locationType":"micro","locationTypeDisplay":"Micro Brewery","countryIsoCode":"CA","yearOpened":"2002","status":"verified","statusDisplay":"Verified","createDate":"2012-01-03 02:41:57","updateDate":"2014-07-23 19:11:34","country":{"isoCode":"CA","name":"CANADA","displayName":"Canada","isoThree":"CAN","numberCode":124,"createDate":"2012-01-03 02:41:33"}},{"id":"XwFL1P","name":"Main Brewery","streetAddress":"Ribbeckstr. 6–7","locality":"Potsdam","region":"Brandenburg","postalCode":"14469","latitude":52.408463,"longitude":13.030178,"isPrimary":"N","inPlanning":"N","isClosed":"N","openToPublic":"Y","locationType":"micro","locationTypeDisplay":"Micro Brewery","countryIsoCode":"DE","status":"verified","statusDisplay":"Verified","createDate":"2012-08-12 14:47:17","updateDate":"2014-07-23 19:11:34","country":{"isoCode":"DE","name":"GERMANY","displayName":"Germany","isoThree":"DEU","numberCode":276,"createDate":"2012-01-03 02:41:33"}},{"id":"8w98Mz","name":"Main Brewery","streetAddress":"Massenerstr. 33-35","locality":"Unna","region":"Nordrhein-Westfalen","postalCode":"59423","latitude":51.534498,"longitude":7.685113,"isPrimary":"N","inPlanning":"N","isClosed":"N","openToPublic":"Y","locationType":"micro","locationTypeDisplay":"Micro Brewery","countryIsoCode":"DE","status":"verified","statusDisplay":"Verified","createDate":"2012-08-12 14:47:31","updateDate":"2014-07-23 19:11:34","country":{"isoCode":"DE","name":"GERMANY","displayName":"Germany","isoThree":"DEU","numberCode":276,"createDate":"2012-01-03 02:41:33"}},{"id":"35YJeP","name":"Main Brewery","streetAddress":"55 Mill Street","extendedAddress":"Building 63","locality":"Toronto","region":"Ontario","postalCode":"M5A 3C4","phone":"416-759-6565","website":"http://www.millstreetbrewery.com/","latitude":43.6507179,"longitude":-79.3580246,"isPrimary":"Y","inPlanning":"N","isClosed":"N","openToPublic":"Y","locationType":"micro","locationTypeDisplay":"Micro Brewery","countryIsoCode":"CA","yearOpened":"2002","status":"verified","statusDisplay":"Verified","createDate":"2012-01-03 02:42:02","updateDate":"2014-07-23 19:11:34","country":{"isoCode":"CA","name":"CANADA","displayName":"Canada","isoThree":"CAN","numberCode":124,"createDate":"2012-01-03 02:41:33"}},{"id":"8gAMPa","name":"Main Brewpub","streetAddress":"500 Commercial Street","locality":"Manchester","region":"New Hampshire","postalCode":"03101","phone":"603-625-4444","website":"http://millystavern.com/","hoursOfOperation":"Mon - Thu: 11:00 am - 11:00 pm\r\nFri - Sat: 11:00 am - 1:00 am\r\nSun: 11:00 am - 6:00 pm","latitude":42.9940958,"longitude":-71.467279,"isPrimary":"Y","inPlanning":"N","isClosed":"N","openToPublic":"Y","locationType":"brewpub","locationTypeDisplay":"Brewpub","countryIsoCode":"US","yearOpened":"2002","status":"verified","statusDisplay":"Verified","createDate":"2012-01-03 02:42:02","updateDate":"2014-09-26 13:37:15","country":{"isoCode":"US","name":"UNITED STATES","displayName":"United States","isoThree":"USA","numberCode":840,"createDate":"2012-01-03 02:41:33"}},{"id":"TinWeR","name":"Main Brewery","streetAddress":"110 Wisconsin Dells Parkway South","locality":"Wisconsin Dells","region":"Wisconsin","postalCode":"53965","phone":"(608) 254-1122","website":"http://www.DellsMoosejaw.com/","hoursOfOperation":"Mon - Thu: 11:00 am - 10:30 pm\r\nFri - Sat: 11:00 am - 11:00 pm\r\nSun: 11:00 am - 10:30 pm","latitude":43.589156,"longitude":-89.7935186,"isPrimary":"Y","inPlanning":"N","isClosed":"N","openToPublic":"Y","locationType":"micro","locationTypeDisplay":"Micro Brewery","countryIsoCode":"US","yearOpened":"2002","status":"verified","statusDisplay":"Verified","createDate":"2012-01-03 02:42:02","updateDate":"2014-07-23 19:11:34","country":{"isoCode":"US","name":"UNITED STATES","displayName":"United States","isoThree":"USA","numberCode":840,"createDate":"2012-01-03 02:41:33"}},{"id":"XYOIqp","name":"Main Brewery","streetAddress":"Schönbrunnstraße 1","locality":"Dresden","postalCode":"01097","latitude":51.067919,"longitude":13.73981,"isPrimary":"Y","inPlanning":"N","isClosed":"N","openToPublic":"Y","locationType":"micro","locationTypeDisplay":"Micro Brewery","countryIsoCode":"DE","status":"verified","statusDisplay":"Verified","createDate":"2012-08-16 14:18:27","updateDate":"2014-07-23 19:11:34","country":{"isoCode":"DE","name":"GERMANY","displayName":"Germany","isoThree":"DEU","numberCode":276,"createDate":"2012-01-03 02:41:33"}},{"id":"253IOJ","name":"Main Brewery","streetAddress":"3312 Plaza Drive","locality":"New Albany","region":"Indiana","postalCode":"47150","phone":"812-949-2804","website":"http://www.newalbanian.com/","latitude":38.32809,"longitude":-85.817146,"isPrimary":"Y","inPlanning":"N","isClosed":"N","openToPublic":"Y","locationType":"micro","locationTypeDisplay":"Micro Brewery","countryIsoCode":"US","yearOpened":"2002","status":"verified","statusDisplay":"Verified","createDate":"2012-01-03 02:42:03","updateDate":"2014-07-23 19:11:34","country":{"isoCode":"US","name":"UNITED STATES","displayName":"United States","isoThree":"USA","numberCode":840,"createDate":"2012-01-03 02:41:33"}},{"id":"7APpWR","name":"Main Brewery","streetAddress":"Gamle Rygene Kraftstasjon","locality":"Lunde","region":"Grimstad","postalCode":"N-4885","phone":"+47 37 25 74 00","website":"http://www.nogne-o.com/","latitude":58.391579,"longitude":8.635219,"isPrimary":"Y","inPlanning":"N","isClosed":"N","openToPublic":"Y","locationType":"micro","locationTypeDisplay":"Micro Brewery","countryIsoCode":"NO","status":"verified","statusDisplay":"Verified","createDate":"2012-01-03 02:42:04","updateDate":"2014-07-23 19:11:34","country":{"isoCode":"NO","name":"NORWAY","displayName":"Norway","isoThree":"NOR","numberCode":578,"createDate":"2012-01-03 02:41:33"}},{"id":"ULRVjx","name":"Main Brewery","streetAddress":"308 N. Main Street","locality":"Mount Airy","region":"North Carolina","postalCode":"27030","phone":"336-789-9463","website":"http://www.oldnorthstatewinery.com/","hoursOfOperation":"Tours Monday thru Saturday typically at 11:00 am, 1:00 pm and 3:00 pm or by special appointments","latitude":36.501921,"longitude":-80.608282,"isPrimary":"Y","inPlanning":"N","isClosed":"N","openToPublic":"Y","locationType":"micro","locationTypeDisplay":"Micro Brewery","countryIsoCode":"US","yearOpened":"2002","status":"verified","statusDisplay":"Verified","createDate":"2012-01-03 02:42:04","updateDate":"2014-07-23 19:11:34","country":{"isoCode":"US","name":"UNITED STATES","displayName":"United States","isoThree":"USA","numberCode":840,"createDate":"2012-01-03 02:41:33"}},{"id":"NkKRig","name":"Main Brewery","streetAddress":"10107 Bridgewater Parkway","locality":"St. Paul","region":"Minnesota","postalCode":"55129","phone":"651-734-1661","website":"http://www.pigseyebeer.com/","latitude":44.922333,"longitude":-92.901392,"isPrimary":"Y","inPlanning":"N","isClosed":"N","openToPublic":"Y","locationType":"micro","locationTypeDisplay":"Micro Brewery","countryIsoCode":"US","yearOpened":"2002","status":"verified","statusDisplay":"Verified","createDate":"2012-01-03 02:42:05","updateDate":"2014-07-23 19:11:34","country":{"isoCode":"US","name":"UNITED STATES","displayName":"United States","isoThree":"USA","numberCode":840,"createDate":"2012-01-03 02:41:33"}},{"id":"oNZeii","name":"Main Brewery","streetAddress":"5775 Lower Mountain Road","locality":"Lahaska","region":"Pennsylvania","postalCode":"18931","phone":"215-794-9373","website":"http://www.porterhousepub.com/","latitude":40.3341011,"longitude":-75.0120356,"isPrimary":"Y","inPlanning":"N","isClosed":"Y","openToPublic":"Y","locationType":"brewpub","locationTypeDisplay":"Brewpub","countryIsoCode":"US","yearOpened":"2002","status":"verified","statusDisplay":"Verified","createDate":"2012-01-03 02:42:06","updateDate":"2014-07-23 19:11:34","country":{"isoCode":"US","name":"UNITED STATES","displayName":"United States","isoThree":"USA","numberCode":840,"createDate":"2012-01-03 02:41:33"}},{"id":"mrp7pZ","name":"Main Brewery","streetAddress":"131 E 1st St","locality":"Cloverdale","region":"California","postalCode":"95425","phone":"707-894-9610","website":"http://www.ruthmcgowansbrewpub.com/","latitude":38.8055866,"longitude":-123.0159168,"isPrimary":"Y","inPlanning":"N","isClosed":"N","openToPublic":"Y","locationType":"brewpub","locationTypeDisplay":"Brewpub","countryIsoCode":"US","status":"verified","statusDisplay":"Verified","createDate":"2012-01-03 02:42:07","updateDate":"2014-07-23 19:11:34","country":{"isoCode":"US","name":"UNITED STATES","displayName":"United States","isoThree":"USA","numberCode":840,"createDate":"2012-01-03 02:41:33"}},{"id":"nUT6v5","name":"Main Brewery","streetAddress":"2072 Stoneman Circle","locality":"Lakewood","region":"New York","postalCode":"14750","phone":"716-763-5479","website":"http://www.southerntierbrewing.com/","latitude":42.1008305,"longitude":-79.3356897,"isPrimary":"Y","inPlanning":"N","isClosed":"N","openToPublic":"Y","locationType":"micro","locationTypeDisplay":"Micro Brewery","countryIsoCode":"US","yearOpened":"2002","status":"verified","statusDisplay":"Verified","createDate":"2012-01-03 02:42:08","updateDate":"2014-10-27 14:23:02","country":{"isoCode":"US","name":"UNITED STATES","displayName":"United States","isoThree":"USA","numberCode":840,"createDate":"2012-01-03 02:41:33"}},{"id":"bIk08d","name":"Main Brewery","streetAddress":"160 Flynn Ave","locality":"Burlington","region":"Vermont","postalCode":"05401","phone":"802-651-4114","hoursOfOperation":"Mon: 6:00 pm - 7:00 pm\r\nTue: 10:00 am - 3:00 pm\r\nWed: 4:00 pm - 5:00 pm\r\nThu: 7:00 am - 8:00 am, 2:00 pm - 6:00 pm\r\nFri - Sat: 11:00 am - 7:00 pm\r\n\r\nFREE TOURS EVERY SATURDAY AT 1 and 2PM!","latitude":44.45566,"longitude":-73.219521,"isPrimary":"Y","inPlanning":"N","isClosed":"N","openToPublic":"Y","locationType":"micro","locationTypeDisplay":"Micro Brewery","countryIsoCode":"US","yearOpened":"2002","status":"verified","statusDisplay":"Verified","createDate":"2012-01-03 02:42:09","updateDate":"2014-07-23 19:11:34","country":{"isoCode":"US","name":"UNITED STATES","displayName":"United States","isoThree":"USA","numberCode":840,"createDate":"2012-01-03 02:41:33"}},{"id":"lA94r8","name":"Main Brewery","streetAddress":"265 Newton Bridge Road","locality":"Athens","region":"Georgia","postalCode":"30606","phone":"888-557-2337","website":"http://www.terrapinbeer.com/","latitude":33.9804178,"longitude":-83.3956826,"isPrimary":"Y","inPlanning":"N","isClosed":"N","openToPublic":"Y","locationType":"micro","locationTypeDisplay":"Micro Brewery","countryIsoCode":"US","yearOpened":"2002","status":"verified","statusDisplay":"Verified","createDate":"2012-01-03 02:42:09","updateDate":"2014-07-23 19:11:34","country":{"isoCode":"US","name":"UNITED STATES","displayName":"United States","isoThree":"USA","numberCode":840,"createDate":"2012-01-03 02:41:33"}},{"id":"ryNU0A","name":"Main Brewpub","streetAddress":"Lindenplatz 1","locality":"Vielank","region":"Mecklenburg-Vorpommern","postalCode":"19303","latitude":53.234773,"longitude":11.139132,"isPrimary":"Y","inPlanning":"N","isClosed":"N","openToPublic":"Y","locationType":"brewpub","locationTypeDisplay":"Brewpub","countryIsoCode":"DE","status":"verified","statusDisplay":"Verified","createDate":"2012-08-13 01:28:19","updateDate":"2014-07-23 19:11:34","country":{"isoCode":"DE","name":"GERMANY","displayName":"Germany","isoThree":"DEU","numberCode":276,"createDate":"2012-01-03 02:41:33"}},{"id":"fgvVYQ","name":"Main Brewery","streetAddress":"674 S Whitney Way","locality":"Madison","region":"Wisconsin","postalCode":"53719","phone":"608-204-2739","website":"http://vintagebrewingcompany.com/","hoursOfOperation":"Mon - Sun: 11:00 am - 2:00 am","latitude":43.052617,"longitude":-89.4736357,"isPrimary":"Y","inPlanning":"N","isClosed":"N","openToPublic":"Y","locationType":"brewpub","locationTypeDisplay":"Brewpub","countryIsoCode":"US","yearOpened":"2002","status":"verified","statusDisplay":"Verified","createDate":"2012-01-03 02:42:12","updateDate":"2014-07-23 19:11:34","country":{"isoCode":"US","name":"UNITED STATES","displayName":"United States","isoThree":"USA","numberCode":840,"createDate":"2012-01-03 02:41:33"}},{"id":"wMYzPx","name":"Main Brewery","streetAddress":"1038 Lafayette Avenue","locality":"Columbus","region":"Indiana","postalCode":"47201","phone":"(812) 376-0200","website":"http://zwanzigz.com/","latitude":39.208824,"longitude":-85.918753,"isPrimary":"Y","inPlanning":"N","isClosed":"N","openToPublic":"Y","locationType":"micro","locationTypeDisplay":"Micro Brewery","countryIsoCode":"US","status":"verified","statusDisplay":"Verified","createDate":"2012-09-28 15:12:06","updateDate":"2014-07-23 19:11:34","country":{"isoCode":"US","name":"UNITED STATES","displayName":"United States","isoThree":"USA","numberCode":840,"createDate":"2012-01-03 02:41:33"}}]