[{"id":"YrVHMv","name":"Main Brewery","streetAddress":"3512 Clinton Parkway","locality":"Lawrence","region":"Kansas","postalCode":"66047","phone":"785-856-2337","website":"http://www.brew23.com/","latitude":38.9429919,"longitude":-95.280903,"isPrimary":"Y","inPlanning":"N","isClosed":"N","openToPublic":"Y","locationType":"brewpub","locationTypeDisplay":"Brewpub","countryIsoCode":"US","status":"verified","statusDisplay":"Verified","createDate":"2012-01-03 02:41:43","updateDate":"2014-07-23 19:11:34","country":{"isoCode":"US","name":"UNITED STATES","displayName":"United States","isoThree":"USA","numberCode":840,"createDate":"2012-01-03 02:41:33"}},{"id":"9tminR","name":"Main Brewery","streetAddress":"1 Theobald Street","locality":"Thornbury","region":"Victoria","postalCode":"3071","phone":"+613 9495 1026","website":"http://www.3ravens.com.au/","hoursOfOperation":"Fri:  2:00pm - 8:00pm\n\n","latitude":-37.755777,"longitude":145.026887,"isPrimary":"Y","inPlanning":"N","isClosed":"N","openToPublic":"Y","locationType":"micro","locationTypeDisplay":"Micro Brewery","countryIsoCode":"AU","yearOpened":"2003","status":"verified","statusDisplay":"Verified","createDate":"2012-01-05 15:01:53","updateDate":"2014-07-23 19:38:24","country":{"isoCode":"AU","name":"AUSTRALIA","displayName":"Australia","isoThree":"AUS","numberCode":36,"createDate":"2012-01-03 02:41:33"}},{"id":"MMSB2i","name":"Main Brewery","streetAddress":"500 S Ohio Ave","locality":"Sedalia","region":"Missouri","postalCode":"65301","website":"http://www.5thstreetbrewpub.com/","latitude":38.7068514,"longitude":-93.2284051,"isPrimary":"Y","inPlanning":"N","isClosed":"Y","openToPublic":"Y","locationType":"brewpub","locationTypeDisplay":"Brewpub","countryIsoCode":"US","yearOpened":"2003","yearClosed":"2010","status":"verified","statusDisplay":"Verified","createDate":"2012-01-03 02:41:43","updateDate":"2014-08-20 20:34:33","country":{"isoCode":"US","name":"UNITED STATES","displayName":"United States","isoThree":"USA","numberCode":840,"createDate":"2012-01-03 02:41:33"}},{"id":"PkqhUA","name":"Main Brewery","streetAddress":"Unit 3 Aldham Industrial Estate Mitchell Road","locality":"Wombwell","region":"Barnsley","postalCode":"S73 8HA","phone":"01226 270734","latitude":53.5331726,"longitude":-1.4124447,"isPrimary":"Y","inPlanning":"N","isClosed":"N","openToPublic":"Y","locationType":"micro","locationTypeDisplay":"Micro Brewery","countryIsoCode":"GB","yearOpened":"2003","status":"verified","statusDisplay":"Verified","createDate":"2012-12-21 17:24:31","updateDate":"2014-07-23 19:11:34","country":{"isoCode":"GB","name":"UNITED KINGDOM","displayName":"United Kingdom","isoThree":"GBR","numberCode":826,"createDate":"2012-01-03 02:41:33"}},{"id":"stdQLg","name":"Main Brewery","streetAddress":"302 North Plainview Avenue","locality":"Mankato","region":"Minnesota","postalCode":"56001","latitude":44.162855,"longitude":-93.9710637,"isPrimary":"Y","inPlanning":"N","isClosed":"Y","openToPublic":"Y","locationType":"micro","locationTypeDisplay":"Micro Brewery","countryIsoCode":"US","yearOpened":"2003","status":"verified","statusDisplay":"Verified","createDate":"2012-01-03 02:41:45","updateDate":"2014-07-23 19:11:34","country":{"isoCode":"US","name":"UNITED STATES","displayName":"United States","isoThree":"USA","numberCode":840,"createDate":"2012-01-03 02:41:33"}},{"id":"6dUi6D","name":"Das Kleine Brauhaus","streetAddress":"Lautenberg 1","locality":"Ulm","region":"Baden-Wrttemberg","phone":"49-(0)731-/-6021110","website":"http://www.barfuesser-brauhaus.de/","latitude":48.39791,"longitude":9.98986,"isPrimary":"Y","inPlanning":"N","isClosed":"N","openToPublic":"N","locationType":"micro","locationTypeDisplay":"Micro Brewery","countryIsoCode":"DE","yearOpened":"2003","status":"verified","statusDisplay":"Verified","createDate":"2012-01-03 02:42:14","updateDate":"2014-07-23 19:11:34","country":{"isoCode":"DE","name":"GERMANY","displayName":"Germany","isoThree":"DEU","numberCode":276,"createDate":"2012-01-03 02:41:33"}},{"id":"TtXDhG","name":"Main Brewery","streetAddress":"1605 S 93rd Building E","extendedAddress":"Unit L","locality":"Seattle","region":"Washington","postalCode":"98108","phone":"206.764.1213","website":"http://www.baronbeer.com/","latitude":47.520289,"longitude":-122.3124918,"isPrimary":"Y","inPlanning":"N","isClosed":"N","openToPublic":"Y","locationType":"micro","locationTypeDisplay":"Micro Brewery","countryIsoCode":"US","yearOpened":"2003","status":"verified","statusDisplay":"Verified","createDate":"2012-01-03 02:41:45","updateDate":"2014-07-23 19:11:34","country":{"isoCode":"US","name":"UNITED STATES","displayName":"United States","isoThree":"USA","numberCode":840,"createDate":"2012-01-03 02:41:33"}},{"id":"r4Ytum","name":"Main Brewery","streetAddress":"9070 Route 89","locality":"Trumansburg","region":"New York","postalCode":"14886","phone":"607-387-9464","website":"http://cidery.com/","hoursOfOperation":"Open Year Round\r\n\r\nNovember-February:\r\nM-Sat 10:30am-5:00pm Sun 12:00pm-5:00pm\r\n\r\nMarch-October:\r\nM-Sat 10:30am-5:30pm Sun 12:00pm-5:30pm\r\n\r\nClosed New Year's Day, Easter, Thanksgiving, Christmas Eve, and Christmas Day. \r\n\r\nWE REQUIRE ADVANCE RESERVATIONS FOR GROUPS OF 10 OR MORE.","latitude":42.5640104,"longitude":-76.6479052,"isPrimary":"Y","inPlanning":"N","isClosed":"N","openToPublic":"Y","locationType":"micro","locationTypeDisplay":"Micro Brewery","countryIsoCode":"US","yearOpened":"2003","status":"verified","statusDisplay":"Verified","createDate":"2012-01-03 02:41:45","updateDate":"2014-07-23 19:11:34","country":{"isoCode":"US","name":"UNITED STATES","displayName":"United States","isoThree":"USA","numberCode":840,"createDate":"2012-01-03 02:41:33"}},{"id":"mNlREz","name":"Main Brewpub","streetAddress":"Hauptstraße 23 A","locality":"Bennigsen","region":"Lower Saxony","postalCode":"31832","latitude":52.207415,"longitude":9.55567,"isPrimary":"Y","inPlanning":"N","isClosed":"N","openToPublic":"Y","locationType":"brewpub","locationTypeDisplay":"Brewpub","countryIsoCode":"DE","status":"verified","statusDisplay":"Verified","createDate":"2012-08-13 01:22:51","updateDate":"2014-07-23 19:11:34","country":{"isoCode":"DE","name":"GERMANY","displayName":"Germany","isoThree":"DEU","numberCode":276,"createDate":"2012-01-03 02:41:33"}},{"id":"fvEfie","name":"Main Brewery","streetAddress":"Viale Fasano 36/bis","region":"Chieri (TO)","postalCode":"10023","phone":"+39 011 9473236","website":"http://www.gradoplato.it/","latitude":45.0111916,"longitude":7.8160005,"isPrimary":"Y","inPlanning":"N","isClosed":"N","openToPublic":"Y","locationType":"micro","locationTypeDisplay":"Micro Brewery","countryIsoCode":"IT","status":"verified","statusDisplay":"Verified","createDate":"2014-07-09 14:17:31","updateDate":"2014-07-23 19:11:34","country":{"isoCode":"IT","name":"ITALY","displayName":"Italy","isoThree":"ITA","numberCode":380,"createDate":"2012-01-03 02:41:33"}},{"id":"CaIBEn","name":"Main Brewery","streetAddress":"Auf der Lache 4","locality":"Fritzlar","region":"Hesse","postalCode":"34560","latitude":51.121922,"longitude":9.276997,"isPrimary":"N","inPlanning":"N","isClosed":"N","openToPublic":"Y","locationType":"micro","locationTypeDisplay":"Micro Brewery","countryIsoCode":"DE","status":"verified","statusDisplay":"Verified","createDate":"2012-08-12 14:45:56","updateDate":"2014-07-23 19:11:34","country":{"isoCode":"DE","name":"GERMANY","displayName":"Germany","isoThree":"DEU","numberCode":276,"createDate":"2012-01-03 02:41:33"}},{"id":"hIOu6r","name":"Main Brewery","streetAddress":"Sebastian-Kneipp Straße 6","locality":"Bad Gottleuba-Berggießhübel","region":"Sachsen","postalCode":"D-01818","latitude":50.928181,"longitude":13.45681,"isPrimary":"N","inPlanning":"N","isClosed":"N","openToPublic":"Y","locationType":"micro","locationTypeDisplay":"Micro Brewery","countryIsoCode":"DE","status":"verified","statusDisplay":"Verified","createDate":"2012-08-12 14:48:10","updateDate":"2014-07-23 19:11:34","country":{"isoCode":"DE","name":"GERMANY","displayName":"Germany","isoThree":"DEU","numberCode":276,"createDate":"2012-01-03 02:41:33"}},{"id":"QWYlpK","name":"Main Brewery","streetAddress":"Templiner Straße 102","locality":"Potsdam","region":"Brandenburg","postalCode":"14473","latitude":52.383877,"longitude":13.074271,"isPrimary":"N","inPlanning":"N","isClosed":"N","openToPublic":"Y","locationType":"micro","locationTypeDisplay":"Micro Brewery","countryIsoCode":"DE","status":"verified","statusDisplay":"Verified","createDate":"2012-08-12 14:48:01","updateDate":"2014-07-23 19:11:34","country":{"isoCode":"DE","name":"GERMANY","displayName":"Germany","isoThree":"DEU","numberCode":276,"createDate":"2012-01-03 02:41:33"}},{"id":"CLz14Z","name":"Main Brewery","streetAddress":"16937 Boyd Road","locality":"Ste. Genevieve County","region":"Missouri","postalCode":"63670","phone":"573-756-4537","website":"http://www.charlevillevineyard.com/","latitude":37.7534952,"longitude":-90.1487644,"isPrimary":"Y","inPlanning":"N","isClosed":"N","openToPublic":"Y","locationType":"micro","locationTypeDisplay":"Micro Brewery","countryIsoCode":"US","yearOpened":"2003","status":"verified","statusDisplay":"Verified","createDate":"2012-01-03 02:41:50","updateDate":"2014-07-23 19:11:34","country":{"isoCode":"US","name":"UNITED STATES","displayName":"United States","isoThree":"USA","numberCode":840,"createDate":"2012-01-03 02:41:33"}},{"id":"UFie4f","name":"Main Brewery","streetAddress":"2120 Porterfield Way","locality":"Upland","region":"California","postalCode":"91786","phone":"909-579-0032","website":"http://www.dalebrosbrewery.com/","latitude":34.1091852,"longitude":-117.6909341,"isPrimary":"Y","inPlanning":"N","isClosed":"N","openToPublic":"Y","locationType":"micro","locationTypeDisplay":"Micro Brewery","countryIsoCode":"US","status":"verified","statusDisplay":"Verified","createDate":"2012-01-03 02:41:52","updateDate":"2014-09-11 10:33:11","country":{"isoCode":"US","name":"UNITED STATES","displayName":"United States","isoThree":"USA","numberCode":840,"createDate":"2012-01-03 02:41:33"}},{"id":"SvtdGo","name":"Main Brewery","streetAddress":"Baleunisstraat 56","locality":"Dendermonde","postalCode":"9200","latitude":51.0239756,"longitude":4.1126557,"isPrimary":"Y","inPlanning":"N","isClosed":"N","openToPublic":"Y","locationType":"micro","locationTypeDisplay":"Micro Brewery","countryIsoCode":"BE","yearOpened":"2003","status":"verified","statusDisplay":"Verified","createDate":"2012-01-03 02:41:52","updateDate":"2014-07-23 19:11:34","country":{"isoCode":"BE","name":"BELGIUM","displayName":"Belgium","isoThree":"BEL","numberCode":56,"createDate":"2012-01-03 02:41:33"}},{"id":"IZF2vG","name":"Main Brewery","streetAddress":"1529 Broadway","locality":"Detroit","region":"Michigan","postalCode":"48226","phone":"313-962-1529","website":"http://www.detroitbeerco.com/","latitude":42.335827,"longitude":-83.048827,"isPrimary":"Y","inPlanning":"N","isClosed":"N","openToPublic":"Y","locationType":"micro","locationTypeDisplay":"Micro Brewery","countryIsoCode":"US","yearOpened":"2003","status":"verified","statusDisplay":"Verified","createDate":"2012-01-03 02:41:52","updateDate":"2014-07-23 19:11:34","country":{"isoCode":"US","name":"UNITED STATES","displayName":"United States","isoThree":"USA","numberCode":840,"createDate":"2012-01-03 02:41:33"}},{"id":"pTnXe6","name":"Main Brewery","streetAddress":"1249-A Wicker Drive","locality":"Raleigh","region":"North Carolina","postalCode":"27604","latitude":35.809712,"longitude":-78.618223,"isPrimary":"Y","inPlanning":"N","isClosed":"Y","openToPublic":"N","locationType":"micro","locationTypeDisplay":"Micro Brewery","countryIsoCode":"US","yearOpened":"2003","yearClosed":"2007","status":"verified","statusDisplay":"Verified","createDate":"2012-03-29 21:32:55","updateDate":"2014-07-23 19:11:34","country":{"isoCode":"US","name":"UNITED STATES","displayName":"United States","isoThree":"USA","numberCode":840,"createDate":"2012-01-03 02:41:33"}},{"id":"nHLlnK","name":"Main Brewery","streetAddress":"1020 E. Lincoln Ave","locality":"Fort Collins","region":"Colorado","postalCode":"80524","phone":"970-472-1499","website":"http://www.fortcollinsbrewery.com/","hoursOfOperation":"Mon - Wed: 11:00 am\t - 6:00 pm\r\nThu - Sat: 11:00 am - 7:00 pm","latitude":40.58878,"longitude":-105.059556,"isPrimary":"Y","inPlanning":"N","isClosed":"N","openToPublic":"Y","locationType":"micro","locationTypeDisplay":"Micro Brewery","countryIsoCode":"US","yearOpened":"2003","status":"verified","statusDisplay":"Verified","createDate":"2012-01-03 02:41:55","updateDate":"2014-07-23 19:11:34","country":{"isoCode":"US","name":"UNITED STATES","displayName":"United States","isoThree":"USA","numberCode":840,"createDate":"2012-01-03 02:41:33"}},{"id":"43Bu4r","name":"Main Brewery","streetAddress":"495 McKinney Pkwy","locality":"McKinney","region":"Texas","postalCode":"75071","phone":"972-542-0705","website":"http://www.franconiabrewing.com/","latitude":33.213417,"longitude":-96.609066,"isPrimary":"Y","inPlanning":"N","isClosed":"N","openToPublic":"Y","locationType":"micro","locationTypeDisplay":"Micro Brewery","countryIsoCode":"US","yearOpened":"2003","status":"verified","statusDisplay":"Verified","createDate":"2012-01-03 02:41:55","updateDate":"2014-07-23 19:11:34","country":{"isoCode":"US","name":"UNITED STATES","displayName":"United States","isoThree":"USA","numberCode":840,"createDate":"2012-01-03 02:41:33"}},{"id":"Du7C2e","name":"Main Brewery","streetAddress":"Im Neuen Garten 10","locality":"Potsdam","region":"Brandenburg","postalCode":"D-14469","latitude":52.421088,"longitude":13.069403,"isPrimary":"N","inPlanning":"N","isClosed":"N","openToPublic":"Y","locationType":"micro","locationTypeDisplay":"Micro Brewery","countryIsoCode":"DE","status":"verified","statusDisplay":"Verified","createDate":"2012-08-12 14:45:43","updateDate":"2014-07-23 19:11:34","country":{"isoCode":"DE","name":"GERMANY","displayName":"Germany","isoThree":"DEU","numberCode":276,"createDate":"2012-01-03 02:41:33"}},{"id":"hUoCwr","name":"Main Brewery","streetAddress":"6550 Mira Mesa Blvd","locality":"San Diego","region":"California","postalCode":"92121","phone":"858-622-0085","website":"http://www.greenflashbrew.com/","latitude":32.9071241,"longitude":-117.1778148,"isPrimary":"Y","inPlanning":"N","isClosed":"N","openToPublic":"Y","locationType":"micro","locationTypeDisplay":"Micro Brewery","countryIsoCode":"US","yearOpened":"2003","status":"verified","statusDisplay":"Verified","createDate":"2012-01-03 02:41:56","updateDate":"2014-11-23 02:17:58","country":{"isoCode":"US","name":"UNITED STATES","displayName":"United States","isoThree":"USA","numberCode":840,"createDate":"2012-01-03 02:41:33"}},{"id":"eeksV9","name":"Main Brewery","streetAddress":"Riemenschneiderstr. 6","locality":"Windesheim","region":"Rhineland-Palatinate","postalCode":"55452","latitude":49.90738,"longitude":7.81624,"isPrimary":"Y","inPlanning":"N","isClosed":"N","openToPublic":"Y","locationType":"micro","locationTypeDisplay":"Micro Brewery","countryIsoCode":"DE","status":"verified","statusDisplay":"Verified","createDate":"2012-08-13 00:24:49","updateDate":"2014-07-23 19:11:34","country":{"isoCode":"DE","name":"GERMANY","displayName":"Germany","isoThree":"DEU","numberCode":276,"createDate":"2012-01-03 02:41:33"}},{"id":"0P2rD3","name":"Main Brewery","streetAddress":"138 N Main St","locality":"Gunnison","region":"Colorado","postalCode":"81230","phone":"970-641-2739","website":"http://www.gunnisonbrewery.com/","latitude":38.5452464,"longitude":-106.9267413,"isPrimary":"Y","inPlanning":"N","isClosed":"N","openToPublic":"Y","locationType":"micro","locationTypeDisplay":"Micro Brewery","countryIsoCode":"US","yearOpened":"2003","status":"verified","statusDisplay":"Verified","createDate":"2012-01-03 02:41:56","updateDate":"2014-07-23 19:11:34","country":{"isoCode":"US","name":"UNITED STATES","displayName":"United States","isoThree":"USA","numberCode":840,"createDate":"2012-01-03 02:41:33"}},{"id":"LRg1Ru","name":"Main Brewery","streetAddress":"100 Washington St","locality":"Haverhill","region":"Massachusetts","postalCode":"01832","phone":"978-373-2337","website":"http://www.haverhillbrewery.com/","latitude":42.7727232,"longitude":-71.0852745,"isPrimary":"Y","inPlanning":"N","isClosed":"N","openToPublic":"Y","locationType":"brewpub","locationTypeDisplay":"Brewpub","countryIsoCode":"US","yearOpened":"2003","status":"verified","statusDisplay":"Verified","createDate":"2012-01-03 02:41:57","updateDate":"2014-09-26 13:27:48","country":{"isoCode":"US","name":"UNITED STATES","displayName":"United States","isoThree":"USA","numberCode":840,"createDate":"2012-01-03 02:41:33"}},{"id":"ErGziO","name":"Main Brewery","streetAddress":"Wine Country Dr","locality":"Hunter Valley","region":"New South Wales","postalCode":"2325","phone":"+61 2 4991 7922","website":"http://www.hunterbeerco.com/","hoursOfOperation":"Mon - Sun: 10:00 am - 5:00 pm","latitude":-32.7849038,"longitude":151.3384825,"isPrimary":"Y","inPlanning":"N","isClosed":"N","openToPublic":"Y","locationType":"micro","locationTypeDisplay":"Micro Brewery","countryIsoCode":"AU","status":"verified","statusDisplay":"Verified","createDate":"2014-02-18 11:47:20","updateDate":"2014-07-23 19:11:34","country":{"isoCode":"AU","name":"AUSTRALIA","displayName":"Australia","isoThree":"AUS","numberCode":36,"createDate":"2012-01-03 02:41:33"}},{"id":"0HAazs","name":"Main Brewery","streetAddress":"6 Randolph Crescent","region":"Edinburgh","postalCode":"EH3 7TH","phone":"+44 (0) 131 337 4420","website":"http://www.innisandgunn.com/","latitude":55.951976,"longitude":-3.211095,"isPrimary":"Y","inPlanning":"N","isClosed":"N","openToPublic":"N","locationType":"micro","locationTypeDisplay":"Micro Brewery","countryIsoCode":"GB","status":"verified","statusDisplay":"Verified","createDate":"2012-08-03 12:39:07","updateDate":"2014-07-23 19:11:34","country":{"isoCode":"GB","name":"UNITED KINGDOM","displayName":"United Kingdom","isoThree":"GBR","numberCode":826,"createDate":"2012-01-03 02:41:33"}},{"id":"76apBN","name":"Bankes Arms","streetAddress":"Manor Road","locality":"Studland","region":"Dorset","postalCode":"BH19 3 AU","latitude":50.6427629,"longitude":-1.9480878,"isPrimary":"Y","inPlanning":"N","isClosed":"N","openToPublic":"Y","locationType":"micro","locationTypeDisplay":"Micro Brewery","countryIsoCode":"GB","status":"new_unverified","statusDisplay":"New, Unverified","createDate":"2014-11-05 06:56:29","updateDate":"2014-11-05 06:56:29","country":{"isoCode":"GB","name":"UNITED KINGDOM","displayName":"United Kingdom","isoThree":"GBR","numberCode":826,"createDate":"2012-01-03 02:41:33"}},{"id":"zCcJrf","name":"Main Brewery","streetAddress":"20 St. James Street","locality":"Kingston","region":"New York","postalCode":"12401","phone":"845-331-2739","website":"http://www.keeganales.com/","latitude":41.931329,"longitude":-74.012287,"isPrimary":"Y","inPlanning":"N","isClosed":"N","openToPublic":"Y","locationType":"micro","locationTypeDisplay":"Micro Brewery","countryIsoCode":"US","yearOpened":"2003","status":"verified","statusDisplay":"Verified","createDate":"2012-01-03 02:41:59","updateDate":"2014-07-23 19:11:34","country":{"isoCode":"US","name":"UNITED STATES","displayName":"United States","isoThree":"USA","numberCode":840,"createDate":"2012-01-03 02:41:33"}},{"id":"rK3t7T","name":"Main Brewery","streetAddress":"Camino El Toro km 6,5 s/n","region":"Curacaví","phone":"(562) 3392266","website":"http://www.kross.cl/","isPrimary":"Y","inPlanning":"N","isClosed":"N","openToPublic":"Y","locationType":"micro","locationTypeDisplay":"Micro Brewery","countryIsoCode":"CL","status":"verified","statusDisplay":"Verified","createDate":"2013-05-28 12:24:16","updateDate":"2014-07-23 19:11:34","country":{"isoCode":"CL","name":"CHILE","displayName":"Chile","isoThree":"CHL","numberCode":152,"createDate":"2012-01-03 02:41:33"}},{"id":"kiwp6C","name":"La Mare au Diable","streetAddress":"151, rue King Ouest","locality":"Sherbrooke","region":"Québec","postalCode":"j1h1p4","phone":"1-819-562-1001","hoursOfOperation":"Tues. to Fri. from 11am; Sat. to Mon. from 4pm","latitude":45.4008766,"longitude":-71.8914456,"isPrimary":"Y","inPlanning":"N","isClosed":"N","openToPublic":"Y","locationType":"brewpub","locationTypeDisplay":"Brewpub","countryIsoCode":"CA","yearOpened":"2003","status":"verified","statusDisplay":"Verified","createDate":"2013-07-04 20:26:49","updateDate":"2014-07-23 19:11:34","country":{"isoCode":"CA","name":"CANADA","displayName":"Canada","isoThree":"CAN","numberCode":124,"createDate":"2012-01-03 02:41:33"}},{"id":"7Ews9G","name":"Main Brewery","streetAddress":"7030 Roscoe Turner Rd","locality":"Kiln","region":"Mississippi","postalCode":"39556","phone":"228-467-2727","website":"http://www.lazymagnolia.com/","hoursOfOperation":"Every Saturday at 10:30am. No reservation required.  After the tour, we'll give you a list of great local places to try our beer! No beer samples at the brewery. It's the law, in Mississippi anyway.","latitude":30.3764005,"longitude":-89.4497023,"isPrimary":"Y","inPlanning":"N","isClosed":"N","openToPublic":"Y","locationType":"micro","locationTypeDisplay":"Micro Brewery","countryIsoCode":"US","yearOpened":"2003","status":"verified","statusDisplay":"Verified","createDate":"2012-01-03 02:42:00","updateDate":"2014-07-23 19:11:34","country":{"isoCode":"US","name":"UNITED STATES","displayName":"United States","isoThree":"USA","numberCode":840,"createDate":"2012-01-03 02:41:33"}},{"id":"GPAv9Q","name":"Main Brewery","streetAddress":"Jacksons Road","locality":"RD3 Blenheim","postalCode":"7301","phone":"+64 3 5725146","website":"http://www.moabeer.com/","latitude":-41.542774,"longitude":173.834236,"isPrimary":"Y","inPlanning":"N","isClosed":"N","openToPublic":"Y","locationType":"micro","locationTypeDisplay":"Micro Brewery","countryIsoCode":"NZ","yearOpened":"2003","status":"verified","statusDisplay":"Verified","createDate":"2012-01-03 02:42:02","updateDate":"2014-07-23 19:11:34","country":{"isoCode":"NZ","name":"NEW ZEALAND","displayName":"New Zealand","isoThree":"NZL","numberCode":554,"createDate":"2012-01-03 02:41:33"}},{"id":"5qaoia","name":"Main Brewery","streetAddress":"6635 N. Baltimore Ave.","locality":"Portland","region":"Oregon","postalCode":"97203","phone":"503-810-7920","website":"http://occidentalbrewing.com/","latitude":45.5888297,"longitude":-122.7609782,"isPrimary":"Y","inPlanning":"N","isClosed":"N","openToPublic":"Y","locationType":"micro","locationTypeDisplay":"Micro Brewery","countryIsoCode":"US","yearOpened":"2003","status":"verified","statusDisplay":"Verified","createDate":"2012-01-03 02:42:04","updateDate":"2014-07-23 19:11:34","country":{"isoCode":"US","name":"UNITED STATES","displayName":"United States","isoThree":"USA","numberCode":840,"createDate":"2012-01-03 02:41:33"}},{"id":"atDMAs","name":"Main Brewery","streetAddress":"Brauhausstraße 8","locality":"Oettingen in Bayern","region":"Nordrhein-Westfalen","postalCode":"D-86732","latitude":48.951056,"longitude":10.57963,"isPrimary":"N","inPlanning":"N","isClosed":"N","openToPublic":"Y","locationType":"micro","locationTypeDisplay":"Micro Brewery","countryIsoCode":"DE","status":"verified","statusDisplay":"Verified","createDate":"2012-08-12 14:47:46","updateDate":"2014-07-23 19:11:34","country":{"isoCode":"DE","name":"GERMANY","displayName":"Germany","isoThree":"DEU","numberCode":276,"createDate":"2012-01-03 02:41:33"}},{"id":"vbKhpV","name":"Main Brewery","streetAddress":"4700 Pearl St","extendedAddress":"Unit 2A","locality":"Boulder","region":"Colorado","postalCode":"80301","phone":"720-406-1215","website":"http://redstonemeadery.com/","latitude":40.024717,"longitude":-105.2432989,"isPrimary":"Y","inPlanning":"N","isClosed":"N","openToPublic":"Y","locationType":"micro","locationTypeDisplay":"Micro Brewery","countryIsoCode":"US","yearOpened":"2003","status":"verified","statusDisplay":"Verified","createDate":"2012-01-03 02:42:06","updateDate":"2014-07-23 19:11:34","country":{"isoCode":"US","name":"UNITED STATES","displayName":"United States","isoThree":"USA","numberCode":840,"createDate":"2012-01-03 02:41:33"}},{"id":"WPIz5n","name":"Tower District","streetAddress":"777 East Olive Avenue","locality":"Fresno","region":"California","postalCode":"93728","phone":"559-264-5521","website":"http://www.sequoiabrewing.com/","hoursOfOperation":"Mon - Wed 11am - 10pm\r\nThur 11am - 11pm\r\nFri - Sat 11am - Midnight\r\nSunday 10am - 10pm\r\n\r\nHAPPY HOUR\r\nMon - Fri 3pm - 6pm\r\nSat 1pm-4pm\r\nSun 10am - 12pm. 1pm - 4pm","latitude":36.758189,"longitude":-119.801674,"isPrimary":"Y","inPlanning":"N","isClosed":"N","openToPublic":"Y","locationType":"micro","locationTypeDisplay":"Micro Brewery","countryIsoCode":"US","yearOpened":"2003","status":"verified","statusDisplay":"Verified","createDate":"2012-01-03 02:42:08","updateDate":"2014-07-23 19:11:34","country":{"isoCode":"US","name":"UNITED STATES","displayName":"United States","isoThree":"USA","numberCode":840,"createDate":"2012-01-03 02:41:33"}},{"id":"HcnHXH","name":"North Fresno","streetAddress":"1188 E. Champlain","locality":"Fresno","region":"California","postalCode":"93720","phone":"559-434-2739","website":"http://www.sequoiabrewing.com/","hoursOfOperation":"Mon - Wed 11am - 10pm\r\nThur 11am - 11pm\r\nFri - Sat 11am - Midnight\r\nSunday 10am - 10pm\r\n\r\nHAPPY HOUR\r\nMon - Fri 3pm - 6pm\r\nSat 1pm-4pm\r\nSun 10am - 12pm. 1pm - 4pm","latitude":36.871483,"longitude":-119.763302,"isPrimary":"N","inPlanning":"N","isClosed":"N","openToPublic":"Y","locationType":"micro","locationTypeDisplay":"Micro Brewery","countryIsoCode":"US","yearOpened":"2003","status":"verified","statusDisplay":"Verified","createDate":"2012-01-13 13:18:31","updateDate":"2014-07-23 19:11:34","country":{"isoCode":"US","name":"UNITED STATES","displayName":"United States","isoThree":"USA","numberCode":840,"createDate":"2012-01-03 02:41:33"}},{"id":"VaFhAH","name":"Sneeuberg Brewery","streetAddress":"Pienaar Street","locality":"Nieu Bethesda","region":"Eastern Cape","postalCode":"6286","phone":"(49) 8411602","website":"http://www.nieubethesda.co.za/","latitude":-31.8652034,"longitude":24.5521132,"isPrimary":"Y","inPlanning":"N","isClosed":"N","openToPublic":"Y","locationType":"micro","locationTypeDisplay":"Micro Brewery","countryIsoCode":"ZA","yearOpened":"2003","status":"verified","statusDisplay":"Verified","createDate":"2013-07-27 11:18:08","updateDate":"2014-07-23 19:11:34","country":{"isoCode":"ZA","name":"SOUTH AFRICA","displayName":"South Africa","isoThree":"ZAF","numberCode":710,"createDate":"2012-01-03 02:41:33"}},{"id":"5SFznI","name":"Main Brewery","streetAddress":"17111 S 138th St","locality":"Springfield","region":"Nebraska","postalCode":"68059","phone":"402-253-2479","website":"http://www.soaringwingswine.com/","latitude":41.0654139,"longitude":-96.126402,"isPrimary":"Y","inPlanning":"N","isClosed":"N","openToPublic":"Y","locationType":"micro","locationTypeDisplay":"Micro Brewery","countryIsoCode":"US","status":"verified","statusDisplay":"Verified","createDate":"2013-06-20 00:15:33","updateDate":"2014-07-23 19:11:34","country":{"isoCode":"US","name":"UNITED STATES","displayName":"United States","isoThree":"USA","numberCode":840,"createDate":"2012-01-03 02:41:33"}},{"id":"OMUe3U","name":"South Hams Brewery","streetAddress":"Stokeley Barton","locality":"Stokenham","region":"Torbay","postalCode":"TQ72SE","website":"http://southhamsbrewery.co.uk","latitude":50.2738491,"longitude":-3.6635435,"isPrimary":"Y","inPlanning":"N","isClosed":"N","openToPublic":"Y","locationType":"micro","locationTypeDisplay":"Micro Brewery","countryIsoCode":"GB","yearOpened":"2003","status":"verified","statusDisplay":"Verified","createDate":"2013-06-30 14:59:21","updateDate":"2014-07-23 19:11:34","country":{"isoCode":"GB","name":"UNITED KINGDOM","displayName":"United Kingdom","isoThree":"GBR","numberCode":826,"createDate":"2012-01-03 02:41:33"}},{"id":"ER2JSs","name":"Main Brewery","streetAddress":"23 South Main Street","locality":"Waterbury","region":"Vermont","postalCode":"05676","phone":"802-244-4120","website":"http://www.alchemistbeer.com/","hoursOfOperation":"Mon - Sun: 11:00 am - 7:00 pm","latitude":44.337189,"longitude":-72.756027,"isPrimary":"Y","inPlanning":"N","isClosed":"N","openToPublic":"Y","locationType":"micro","locationTypeDisplay":"Micro Brewery","countryIsoCode":"US","yearOpened":"2003","status":"verified","statusDisplay":"Verified","createDate":"2012-01-03 02:42:09","updateDate":"2014-09-26 13:54:58","country":{"isoCode":"US","name":"UNITED STATES","displayName":"United States","isoThree":"USA","numberCode":840,"createDate":"2012-01-03 02:41:33"}},{"id":"mnI5Ck","name":"Main Brewery","streetAddress":"16 Tobey Road","locality":"Bloomfield","region":"Connecticut","postalCode":"06002","phone":"860-242-3111","website":"http://www.hookerbeer.com/","latitude":41.8086764,"longitude":-72.7108523,"isPrimary":"Y","inPlanning":"N","isClosed":"N","openToPublic":"Y","locationType":"micro","locationTypeDisplay":"Micro Brewery","countryIsoCode":"US","yearOpened":"2003","status":"verified","statusDisplay":"Verified","createDate":"2012-01-03 02:42:10","updateDate":"2014-09-26 13:55:36","country":{"isoCode":"US","name":"UNITED STATES","displayName":"United States","isoThree":"USA","numberCode":840,"createDate":"2012-01-03 02:41:33"}},{"id":"Cbxn1y","name":"Main Brewery","streetAddress":"1605 S 93rd St","extendedAddress":"Bldg E Unit L","locality":"South Park","region":"Washington","postalCode":"98108","phone":"206-764-1213","website":"http://www.threeskullsales.com/","latitude":47.5202894,"longitude":-122.3124918,"isPrimary":"Y","inPlanning":"N","isClosed":"N","openToPublic":"Y","locationType":"micro","locationTypeDisplay":"Micro Brewery","countryIsoCode":"US","yearOpened":"2003","status":"verified","statusDisplay":"Verified","createDate":"2012-01-03 02:42:10","updateDate":"2014-07-23 19:11:34","country":{"isoCode":"US","name":"UNITED STATES","displayName":"United States","isoThree":"USA","numberCode":840,"createDate":"2012-01-03 02:41:33"}},{"id":"C52fbk","name":"Main Brewery","streetAddress":"Hauptstraße 6","locality":"Königseggwald","postalCode":"88376","phone":"+49 7587 95040","website":"http://www.walderbraeu.de/","hoursOfOperation":"Mon - Fri : 6:30 am - 4:30 pm","latitude":47.92622,"longitude":9.42039,"isPrimary":"N","inPlanning":"N","isClosed":"Y","openToPublic":"N","locationType":"micro","locationTypeDisplay":"Micro Brewery","countryIsoCode":"DE","yearOpened":"1822","status":"verified","statusDisplay":"Verified","createDate":"2012-08-12 14:46:31","updateDate":"2014-07-23 19:11:34","country":{"isoCode":"DE","name":"GERMANY","displayName":"Germany","isoThree":"DEU","numberCode":276,"createDate":"2012-01-03 02:41:33"}},{"id":"1Y8Ay5","name":"Main Brewery","extendedAddress":"PO Box 869","locality":"Victor","region":"Idaho","phone":"208-787-2623","latitude":43.59998,"longitude":-111.111374,"isPrimary":"Y","inPlanning":"N","isClosed":"N","openToPublic":"Y","locationType":"brewpub","locationTypeDisplay":"Brewpub","countryIsoCode":"US","status":"verified","statusDisplay":"Verified","createDate":"2012-01-03 02:42:13","updateDate":"2014-07-23 19:11:34","country":{"isoCode":"US","name":"UNITED STATES","displayName":"United States","isoThree":"USA","numberCode":840,"createDate":"2012-01-03 02:41:33"}},{"id":"preZog","name":"Main Brewery","streetAddress":"910 Division St","locality":"Nashville","region":"Tennessee","postalCode":"37203","phone":"615-891-4649","website":"http://www.yazoobrew.com/","hoursOfOperation":"Thu:  4:00pm - 8:00pm\nFri:  4:00pm - 8:00pm\nSat:  2:00pm - 8:00pm\nWed:  4:00pm - 6:00pm\n\nWednesday are Growler fills only","latitude":36.1509754,"longitude":-86.7821302,"isPrimary":"Y","inPlanning":"N","isClosed":"N","openToPublic":"Y","locationType":"micro","locationTypeDisplay":"Micro Brewery","countryIsoCode":"US","yearOpened":"2003","status":"verified","statusDisplay":"Verified","createDate":"2012-01-03 02:42:13","updateDate":"2014-08-23 15:00:53","country":{"isoCode":"US","name":"UNITED STATES","displayName":"United States","isoThree":"USA","numberCode":840,"createDate":"2012-01-03 02:41:33"}}]