[{"id":"f4lJDc","name":"Main Brewery","streetAddress":"419 S Main St","locality":"Royal Oak","region":"Michigan","postalCode":"48067","phone":"248-544-6250","website":"http://bastone.net/","latitude":42.486561,"longitude":-83.143995,"isPrimary":"Y","inPlanning":"N","isClosed":"N","openToPublic":"Y","locationType":"brewpub","locationTypeDisplay":"Brewpub","countryIsoCode":"US","yearOpened":"2004","status":"verified","statusDisplay":"Verified","createDate":"2012-01-03 02:41:45","updateDate":"2014-07-23 19:11:34","country":{"isoCode":"US","name":"UNITED STATES","displayName":"United States","isoThree":"USA","numberCode":840,"createDate":"2012-01-03 02:41:33"}},{"id":"2Z6yyt","name":"Main Brewery","streetAddress":"The Courtyard","extendedAddress":"Main Cross Road","locality":"Great Yarmouth","region":"Norfolk","postalCode":"NR30 3NZ","phone":"01493 850578","website":"http://www.blackfriars-brewery.co.uk/","latitude":52.590504,"longitude":1.73467,"isPrimary":"Y","inPlanning":"N","isClosed":"N","openToPublic":"Y","locationType":"brewpub","locationTypeDisplay":"Brewpub","countryIsoCode":"GB","yearOpened":"2004","status":"verified","statusDisplay":"Verified","createDate":"2012-01-03 02:41:46","updateDate":"2014-07-23 19:11:34","country":{"isoCode":"GB","name":"UNITED KINGDOM","displayName":"United Kingdom","isoThree":"GBR","numberCode":826,"createDate":"2012-01-03 02:41:33"}},{"id":"v3vneZ","name":"Main Brewery","streetAddress":"21 bis Chemin de la Bouscayrolle","region":"Graulhet","postalCode":"81300","phone":"+ 33 (0)622381610","website":"http://brasseriedesvignes.blogspot.com/","latitude":43.7690823,"longitude":1.9901857,"isPrimary":"Y","inPlanning":"N","isClosed":"N","openToPublic":"Y","locationType":"micro","locationTypeDisplay":"Micro Brewery","countryIsoCode":"FR","status":"verified","statusDisplay":"Verified","createDate":"2014-06-18 12:27:26","updateDate":"2014-07-23 19:11:34","country":{"isoCode":"FR","name":"FRANCE","displayName":"France","isoThree":"FRA","numberCode":250,"createDate":"2012-01-03 02:41:33"}},{"id":"vQb0mg","name":"Main Brewery","streetAddress":"An der Abzucht 1a","locality":"Goslar","region":"Lower Saxony","postalCode":"38640","latitude":51.907319,"longitude":10.436507,"isPrimary":"Y","inPlanning":"N","isClosed":"N","openToPublic":"Y","locationType":"micro","locationTypeDisplay":"Micro Brewery","countryIsoCode":"DE","status":"verified","statusDisplay":"Verified","createDate":"2012-08-13 01:17:48","updateDate":"2014-07-23 19:11:34","country":{"isoCode":"DE","name":"GERMANY","displayName":"Germany","isoThree":"DEU","numberCode":276,"createDate":"2012-01-03 02:41:33"}},{"id":"UU1oEt","name":"Main Brewery","streetAddress":"Hertichstraße 56","locality":"Leonberg","region":"Baden-Württemberg","postalCode":"71229","latitude":48.786636,"longitude":8.999978,"isPrimary":"N","inPlanning":"N","isClosed":"N","openToPublic":"Y","locationType":"micro","locationTypeDisplay":"Micro Brewery","countryIsoCode":"DE","status":"verified","statusDisplay":"Verified","createDate":"2012-08-12 14:47:22","updateDate":"2014-07-23 19:11:34","country":{"isoCode":"DE","name":"GERMANY","displayName":"Germany","isoThree":"DEU","numberCode":276,"createDate":"2012-01-03 02:41:33"}},{"id":"22ttqQ","name":"Main Brewery","streetAddress":"Old Coach House","extendedAddress":"Ford StreetBeechworth","region":"Beechworth","postalCode":"3747","phone":"03 57282703","website":"http://www.bridgeroadbrewers.com.au/","hoursOfOperation":"Mon - Tue: 11:00 am - 4:00 pm\r\nWed - Thu: 11:00 am - 5:00 pm\r\nFri - Sun: 11:00 am - 10:00 pm","latitude":-36.3592906,"longitude":146.6872665,"isPrimary":"Y","inPlanning":"N","isClosed":"N","openToPublic":"Y","locationType":"micro","locationTypeDisplay":"Micro Brewery","countryIsoCode":"AU","yearOpened":"2005","status":"verified","statusDisplay":"Verified","createDate":"2014-01-21 22:05:26","updateDate":"2014-07-23 19:11:34","country":{"isoCode":"AU","name":"AUSTRALIA","displayName":"Australia","isoThree":"AUS","numberCode":36,"createDate":"2012-01-03 02:41:33"}},{"id":"DrjXxi","name":"Main Brewery","streetAddress":"Overtocht 43","locality":"Bodegraven","phone":"+31-172-610848","website":"http://www.brouwerijdemolen.nl/","latitude":52.0856206,"longitude":4.7419978,"isPrimary":"Y","inPlanning":"N","isClosed":"N","openToPublic":"Y","locationType":"micro","locationTypeDisplay":"Micro Brewery","countryIsoCode":"NL","yearOpened":"2004","status":"verified","statusDisplay":"Verified","createDate":"2012-01-03 02:41:49","updateDate":"2014-07-23 19:11:34","country":{"isoCode":"NL","name":"NETHERLANDS","displayName":"Netherlands","isoThree":"NLD","numberCode":528,"createDate":"2012-01-03 02:41:33"}},{"id":"ST1lih","name":"Main Brewery","streetAddress":"Wittenberger Straße 1","locality":"Bad Belzig","postalCode":"14806","latitude":52.136946,"longitude":12.586542,"isPrimary":"Y","inPlanning":"N","isClosed":"N","openToPublic":"Y","locationType":"micro","locationTypeDisplay":"Micro Brewery","countryIsoCode":"DE","status":"verified","statusDisplay":"Verified","createDate":"2012-08-16 12:25:12","updateDate":"2014-07-23 19:11:34","country":{"isoCode":"DE","name":"GERMANY","displayName":"Germany","isoThree":"DEU","numberCode":276,"createDate":"2012-01-03 02:41:33"}},{"id":"YP7CZW","name":"Main Brewery","streetAddress":"11 Rodgers Street","locality":"Gloucester","region":"Massachusetts","postalCode":"01930","phone":"866-233-7636","website":"http://www.capeannbrewing.com/","latitude":42.6114111,"longitude":-70.6652468,"isPrimary":"Y","inPlanning":"N","isClosed":"N","openToPublic":"Y","locationType":"brewpub","locationTypeDisplay":"Brewpub","countryIsoCode":"US","status":"verified","statusDisplay":"Verified","createDate":"2012-01-03 02:41:50","updateDate":"2014-07-23 19:11:34","country":{"isoCode":"US","name":"UNITED STATES","displayName":"United States","isoThree":"USA","numberCode":840,"createDate":"2012-01-03 02:41:33"}},{"id":"Aiq0ix","name":"Main Brewery","streetAddress":"1336 Phinneys Lane","locality":"Hyannis","region":"Massachusetts","postalCode":"02601","phone":"508-790-4200","website":"http://www.capecodbeer.com/","latitude":41.677908,"longitude":-70.310435,"isPrimary":"Y","inPlanning":"N","isClosed":"N","openToPublic":"Y","locationType":"micro","locationTypeDisplay":"Micro Brewery","countryIsoCode":"US","yearOpened":"2004","status":"verified","statusDisplay":"Verified","createDate":"2012-01-03 02:41:50","updateDate":"2014-07-23 19:11:34","country":{"isoCode":"US","name":"UNITED STATES","displayName":"United States","isoThree":"USA","numberCode":840,"createDate":"2012-01-03 02:41:33"}},{"id":"Gcm31t","name":"Main Brewery","streetAddress":"8657 Villa La Jolla Drive","locality":"La Jolla","region":"California","postalCode":"92037","latitude":32.8665329,"longitude":-117.231649,"isPrimary":"Y","inPlanning":"N","isClosed":"Y","openToPublic":"Y","locationType":"micro","locationTypeDisplay":"Micro Brewery","countryIsoCode":"US","yearOpened":"2004","status":"verified","statusDisplay":"Verified","createDate":"2012-01-03 02:41:51","updateDate":"2014-07-23 19:11:34","country":{"isoCode":"US","name":"UNITED STATES","displayName":"United States","isoThree":"USA","numberCode":840,"createDate":"2012-01-03 02:41:33"}},{"id":"JBt20m","name":"Main Brewery","streetAddress":"Ul. Vashingtona 10","region":"Lvov","postalCode":"79032","website":"http://www.ppb.com.ua/","latitude":49.8155829,"longitude":24.0714619,"isPrimary":"Y","inPlanning":"N","isClosed":"N","openToPublic":"Y","locationType":"micro","locationTypeDisplay":"Micro Brewery","countryIsoCode":"UA","yearOpened":"2004","status":"verified","statusDisplay":"Verified","createDate":"2012-01-03 02:41:54","updateDate":"2014-07-23 19:11:34","country":{"isoCode":"UA","name":"UKRAINE","displayName":"Ukraine","isoThree":"UKR","numberCode":804,"createDate":"2012-01-03 02:41:33"}},{"id":"CHRyRk","name":"Woods Bay","streetAddress":"26008 East Lake Shore Drive","locality":"Bigfork","region":"Montana","postalCode":"59911","phone":"406-837-0353","website":"http://www.flatheadlakebrewing.com/","latitude":47.9977871,"longitude":-114.0453598,"isPrimary":"N","inPlanning":"N","isClosed":"N","openToPublic":"Y","locationType":"brewpub","locationTypeDisplay":"Brewpub","countryIsoCode":"US","yearOpened":"2004","status":"verified","statusDisplay":"Verified","createDate":"2012-01-03 02:41:54","updateDate":"2014-07-23 19:11:34","country":{"isoCode":"US","name":"UNITED STATES","displayName":"United States","isoThree":"USA","numberCode":840,"createDate":"2012-01-03 02:41:33"}},{"id":"XF4JJ4","name":"Missoula","streetAddress":"424 North Higgins","locality":"Missoula","region":"Montana","postalCode":"59802","phone":"406-542-3847","website":"http://www.flbcofmissoula.com/","hoursOfOperation":"Monday - Friday    3:00 to 12:00 \r\nSaturday 11:00 to 12:00 \r\nSunday 11:00 to 10:00","latitude":46.873384,"longitude":-113.99322,"isPrimary":"Y","inPlanning":"N","isClosed":"N","openToPublic":"Y","locationType":"brewpub","locationTypeDisplay":"Brewpub","countryIsoCode":"US","status":"verified","statusDisplay":"Verified","createDate":"2012-08-15 21:34:43","updateDate":"2014-07-23 19:11:34","country":{"isoCode":"US","name":"UNITED STATES","displayName":"United States","isoThree":"USA","numberCode":840,"createDate":"2012-01-03 02:41:33"}},{"id":"Ydu9US","name":"Main Brewery","streetAddress":"638 W. 4th Street","locality":"Winston-Salem","region":"North Carolina","postalCode":"27101","phone":"336-777-3348","website":"http://www.foothillsbrewing.com/","hoursOfOperation":"Mon:  11:00am - 2:00am\nTue:  11:00am - 2:00am\nWed:  11:00am - 2:00am\nThu:  11:00am - 2:00am\nFri:  11:00am - 2:00am\nSat:  11:00am - 2:00am\nSun:  11:00am - 2:00am\n\n","latitude":36.097341,"longitude":-80.250882,"isPrimary":"Y","inPlanning":"N","isClosed":"N","openToPublic":"Y","locationType":"brewpub","locationTypeDisplay":"Brewpub","countryIsoCode":"US","yearOpened":"2004","status":"verified","statusDisplay":"Verified","createDate":"2012-01-03 02:41:55","updateDate":"2014-09-21 15:12:59","country":{"isoCode":"US","name":"UNITED STATES","displayName":"United States","isoThree":"USA","numberCode":840,"createDate":"2012-01-03 02:41:33"}},{"id":"qibj4Q","name":"Foothills Brewing","streetAddress":"3800 Kimwell Drive","locality":"Winston-Salem","region":"North Carolina","postalCode":"27101","phone":"336-354-4029","website":"http://foothillsbrewing.com","latitude":36.045353,"longitude":-80.323159,"isPrimary":"N","inPlanning":"N","isClosed":"N","openToPublic":"Y","locationType":"production","locationTypeDisplay":"Production Facility","countryIsoCode":"US","status":"verified","statusDisplay":"Verified","createDate":"2014-09-10 15:38:29","updateDate":"2014-09-21 15:12:59","country":{"isoCode":"US","name":"UNITED STATES","displayName":"United States","isoThree":"USA","numberCode":840,"createDate":"2012-01-03 02:41:33"}},{"id":"uRHoZ3","name":"Main Brewery","streetAddress":"1213 S. Auburn St.","extendedAddress":"Ste A","locality":"Colfax","region":"California","postalCode":"95713","phone":"(530) 346-9699","website":"http://www.foxbarrel.com/","latitude":39.0889913,"longitude":-120.9555526,"isPrimary":"Y","inPlanning":"N","isClosed":"N","openToPublic":"Y","locationType":"micro","locationTypeDisplay":"Micro Brewery","countryIsoCode":"US","status":"verified","statusDisplay":"Verified","createDate":"2014-03-18 12:30:38","updateDate":"2014-07-23 19:11:34","country":{"isoCode":"US","name":"UNITED STATES","displayName":"United States","isoThree":"USA","numberCode":840,"createDate":"2012-01-03 02:41:33"}},{"id":"buCABg","name":"Main Brewery","streetAddress":"332 E. 2nd Street","locality":"Davenport","region":"Iowa","postalCode":"52801","website":"http://greatriverbrewery.com/","latitude":41.521383,"longitude":-90.570087,"isPrimary":"Y","inPlanning":"N","isClosed":"N","openToPublic":"Y","locationType":"brewpub","locationTypeDisplay":"Brewpub","countryIsoCode":"US","yearOpened":"2004","status":"verified","statusDisplay":"Verified","createDate":"2012-01-03 02:41:56","updateDate":"2014-07-23 19:11:34","country":{"isoCode":"US","name":"UNITED STATES","displayName":"United States","isoThree":"USA","numberCode":840,"createDate":"2012-01-03 02:41:33"}},{"id":"pTJktO","name":"Main Brewery","streetAddress":"9 Briar Rhydding","locality":"Baildon Shipley","region":"West Yorkshire","postalCode":"BD17 7JW","phone":"+44 (0)1274 714664","website":"http://www.glutenfreebeers.co.uk/","latitude":53.8446945,"longitude":-1.7532886,"isPrimary":"Y","inPlanning":"N","isClosed":"N","openToPublic":"Y","locationType":"micro","locationTypeDisplay":"Micro Brewery","countryIsoCode":"GB","status":"verified","statusDisplay":"Verified","createDate":"2014-06-17 00:21:34","updateDate":"2014-07-23 19:11:34","country":{"isoCode":"GB","name":"UNITED KINGDOM","displayName":"United Kingdom","isoThree":"GBR","numberCode":826,"createDate":"2012-01-03 02:41:33"}},{"id":"cXYBYx","name":"Main Brewery","streetAddress":"25 Bell St","locality":"Yarra Glen","region":"Victoria","postalCode":"3775","phone":"+61 3 9730 1905","website":"http://www.hargreaveshill.com.au/","hoursOfOperation":"Mon - Sat: 11:30 am - 8:30 pm\r\nSun: 11:30 am - 4:00 pm","latitude":-37.658161,"longitude":145.374097,"isPrimary":"Y","inPlanning":"N","isClosed":"N","openToPublic":"Y","locationType":"micro","locationTypeDisplay":"Micro Brewery","countryIsoCode":"AU","yearOpened":"2008","status":"verified","statusDisplay":"Verified","createDate":"2014-02-18 11:43:30","updateDate":"2014-07-23 19:11:34","country":{"isoCode":"AU","name":"AUSTRALIA","displayName":"Australia","isoThree":"AUS","numberCode":36,"createDate":"2012-01-03 02:41:33"}},{"id":"nOkFFn","name":"Main Brewery","streetAddress":"545 Mill Street","locality":"Sylva","region":"North Carolina","postalCode":"28779","phone":"828-631-4466","website":"http://www.yourgnometownbrewery.com/","hoursOfOperation":"Mon - Thu: 11:00 am - 7:00 pm\r\nFri - Sat: 11:00 am - 9:00 pm","latitude":35.373992,"longitude":-83.2220186,"isPrimary":"Y","inPlanning":"N","isClosed":"N","openToPublic":"Y","locationType":"micro","locationTypeDisplay":"Micro Brewery","countryIsoCode":"US","yearOpened":"2004","status":"verified","statusDisplay":"Verified","createDate":"2012-01-03 02:41:57","updateDate":"2014-07-23 19:11:34","country":{"isoCode":"US","name":"UNITED STATES","displayName":"United States","isoThree":"USA","numberCode":840,"createDate":"2012-01-03 02:41:33"}},{"id":"CqGxCC","name":"Main Brewery","streetAddress":"Kattingevej 16 4000","locality":"Herslev","region":"Roskilde","phone":"+45 46 40 18 07","website":"http://www.herslevbryghus.dk","hoursOfOperation":"Mon - Thu: 8:00 am - 4:00 pm\r\nFri: 8:00 am - 2:00 pm","latitude":55.669054,"longitude":11.984541,"isPrimary":"Y","inPlanning":"N","isClosed":"N","openToPublic":"Y","locationType":"micro","locationTypeDisplay":"Micro Brewery","countryIsoCode":"DK","yearOpened":"2004","status":"verified","statusDisplay":"Verified","createDate":"2014-04-19 22:33:52","updateDate":"2014-07-23 19:11:34","country":{"isoCode":"DK","name":"DENMARK","displayName":"Denmark","isoThree":"DNK","numberCode":208,"createDate":"2012-01-03 02:41:33"}},{"id":"pqSkmD","name":"Main Brewery","streetAddress":"3913 Todd Lane","extendedAddress":"#607","locality":"Austin","region":"Texas","postalCode":"78744","phone":"512-462-1133","website":"http://www.independencebrewing.com/","latitude":30.2131102,"longitude":-97.7358341,"isPrimary":"Y","inPlanning":"N","isClosed":"N","openToPublic":"Y","locationType":"micro","locationTypeDisplay":"Micro Brewery","countryIsoCode":"US","yearOpened":"2004","status":"verified","statusDisplay":"Verified","createDate":"2012-01-03 02:41:58","updateDate":"2014-07-23 19:11:34","country":{"isoCode":"US","name":"UNITED STATES","displayName":"United States","isoThree":"USA","numberCode":840,"createDate":"2012-01-03 02:41:33"}},{"id":"xZTJW3","name":"Main Brewery","streetAddress":"1000 Prospect Street","extendedAddress":"Suite 4","locality":"Ellensburg","region":"Washington","postalCode":"98926","phone":"509-933-3134","website":"http://www.ironhorsebrewery.com/","latitude":46.9994703,"longitude":-120.5648701,"isPrimary":"Y","inPlanning":"N","isClosed":"N","openToPublic":"Y","locationType":"micro","locationTypeDisplay":"Micro Brewery","countryIsoCode":"US","yearOpened":"2004","status":"verified","statusDisplay":"Verified","createDate":"2012-01-03 02:41:58","updateDate":"2014-07-23 19:11:34","country":{"isoCode":"US","name":"UNITED STATES","displayName":"United States","isoThree":"USA","numberCode":840,"createDate":"2012-01-03 02:41:33"}},{"id":"ZtC7fU","name":"Main Brewery","streetAddress":"765 Center Boulevard","locality":"Fairfax","region":"California","postalCode":"94930","phone":"1-415-485-1005","latitude":37.9861207,"longitude":-122.5839897,"isPrimary":"Y","inPlanning":"N","isClosed":"N","openToPublic":"Y","locationType":"micro","locationTypeDisplay":"Micro Brewery","countryIsoCode":"US","status":"verified","statusDisplay":"Verified","createDate":"2012-01-03 02:41:58","updateDate":"2014-07-23 19:11:34","country":{"isoCode":"US","name":"UNITED STATES","displayName":"United States","isoThree":"USA","numberCode":840,"createDate":"2012-01-03 02:41:33"}},{"id":"XFY63m","name":"Main Brewery","streetAddress":"3115 Broad Street","locality":"Dexter","region":"Michigan","postalCode":"48130","phone":"734-426-4962","website":"http://www.jollypumpkin.com/","latitude":42.337535,"longitude":-83.889488,"isPrimary":"N","inPlanning":"N","isClosed":"N","openToPublic":"Y","locationType":"micro","locationTypeDisplay":"Micro Brewery","countryIsoCode":"US","yearOpened":"2004","status":"verified","statusDisplay":"Verified","createDate":"2012-01-03 02:41:59","updateDate":"2014-07-23 19:11:34","country":{"isoCode":"US","name":"UNITED STATES","displayName":"United States","isoThree":"USA","numberCode":840,"createDate":"2012-01-03 02:41:33"}},{"id":"CGyBh2","name":"Jolly Pumpkin Cafe & Brewery‎","streetAddress":"311 South Main Street","locality":"Ann Arbor","region":"Michigan","postalCode":"48104","phone":"734-913-2730","website":"http://www.jollypumpkin.com/annarbor/","hoursOfOperation":"Main Floor\r\nMonday - Thursday 11am - 11pm Friday 11am - midnight \r\nSaturday 10am - midnight \r\nSunday 10am - 11pm\r\n\r\nUpstairs\r\nSunday - Wednesday 4pm - midnight \r\nThursday - Saturday 4pm - 2am\r\n\r\nRooftop Deck\r\nMonday - Wednesday 4pm - 11pm \r\nThursday - Friday 4pm - 1am \r\nSaturday - noon - 1 am\r\nSunday - noon - 11pm","latitude":42.27927,"longitude":-83.748608,"isPrimary":"N","inPlanning":"N","isClosed":"N","openToPublic":"Y","locationType":"restaurant","locationTypeDisplay":"Restaurant/Ale House","countryIsoCode":"US","status":"verified","statusDisplay":"Verified","createDate":"2012-08-11 19:41:57","updateDate":"2014-07-23 19:11:34","country":{"isoCode":"US","name":"UNITED STATES","displayName":"United States","isoThree":"USA","numberCode":840,"createDate":"2012-01-03 02:41:33"}},{"id":"oagzqT","name":"Jolly Pumpkin Restaurant, Brewery, Distillery","streetAddress":"13512 Peninsula Drive","extendedAddress":"Old Mission Peninsula","locality":"Traverse City","region":"Michigan","postalCode":"49686","phone":"231-223-4333","website":"http://www.jollypumpkin.com/traversecity/index8.htm","hoursOfOperation":"Monday - Thursday 12pm - 10 pm\r\nFriday 12pm - 11pm\r\nSaturday 12pm - 11pm\r\nSunday 12pm - 9pm","latitude":44.8861815,"longitude":-85.5285305,"isPrimary":"N","inPlanning":"N","isClosed":"N","openToPublic":"Y","locationType":"restaurant","locationTypeDisplay":"Restaurant/Ale House","countryIsoCode":"US","status":"verified","statusDisplay":"Verified","createDate":"2012-08-11 19:43:08","updateDate":"2014-07-23 19:11:34","country":{"isoCode":"US","name":"UNITED STATES","displayName":"United States","isoThree":"USA","numberCode":840,"createDate":"2012-01-03 02:41:33"}},{"id":"4FpSRu","name":"Northern United Brewing Company","streetAddress":"2319 Bishop Cir East","locality":"Dexter","region":"Michigan","postalCode":"48130","phone":"(734) 424-9540","website":"http://www.jollypumpkin.com/","latitude":42.323727,"longitude":-83.879212,"isPrimary":"Y","inPlanning":"N","isClosed":"N","openToPublic":"Y","locationType":"production","locationTypeDisplay":"Production Facility","countryIsoCode":"US","status":"verified","statusDisplay":"Verified","createDate":"2013-08-12 20:27:33","updateDate":"2014-07-23 19:11:34","country":{"isoCode":"US","name":"UNITED STATES","displayName":"United States","isoThree":"USA","numberCode":840,"createDate":"2012-01-03 02:41:33"}},{"id":"8FRtPM","name":"Main Brewery","streetAddress":"47160 Spruce Haven Street","locality":"Kenai","region":"Alaska","postalCode":"99611","phone":"907-776-4055","website":"http://www.kassikskenaibrewstop.com/","hoursOfOperation":"Tue - Sat:\t12:00 pm\t-\t7:00 pm\r\nSun:\t12:00 pm\t-\t5:00 pm","latitude":60.663935,"longitude":-151.30604,"isPrimary":"Y","inPlanning":"N","isClosed":"N","openToPublic":"Y","locationType":"micro","locationTypeDisplay":"Micro Brewery","countryIsoCode":"US","yearOpened":"2004","status":"verified","statusDisplay":"Verified","createDate":"2012-01-03 02:41:59","updateDate":"2014-07-23 19:11:34","country":{"isoCode":"US","name":"UNITED STATES","displayName":"United States","isoThree":"USA","numberCode":840,"createDate":"2012-01-03 02:41:33"}},{"id":"SqsntH","name":"Main Brewery","streetAddress":"Schloßplatz 1","locality":"Königs Wusterhausen","region":"Brandenburg","postalCode":"15711","latitude":52.284485,"longitude":13.6193,"isPrimary":"N","inPlanning":"N","isClosed":"N","openToPublic":"Y","locationType":"micro","locationTypeDisplay":"Micro Brewery","countryIsoCode":"DE","status":"verified","statusDisplay":"Verified","createDate":"2012-08-12 14:46:40","updateDate":"2014-07-23 19:11:34","country":{"isoCode":"DE","name":"GERMANY","displayName":"Germany","isoThree":"DEU","numberCode":276,"createDate":"2012-01-03 02:41:33"}},{"id":"LZ4UuN","name":"Main Brewery","streetAddress":"408 Shelden Avenue","locality":"Houghton","region":"Michigan","postalCode":"49931","phone":"906-482-5596","website":"http://www.keweenawbrewing.com/","latitude":47.1218751,"longitude":-88.5688653,"isPrimary":"Y","inPlanning":"N","isClosed":"N","openToPublic":"Y","locationType":"brewpub","locationTypeDisplay":"Brewpub","countryIsoCode":"US","yearOpened":"2001","status":"verified","statusDisplay":"Verified","createDate":"2012-01-03 02:41:59","updateDate":"2014-07-23 19:11:34","country":{"isoCode":"US","name":"UNITED STATES","displayName":"United States","isoThree":"USA","numberCode":840,"createDate":"2012-01-03 02:41:33"}},{"id":"lZBw4B","name":"Main Brewpub","streetAddress":"Hauptstraße 4","locality":"Schillsdorf-Hüttenwohld","region":"Schleswig-Holstein","postalCode":"24637","latitude":54.115745,"longitude":10.12428,"isPrimary":"Y","inPlanning":"N","isClosed":"N","openToPublic":"Y","locationType":"brewpub","locationTypeDisplay":"Brewpub","countryIsoCode":"DE","status":"verified","statusDisplay":"Verified","createDate":"2012-08-12 23:44:33","updateDate":"2014-07-23 19:11:34","country":{"isoCode":"DE","name":"GERMANY","displayName":"Germany","isoThree":"DEU","numberCode":276,"createDate":"2012-01-03 02:41:33"}},{"id":"JjzyTT","name":"Main Brewery","streetAddress":"3650 James St","extendedAddress":"#105","locality":"Syracuse","region":"New York","postalCode":"13206","website":"http://www.landmarkbrewing.com/","latitude":43.069274,"longitude":-76.0943471,"isPrimary":"Y","inPlanning":"N","isClosed":"Y","openToPublic":"Y","locationType":"micro","locationTypeDisplay":"Micro Brewery","countryIsoCode":"US","yearOpened":"2004","status":"verified","statusDisplay":"Verified","createDate":"2012-01-03 02:42:00","updateDate":"2014-07-23 19:11:34","country":{"isoCode":"US","name":"UNITED STATES","displayName":"United States","isoThree":"USA","numberCode":840,"createDate":"2012-01-03 02:41:33"}},{"id":"RT0XDJ","name":"Main Brewery","streetAddress":"1245 Puerta del Sol","locality":"San Clemente","region":"California","postalCode":"92673","phone":"949-361-9972","website":"http://www.leftcoastbrewing.com/","latitude":33.4576938,"longitude":-117.5887188,"isPrimary":"Y","inPlanning":"N","isClosed":"N","openToPublic":"Y","locationType":"micro","locationTypeDisplay":"Micro Brewery","countryIsoCode":"US","status":"verified","statusDisplay":"Verified","createDate":"2012-01-03 02:42:00","updateDate":"2014-07-23 19:11:34","country":{"isoCode":"US","name":"UNITED STATES","displayName":"United States","isoThree":"USA","numberCode":840,"createDate":"2012-01-03 02:41:33"}},{"id":"yu0Mbf","name":"Main Brewery","streetAddress":"3755-C Boul.","locality":"Matte Brossard","region":"Quebec","postalCode":"J4Y 2P4","phone":"450-619-2372","website":"http://lestroismousquetaires.ca/","latitude":45.4307216,"longitude":-73.4636402,"isPrimary":"Y","inPlanning":"N","isClosed":"N","openToPublic":"Y","locationType":"micro","locationTypeDisplay":"Micro Brewery","countryIsoCode":"CA","yearOpened":"2004","status":"verified","statusDisplay":"Verified","createDate":"2014-02-26 19:05:21","updateDate":"2014-07-23 19:11:34","country":{"isoCode":"CA","name":"CANADA","displayName":"Canada","isoThree":"CAN","numberCode":124,"createDate":"2012-01-03 02:41:33"}},{"id":"iYAf2b","name":"Main Brewery","extendedAddress":"PO Box 1037","locality":"Belgrade","region":"Montana","phone":"406-388-0322","website":"http://www.madisonriverbrewing.com/","latitude":45.790526,"longitude":-111.143283,"isPrimary":"Y","inPlanning":"N","isClosed":"N","openToPublic":"Y","locationType":"micro","locationTypeDisplay":"Micro Brewery","countryIsoCode":"US","status":"verified","statusDisplay":"Verified","createDate":"2012-01-03 02:42:01","updateDate":"2014-07-23 19:11:34","country":{"isoCode":"US","name":"UNITED STATES","displayName":"United States","isoThree":"USA","numberCode":840,"createDate":"2012-01-03 02:41:33"}},{"id":"qJYrrN","name":"Microbrasserie Le BroueMont","streetAddress":"107, boulevard Bromont","locality":"Bromont","region":"Québec","postalCode":"j2l2k7","phone":"1-450-534-0001","website":"http://www.brouemont.com","hoursOfOperation":"Mon - Sun: 11:30 am - 1:00 am","latitude":45.3162721,"longitude":-72.6428672,"isPrimary":"Y","inPlanning":"N","isClosed":"N","openToPublic":"Y","locationType":"brewpub","locationTypeDisplay":"Brewpub","countryIsoCode":"CA","yearOpened":"2004","status":"verified","statusDisplay":"Verified","createDate":"2013-07-05 14:29:26","updateDate":"2014-07-23 19:11:34","country":{"isoCode":"CA","name":"CANADA","displayName":"Canada","isoThree":"CAN","numberCode":124,"createDate":"2012-01-03 02:41:33"}},{"id":"zMORP4","name":"Microbrasserie Le Grimoire","streetAddress":"223, rue Principale","locality":"Granby","region":"Québec","postalCode":"j2g2v7","phone":"1-450-372-7079","website":"http://www.brasseriegrimoire.com/","latitude":45.4005274,"longitude":-72.7277351,"isPrimary":"Y","inPlanning":"N","isClosed":"N","openToPublic":"Y","locationType":"brewpub","locationTypeDisplay":"Brewpub","countryIsoCode":"CA","yearOpened":"2004","status":"verified","statusDisplay":"Verified","createDate":"2013-07-04 20:42:15","updateDate":"2014-07-23 19:11:34","country":{"isoCode":"CA","name":"CANADA","displayName":"Canada","isoThree":"CAN","numberCode":124,"createDate":"2012-01-03 02:41:33"}},{"id":"eMchzr","name":"Main Brewery","streetAddress":"20 Langtree Avenue","locality":"Mildura","region":"Victoria","postalCode":"3500","phone":"+61 3 5021 5399","website":"http://www.mildurabrewery.com.au/","latitude":-34.18344,"longitude":142.163004,"isPrimary":"Y","inPlanning":"N","isClosed":"N","openToPublic":"Y","locationType":"micro","locationTypeDisplay":"Micro Brewery","countryIsoCode":"AU","yearOpened":"2004","status":"verified","statusDisplay":"Verified","createDate":"2014-01-22 02:12:42","updateDate":"2014-07-23 19:11:34","country":{"isoCode":"AU","name":"AUSTRALIA","displayName":"Australia","isoThree":"AUS","numberCode":36,"createDate":"2012-01-03 02:41:33"}},{"id":"cGNaZ5","name":"Main Brewery","streetAddress":"100 Wattaquadoc Hill Road","locality":"Bolton","region":"Massachusetts","postalCode":"01740","phone":"978-779-5521","website":"http://nashobawinery.com/","hoursOfOperation":"Monday: 10:00-5:00\r\nTuesday: 10:00-5:00\r\nWednesday: 10:00-5:00\r\nThursday: 10:00-5:00\r\nFriday: 10:00-6:00\r\nSaturday: 10:00-6:00\r\nSunday: 10:00-5:00","latitude":42.4318206,"longitude":-71.6132766,"isPrimary":"Y","inPlanning":"N","isClosed":"N","openToPublic":"Y","locationType":"micro","locationTypeDisplay":"Micro Brewery","countryIsoCode":"US","yearOpened":"2004","status":"verified","statusDisplay":"Verified","createDate":"2012-01-03 02:42:03","updateDate":"2014-07-23 19:11:34","country":{"isoCode":"US","name":"UNITED STATES","displayName":"United States","isoThree":"USA","numberCode":840,"createDate":"2012-01-03 02:41:33"}},{"id":"Mu5Kkh","name":"Greensboro","streetAddress":"345 S. Elm St.","locality":"Greensboro","region":"North Carolina","postalCode":"27401","phone":"336-274-1373","website":"http://nattygreenes.com","latitude":36.069368,"longitude":-79.790431,"isPrimary":"Y","inPlanning":"N","isClosed":"N","openToPublic":"Y","locationType":"brewpub","locationTypeDisplay":"Brewpub","countryIsoCode":"US","yearOpened":"2004","status":"verified","statusDisplay":"Verified","createDate":"2012-01-03 02:42:15","updateDate":"2014-07-23 19:11:34","country":{"isoCode":"US","name":"UNITED STATES","displayName":"United States","isoThree":"USA","numberCode":840,"createDate":"2012-01-03 02:41:33"}},{"id":"zDo8u8","name":"Raleigh","streetAddress":"505 W. Jones St.","locality":"Raleigh","region":"North Carolina","postalCode":"27603","phone":"919-232-2477","website":"http://nattygreenes.com/raleigh/","latitude":35.7827192,"longitude":-78.6464118,"isPrimary":"N","inPlanning":"N","isClosed":"N","openToPublic":"Y","locationType":"brewpub","locationTypeDisplay":"Brewpub","countryIsoCode":"US","yearOpened":"2004","status":"verified","statusDisplay":"Verified","createDate":"2012-01-03 02:42:15","updateDate":"2014-07-23 19:11:34","country":{"isoCode":"US","name":"UNITED STATES","displayName":"United States","isoThree":"USA","numberCode":840,"createDate":"2012-01-03 02:41:33"}},{"id":"Cqkjwu","name":"Production","streetAddress":"1918 W Lee St","locality":"Greensboro","region":"North Carolina","postalCode":"27403","phone":"(336) 274-1373","latitude":36.060906,"longitude":-79.824978,"isPrimary":"N","inPlanning":"N","isClosed":"N","openToPublic":"N","locationType":"production","locationTypeDisplay":"Production Facility","countryIsoCode":"US","yearOpened":"2004","status":"verified","statusDisplay":"Verified","createDate":"2012-02-10 15:02:37","updateDate":"2014-07-23 19:11:34","country":{"isoCode":"US","name":"UNITED STATES","displayName":"United States","isoThree":"USA","numberCode":840,"createDate":"2012-01-03 02:41:33"}},{"id":"QtDyxR","name":"Main Brewery","streetAddress":"316 Main Street","locality":"Ames","region":"Iowa","postalCode":"50010","phone":"1-515-232-0553","website":"http://www.oldemainbrewing.com/","latitude":42.024803,"longitude":-93.614693,"isPrimary":"Y","inPlanning":"N","isClosed":"N","openToPublic":"Y","locationType":"micro","locationTypeDisplay":"Micro Brewery","countryIsoCode":"US","yearOpened":"2004","status":"verified","statusDisplay":"Verified","createDate":"2012-01-03 02:42:04","updateDate":"2014-07-23 19:11:34","country":{"isoCode":"US","name":"UNITED STATES","displayName":"United States","isoThree":"USA","numberCode":840,"createDate":"2012-01-03 02:41:33"}},{"id":"5LLJ5X","name":"Main Brewery","streetAddress":"169 College Highway","locality":"Southampton","region":"Massachusetts","postalCode":"01073","phone":"413-527-0808","website":"http://www.opaopasteakhousebrewery.com/","latitude":42.236242,"longitude":-72.7247882,"isPrimary":"Y","inPlanning":"N","isClosed":"N","openToPublic":"Y","locationType":"brewpub","locationTypeDisplay":"Brewpub","countryIsoCode":"US","status":"verified","statusDisplay":"Verified","createDate":"2012-01-03 02:42:04","updateDate":"2014-07-23 19:11:34","country":{"isoCode":"US","name":"UNITED STATES","displayName":"United States","isoThree":"USA","numberCode":840,"createDate":"2012-01-03 02:41:33"}},{"id":"BFHLOT","name":"Main Brewery","streetAddress":"150 Eastside Dr","locality":"Black Mountain","region":"North Carolina","postalCode":"28711","phone":"828-669-0190","website":"http://pisgahbrewing.com/","hoursOfOperation":"Mon, Tues, & Wed:  4pm â€“ 9pm\r\nThurs, Fri, & Sat:  2pm â€“ 12am (generally)\r\nSun:  2pm â€“ 9pm\r\n\r\nBrewery Tours:  Saturdays @ 2pm & 3pm","latitude":35.608487,"longitude":-82.361055,"isPrimary":"Y","inPlanning":"N","isClosed":"N","openToPublic":"Y","locationType":"micro","locationTypeDisplay":"Micro Brewery","countryIsoCode":"US","yearOpened":"2004","status":"verified","statusDisplay":"Verified","createDate":"2012-01-03 02:42:05","updateDate":"2014-07-23 19:11:34","country":{"isoCode":"US","name":"UNITED STATES","displayName":"United States","isoThree":"USA","numberCode":840,"createDate":"2012-01-03 02:41:33"}},{"id":"X6U0o8","name":"Main Brewery","streetAddress":"701 Galveston Avenue","locality":"Fort Worth","region":"Texas","postalCode":"76104","phone":"817-810-9266","website":"http://www.rahrbrewery.com/","hoursOfOperation":"Wed:5:00 pm - 7:30 pm\r\nSat:1:00 pm - 3:00 pm","latitude":32.7368128,"longitude":-97.3275585,"isPrimary":"Y","inPlanning":"N","isClosed":"N","openToPublic":"Y","locationType":"micro","locationTypeDisplay":"Micro Brewery","countryIsoCode":"US","yearOpened":"2004","status":"verified","statusDisplay":"Verified","createDate":"2012-01-03 02:42:06","updateDate":"2014-10-29 16:04:43","country":{"isoCode":"US","name":"UNITED STATES","displayName":"United States","isoThree":"USA","numberCode":840,"createDate":"2012-01-03 02:41:33"}},{"id":"Vmf00H","name":"Main Brewery","streetAddress":"88 Shoreham Rd","locality":"Red Hill South","region":"Victoria","postalCode":"3937","phone":"03 59892959","website":"http://www.redhillbrewery.com.au/","latitude":-38.3917441,"longitude":145.0184082,"isPrimary":"Y","inPlanning":"N","isClosed":"N","openToPublic":"Y","locationType":"micro","locationTypeDisplay":"Micro Brewery","countryIsoCode":"AU","yearOpened":"2004","status":"verified","statusDisplay":"Verified","createDate":"2012-01-03 02:42:06","updateDate":"2014-07-23 19:11:34","country":{"isoCode":"AU","name":"AUSTRALIA","displayName":"Australia","isoThree":"AUS","numberCode":36,"createDate":"2012-01-03 02:41:33"}},{"id":"i2RMeq","name":"Main Brewery","streetAddress":"1015 Marine Drive","locality":"North Vancouver","region":"British Columbia","postalCode":"V7P 1S5","phone":"604-682-4733","website":"http://www.redtruckbeer.com/","latitude":49.32381,"longitude":-123.102109,"isPrimary":"Y","inPlanning":"N","isClosed":"N","openToPublic":"Y","locationType":"micro","locationTypeDisplay":"Micro Brewery","countryIsoCode":"CA","yearOpened":"2004","status":"verified","statusDisplay":"Verified","createDate":"2012-10-21 21:51:17","updateDate":"2014-07-23 19:11:34","country":{"isoCode":"CA","name":"CANADA","displayName":"Canada","isoThree":"CAN","numberCode":124,"createDate":"2012-01-03 02:41:33"}},{"id":"4zruzt","name":"Main Brewery","streetAddress":"201 Clarence Street","locality":"Sydney","region":"New South Wales","postalCode":"2000","phone":"+61 2 9262 3303","website":"http://www.redoak.com.au/","hoursOfOperation":"Mon - Tue: 11:00 am - 10:00 pm\r\nWed: 11:00 am - 10:30 pm\r\nThu - Sat: 11:00 am - 12:00 am","latitude":-33.8697112,"longitude":151.2053618,"isPrimary":"Y","inPlanning":"N","isClosed":"N","openToPublic":"Y","locationType":"micro","locationTypeDisplay":"Micro Brewery","countryIsoCode":"AU","status":"verified","statusDisplay":"Verified","createDate":"2014-02-09 12:26:18","updateDate":"2014-07-23 19:11:34","country":{"isoCode":"AU","name":"AUSTRALIA","displayName":"Australia","isoThree":"AUS","numberCode":36,"createDate":"2012-01-03 02:41:33"}},{"id":"hHD54O","name":"Main Brewery","streetAddress":"990 Antler Court","locality":"River Falls","region":"Wisconsin","postalCode":"54022","phone":"1-715-426-2054","latitude":44.8902357,"longitude":-92.6377675,"isPrimary":"Y","inPlanning":"N","isClosed":"N","openToPublic":"Y","locationType":"micro","locationTypeDisplay":"Micro Brewery","countryIsoCode":"US","status":"verified","statusDisplay":"Verified","createDate":"2012-01-03 02:42:07","updateDate":"2014-07-23 19:11:34","country":{"isoCode":"US","name":"UNITED STATES","displayName":"United States","isoThree":"USA","numberCode":840,"createDate":"2012-01-03 02:41:33"}},{"id":"HfeiMv","name":"Main Brewery","streetAddress":"Auf dem Schlossplatz / Grünstraße","locality":"Köpenick","region":"Berlin","postalCode":"D-12555","latitude":52.460945,"longitude":13.58243,"isPrimary":"N","inPlanning":"N","isClosed":"N","openToPublic":"Y","locationType":"micro","locationTypeDisplay":"Micro Brewery","countryIsoCode":"DE","status":"verified","statusDisplay":"Verified","createDate":"2012-08-12 14:46:34","updateDate":"2014-07-23 19:11:34","country":{"isoCode":"DE","name":"GERMANY","displayName":"Germany","isoThree":"DEU","numberCode":276,"createDate":"2012-01-03 02:41:33"}},{"id":"1WSZAu","name":"Main Brewery","streetAddress":"In der Tränke 8","locality":"Schieder-Schwalenberg","region":"North Rhine-Westphalia","postalCode":"32816","latitude":51.913784,"longitude":9.155275,"isPrimary":"N","inPlanning":"N","isClosed":"N","openToPublic":"Y","locationType":"micro","locationTypeDisplay":"Micro Brewery","countryIsoCode":"DE","status":"verified","statusDisplay":"Verified","createDate":"2012-08-12 14:48:14","updateDate":"2014-07-23 19:11:34","country":{"isoCode":"DE","name":"GERMANY","displayName":"Germany","isoThree":"DEU","numberCode":276,"createDate":"2012-01-03 02:41:33"}},{"id":"CzopCY","name":"Main Brewery","streetAddress":"121 North Bridge Street","locality":"Bellaire","region":"Michigan","postalCode":"49615","phone":"231-533-6622","website":"http://www.shortsbrewing.com/","hoursOfOperation":"Sun - Thu: 11:00 am – 11:00 pm\r\nFri - Sat: 11:00 am - 12:00 am","latitude":44.976269,"longitude":-85.210357,"isPrimary":"Y","inPlanning":"N","isClosed":"N","openToPublic":"Y","locationType":"brewpub","locationTypeDisplay":"Brewpub","countryIsoCode":"US","yearOpened":"2004","status":"verified","statusDisplay":"Verified","createDate":"2012-01-03 02:42:08","updateDate":"2014-07-23 19:11:34","country":{"isoCode":"US","name":"UNITED STATES","displayName":"United States","isoThree":"USA","numberCode":840,"createDate":"2012-01-03 02:41:33"}},{"id":"QJRQhZ","name":"Main Brewery","streetAddress":"40 Van Dyke St","locality":"Brooklyn","region":"New York","postalCode":"11231","phone":"917-696-0438","website":"http://www.sixpointcraftales.com/","latitude":40.6739317,"longitude":-74.0119473,"isPrimary":"Y","inPlanning":"N","isClosed":"N","openToPublic":"Y","locationType":"micro","locationTypeDisplay":"Micro Brewery","countryIsoCode":"US","yearOpened":"2005","status":"verified","statusDisplay":"Verified","createDate":"2012-01-03 02:42:08","updateDate":"2014-07-23 19:11:34","country":{"isoCode":"US","name":"UNITED STATES","displayName":"United States","isoThree":"USA","numberCode":840,"createDate":"2012-01-03 02:41:33"}},{"id":"hObYWr","name":"Main Brewery","streetAddress":"Unit 5, 42 Dryden Road","extendedAddress":"Bilston Glen Ind Estate","locality":"Loanhead","postalCode":"EH20 9LZ","phone":"0131 440 2442","website":"http://www.stewartbrewing.co.uk/","latitude":55.874664,"longitude":-3.168042,"isPrimary":"Y","inPlanning":"N","isClosed":"N","openToPublic":"Y","locationType":"micro","locationTypeDisplay":"Micro Brewery","countryIsoCode":"GB","yearOpened":"2004","status":"verified","statusDisplay":"Verified","createDate":"2012-01-03 02:42:09","updateDate":"2014-07-23 19:11:34","country":{"isoCode":"GB","name":"UNITED KINGDOM","displayName":"United Kingdom","isoThree":"GBR","numberCode":826,"createDate":"2012-01-03 02:41:33"}},{"id":"yNZ1w9","name":"Main Brewery","streetAddress":"Elbstraße 18019","region":"Belgern","postalCode":"D-04874","latitude":51.457174,"longitude":13.124268,"isPrimary":"Y","inPlanning":"N","isClosed":"N","openToPublic":"Y","locationType":"micro","locationTypeDisplay":"Micro Brewery","countryIsoCode":"DE","status":"verified","statusDisplay":"Verified","createDate":"2012-08-15 16:00:38","updateDate":"2014-07-23 19:11:34","country":{"isoCode":"DE","name":"GERMANY","displayName":"Germany","isoThree":"DEU","numberCode":276,"createDate":"2012-01-03 02:41:33"}},{"id":"nnn6Sq","name":"Main Brewery","streetAddress":"322 East Camelback Road","locality":"Phoenix","region":"Arizona","postalCode":"85012","phone":"(602) 279-8909","website":"http://www.sunupbrewing.com/","hoursOfOperation":"Sunday - Thursday 11:00am - 11:00pm\r\nFriday and Saturday to Midnight\r\nHappy Hour: 3:00 - 6:00 PM Daily","latitude":33.509286,"longitude":-112.068897,"isPrimary":"Y","inPlanning":"N","isClosed":"N","openToPublic":"Y","locationType":"micro","locationTypeDisplay":"Micro Brewery","countryIsoCode":"US","status":"verified","statusDisplay":"Verified","createDate":"2012-01-03 02:42:09","updateDate":"2014-07-23 19:11:34","country":{"isoCode":"US","name":"UNITED STATES","displayName":"United States","isoThree":"USA","numberCode":840,"createDate":"2012-01-03 02:41:33"}},{"id":"pZWPJO","name":"Søgaards Bryghus","streetAddress":"C. W. Obels Plads 1","locality":"Aalborg","postalCode":"9000","phone":"+45 98 16 11 14","website":"http://www.soegaardsbryghus.dk/","hoursOfOperation":"Monday - Wednesday from 11.00 to 23.00\r\nThursday - from 11.00 to 23.00\r\nFriday 11.00 - late\r\nSaturday 11.00 - late\r\nSunday 10.30 to 21.00","latitude":57.0489425,"longitude":9.920078,"isPrimary":"Y","inPlanning":"N","isClosed":"N","openToPublic":"Y","locationType":"micro","locationTypeDisplay":"Micro Brewery","countryIsoCode":"DK","status":"verified","statusDisplay":"Verified","createDate":"2012-12-30 20:45:36","updateDate":"2014-07-23 19:11:34","country":{"isoCode":"DK","name":"DENMARK","displayName":"Denmark","isoThree":"DNK","numberCode":208,"createDate":"2012-01-03 02:41:33"}},{"id":"pQw6oS","name":"Main Brewery","streetAddress":"4519 W. Pine Street","locality":"Farmville","region":"North Carolina","postalCode":"27828","phone":"252-753-7745","website":"http://www.duckrabbitbrewery.com/","hoursOfOperation":"Friday: 3:00 p.m. to 7:00 p.m","latitude":35.600267,"longitude":-77.597058,"isPrimary":"Y","inPlanning":"N","isClosed":"N","openToPublic":"Y","locationType":"micro","locationTypeDisplay":"Micro Brewery","countryIsoCode":"US","yearOpened":"2004","status":"verified","statusDisplay":"Verified","createDate":"2012-01-03 02:42:10","updateDate":"2014-07-23 19:11:34","country":{"isoCode":"US","name":"UNITED STATES","displayName":"United States","isoThree":"USA","numberCode":840,"createDate":"2012-01-03 02:41:33"}},{"id":"IlsbIJ","name":"Main Brewery","streetAddress":"Eikestraat","region":"Tervuren","postalCode":"3080","website":"http://www.theoakbrewery.be","latitude":50.8136915,"longitude":4.5053418,"isPrimary":"Y","inPlanning":"N","isClosed":"N","openToPublic":"Y","locationType":"micro","locationTypeDisplay":"Micro Brewery","countryIsoCode":"BE","yearOpened":"2004","status":"verified","statusDisplay":"Verified","createDate":"2013-06-26 18:05:37","updateDate":"2014-07-23 19:11:34","country":{"isoCode":"BE","name":"BELGIUM","displayName":"Belgium","isoThree":"BEL","numberCode":56,"createDate":"2012-01-03 02:41:33"}},{"id":"33shrE","name":"Main Brewery","streetAddress":"1404 4th Street","locality":"Berkeley","region":"California","postalCode":"94710","phone":"510- 526-1160","website":"http://www.trumer-international.com/","latitude":37.876741,"longitude":-122.303439,"isPrimary":"Y","inPlanning":"N","isClosed":"N","openToPublic":"Y","locationType":"micro","locationTypeDisplay":"Micro Brewery","countryIsoCode":"US","yearOpened":"2004","status":"verified","statusDisplay":"Verified","createDate":"2012-01-03 02:42:11","updateDate":"2014-07-23 19:11:34","country":{"isoCode":"US","name":"UNITED STATES","displayName":"United States","isoThree":"USA","numberCode":840,"createDate":"2012-01-03 02:41:33"}},{"id":"eLQsxO","name":"Main Brewery","streetAddress":"Neumarkt 2","locality":"Chemnitz","region":"Sachsen","postalCode":"D-09110","latitude":50.826891,"longitude":12.88854,"isPrimary":"N","inPlanning":"N","isClosed":"N","openToPublic":"Y","locationType":"micro","locationTypeDisplay":"Micro Brewery","countryIsoCode":"DE","status":"verified","statusDisplay":"Verified","createDate":"2012-08-12 14:47:42","updateDate":"2014-07-23 19:11:34","country":{"isoCode":"DE","name":"GERMANY","displayName":"Germany","isoThree":"DEU","numberCode":276,"createDate":"2012-01-03 02:41:33"}},{"id":"qs9b4m","name":"Main Brewery","extendedAddress":"PO Box 2469","locality":"Florence","region":"Oregon","phone":"541-991-0694","latitude":44.03085,"longitude":-124.132789,"isPrimary":"Y","inPlanning":"N","isClosed":"Y","openToPublic":"N","locationType":"micro","locationTypeDisplay":"Micro Brewery","countryIsoCode":"US","status":"verified","statusDisplay":"Verified","createDate":"2012-01-03 02:42:12","updateDate":"2014-07-23 19:11:34","country":{"isoCode":"US","name":"UNITED STATES","displayName":"United States","isoThree":"USA","numberCode":840,"createDate":"2012-01-03 02:41:33"}}]