[{"id":"XXgGZ4","name":"Main Brewery","streetAddress":"Monastery of Christ in the Desert","extendedAddress":"PO Box 270","locality":"Abiquiu","region":"New Mexico","postalCode":"87510","phone":"(505) 670-6802","website":"http://www.abbeybeveragecompany.com/","latitude":36.157399,"longitude":-106.280386,"isPrimary":"Y","inPlanning":"N","isClosed":"N","openToPublic":"Y","locationType":"micro","locationTypeDisplay":"Micro Brewery","countryIsoCode":"US","status":"verified","statusDisplay":"Verified","createDate":"2012-01-03 02:41:43","updateDate":"2014-07-23 19:11:34","country":{"isoCode":"US","name":"UNITED STATES","displayName":"United States","isoThree":"USA","numberCode":840,"createDate":"2012-01-03 02:41:33"}},{"id":"KuH7Gy","name":"Microbrasserie Archibald","streetAddress":"1021, boul. du Lac","locality":"Lac-Beauport","region":"Québec","postalCode":"g3b0x1","phone":"1-418-841-2224","website":"http://www.archibaldmicrobrasserie.ca/","latitude":46.9380213,"longitude":-71.3076291,"isPrimary":"Y","inPlanning":"N","isClosed":"N","openToPublic":"Y","locationType":"brewpub","locationTypeDisplay":"Brewpub","countryIsoCode":"CA","yearOpened":"2005","status":"verified","statusDisplay":"Verified","createDate":"2013-07-03 15:05:15","updateDate":"2014-07-23 19:11:34","country":{"isoCode":"CA","name":"CANADA","displayName":"Canada","isoThree":"CAN","numberCode":124,"createDate":"2012-01-03 02:41:33"}},{"id":"xDzvQP","name":"Microbrasserie Archibald","streetAddress":"1240, Autoroute Duplessis","locality":"Québec","region":"Québec","postalCode":"g2g2b5","phone":"1-418-877-0123","website":"http://www.archibaldmicrobrasserie.ca/","latitude":46.7862906,"longitude":-71.3533881,"isPrimary":"N","inPlanning":"N","isClosed":"N","openToPublic":"Y","locationType":"brewpub","locationTypeDisplay":"Brewpub","countryIsoCode":"CA","status":"verified","statusDisplay":"Verified","createDate":"2013-07-03 15:07:33","updateDate":"2014-07-23 19:11:34","country":{"isoCode":"CA","name":"CANADA","displayName":"Canada","isoThree":"CAN","numberCode":124,"createDate":"2012-01-03 02:41:33"}},{"id":"owsQDs","name":"Main Brewery","streetAddress":"937 SE 12th Avenue","locality":"Ontario","region":"Oregon","postalCode":"97914","phone":"541.881.9088","hoursOfOperation":"Thursdays:  2 - 6 PM\r\nFridays:  2 - 6 PM\r\nSaturdays:  11 AM - 3 PM","latitude":44.014938,"longitude":-116.952476,"isPrimary":"Y","inPlanning":"N","isClosed":"N","openToPublic":"Y","locationType":"micro","locationTypeDisplay":"Micro Brewery","countryIsoCode":"US","status":"verified","statusDisplay":"Verified","createDate":"2012-10-21 13:03:13","updateDate":"2014-07-23 19:11:34","country":{"isoCode":"US","name":"UNITED STATES","displayName":"United States","isoThree":"USA","numberCode":840,"createDate":"2012-01-03 02:41:33"}},{"id":"ihEkIF","name":"Main Brewery","streetAddress":"5030 208th ST SW Ste. A","locality":"Lynnwood","region":"Washington","postalCode":"98036","phone":"425-672-7051","hoursOfOperation":"Tuesday- Saturday 11:00 AM to 10:00 PM","latitude":47.809864,"longitude":-122.302111,"isPrimary":"Y","inPlanning":"N","isClosed":"N","openToPublic":"Y","locationType":"brewpub","locationTypeDisplay":"Brewpub","countryIsoCode":"US","status":"verified","statusDisplay":"Verified","createDate":"2012-01-03 02:41:53","updateDate":"2014-07-23 19:11:34","country":{"isoCode":"US","name":"UNITED STATES","displayName":"United States","isoThree":"USA","numberCode":840,"createDate":"2012-01-03 02:41:33"}},{"id":"IWNc5c","name":"Main Brewery","streetAddress":"2470 Bates Ave.","locality":"Concord","region":"California","postalCode":"94520","phone":"925-356-0120","website":"http://www.bdbrewing.com/","latitude":38.013883,"longitude":-122.030826,"isPrimary":"Y","inPlanning":"N","isClosed":"N","openToPublic":"Y","locationType":"micro","locationTypeDisplay":"Micro Brewery","countryIsoCode":"US","yearOpened":"2005","status":"verified","statusDisplay":"Verified","createDate":"2012-01-03 02:41:46","updateDate":"2014-10-06 15:31:33","country":{"isoCode":"US","name":"UNITED STATES","displayName":"United States","isoThree":"USA","numberCode":840,"createDate":"2012-01-03 02:41:33"}},{"id":"eNaHVH","name":"Main Brewery","extendedAddress":"PO Box 2678","locality":"Blowing Rock","region":"North Carolina","phone":"828-963-0619","website":"http://www.boonebrewing.com/","latitude":36.12602,"longitude":-81.733209,"isPrimary":"Y","inPlanning":"N","isClosed":"N","openToPublic":"Y","locationType":"office","locationTypeDisplay":"Office","countryIsoCode":"US","yearOpened":"2005","status":"verified","statusDisplay":"Verified","createDate":"2012-01-03 02:41:47","updateDate":"2014-07-23 19:11:34","country":{"isoCode":"US","name":"UNITED STATES","displayName":"United States","isoThree":"USA","numberCode":840,"createDate":"2012-01-03 02:41:33"}},{"id":"LwRkKF","name":"Main Brewery","streetAddress":"Bei der Kirche 1","locality":"Neuhaus/Oste","region":"Lower Saxony","postalCode":"21785","latitude":53.81675,"longitude":8.993758,"isPrimary":"N","inPlanning":"N","isClosed":"N","openToPublic":"Y","locationType":"micro","locationTypeDisplay":"Micro Brewery","countryIsoCode":"DE","status":"verified","statusDisplay":"Verified","createDate":"2012-08-12 14:46:50","updateDate":"2014-07-23 19:11:34","country":{"isoCode":"DE","name":"GERMANY","displayName":"Germany","isoThree":"DEU","numberCode":276,"createDate":"2012-01-03 02:41:33"}},{"id":"OjddwJ","name":"Main Brewery","streetAddress":"50 Powell St","locality":"Plains","region":"Pennsylvania","postalCode":"18705","phone":"570-392-9078","website":"http://www.breakerbrewingcompany.com/","latitude":41.285266,"longitude":-75.847067,"isPrimary":"Y","inPlanning":"N","isClosed":"N","openToPublic":"Y","locationType":"micro","locationTypeDisplay":"Micro Brewery","countryIsoCode":"US","yearOpened":"2005","status":"verified","statusDisplay":"Verified","createDate":"2012-01-03 02:41:48","updateDate":"2014-07-23 19:11:34","country":{"isoCode":"US","name":"UNITED STATES","displayName":"United States","isoThree":"USA","numberCode":840,"createDate":"2012-01-03 02:41:33"}},{"id":"rUJnPa","name":"Main Brewery","streetAddress":"121 Great Alpine Road","locality":"Bright","region":"Victoria","postalCode":"3741","phone":"+61 3 5755 1301","website":"http://www.brightbrewery.com.au/","hoursOfOperation":"Mon - Sun: 11:00 am - 10:00 pm","latitude":-36.7261125,"longitude":146.961645,"isPrimary":"Y","inPlanning":"N","isClosed":"N","openToPublic":"Y","locationType":"micro","locationTypeDisplay":"Micro Brewery","countryIsoCode":"AU","yearOpened":"2005","status":"verified","statusDisplay":"Verified","createDate":"2014-03-16 14:25:41","updateDate":"2014-07-23 19:11:34","country":{"isoCode":"AU","name":"AUSTRALIA","displayName":"Australia","isoThree":"AUS","numberCode":36,"createDate":"2012-01-03 02:41:33"}},{"id":"Rgbf5m","name":"Main Brewery","streetAddress":"The Old Brewery","extendedAddress":"Durnford Street","locality":"Bristol","postalCode":"BS3 2AW","phone":"+44 117 902 6317","website":"http://www.bristolbeerfactory.co.uk/","hoursOfOperation":"Mon - Fri: 9:00 am - 5:00 pm","latitude":51.441078,"longitude":-2.6156,"isPrimary":"Y","inPlanning":"N","isClosed":"N","openToPublic":"Y","locationType":"micro","locationTypeDisplay":"Micro Brewery","countryIsoCode":"GB","yearOpened":"2005","status":"verified","statusDisplay":"Verified","createDate":"2012-01-03 02:41:48","updateDate":"2014-07-23 19:11:34","country":{"isoCode":"GB","name":"UNITED KINGDOM","displayName":"United Kingdom","isoThree":"GBR","numberCode":826,"createDate":"2012-01-03 02:41:33"}},{"id":"pXqnWD","name":"Main Brewery","streetAddress":"Meensesteenweg 65","region":"Izegem","postalCode":"8870","phone":"+32 (0)51 316270","website":"http://www.brouwerijhetalternatief.be/","latitude":50.9064957,"longitude":3.2004134,"isPrimary":"Y","inPlanning":"N","isClosed":"N","openToPublic":"Y","locationType":"micro","locationTypeDisplay":"Micro Brewery","countryIsoCode":"BE","yearOpened":"2005","status":"verified","statusDisplay":"Verified","createDate":"2014-01-23 13:07:17","updateDate":"2014-07-23 19:11:34","country":{"isoCode":"BE","name":"BELGIUM","displayName":"Belgium","isoThree":"BEL","numberCode":56,"createDate":"2012-01-03 02:41:33"}},{"id":"BE5WM0","name":"Main Brewery","streetAddress":"1011 E Westfield Blvd","locality":"Indianapolis","region":"Indiana","postalCode":"46220","phone":"317-255-0978","website":"http://www.bruggebrasserie.com/","hoursOfOperation":"Mon – Sat: 11:00 am – 10:30 pm\r\nSun: Noon – 9:00 pm","latitude":39.870398,"longitude":-86.141217,"isPrimary":"Y","inPlanning":"N","isClosed":"N","openToPublic":"Y","locationType":"brewpub","locationTypeDisplay":"Brewpub","countryIsoCode":"US","status":"verified","statusDisplay":"Verified","createDate":"2012-01-03 02:41:49","updateDate":"2014-07-23 19:11:34","country":{"isoCode":"US","name":"UNITED STATES","displayName":"United States","isoThree":"USA","numberCode":840,"createDate":"2012-01-03 02:41:33"}},{"id":"ZiwDNN","name":"Main Brewery","streetAddress":"4021 State Highway","locality":"Garrattsville","region":"New York","postalCode":"13342","phone":"607-263-5070","website":"http://butternutsbeerandale.com/","hoursOfOperation":"Mon - Sun: 12:00 pm - 5:00 pm","latitude":42.6469262,"longitude":-75.1837216,"isPrimary":"Y","inPlanning":"N","isClosed":"N","openToPublic":"Y","locationType":"micro","locationTypeDisplay":"Micro Brewery","countryIsoCode":"US","yearOpened":"2005","status":"verified","statusDisplay":"Verified","createDate":"2012-01-03 02:41:49","updateDate":"2014-07-23 19:11:34","country":{"isoCode":"US","name":"UNITED STATES","displayName":"United States","isoThree":"USA","numberCode":840,"createDate":"2012-01-03 02:41:33"}},{"id":"UReA9x","name":"Main Brewery","streetAddress":"4939 Pan American Freeway NE","locality":"Albuquerque","region":"New Mexico","postalCode":"87109","phone":"505-342-1800","website":"http://www.chamariverbrewery.com/","hoursOfOperation":"Mon:  11:00am - 11:00pm\nTue:  11:00am - 11:00pm\nWed:  11:00am - 11:00pm\nThu:  11:00am - 11:00pm\nFri:  11:00am - 12:00am\nSat:  11:00am - 12:00am\nSun:  11:00am - 11:00pm\n\nMon - Thu: 11:00 am - 11:00 pm\r\nFri - Sat: 11:00 am - 12:00 am\r\nSun: 11:00 am - 11:00 pm","latitude":35.1388954,"longitude":-106.600323,"isPrimary":"Y","inPlanning":"N","isClosed":"N","openToPublic":"Y","locationType":"micro","locationTypeDisplay":"Micro Brewery","countryIsoCode":"US","yearOpened":"2005","status":"verified","statusDisplay":"Verified","createDate":"2012-01-03 02:41:50","updateDate":"2014-09-29 20:12:15","country":{"isoCode":"US","name":"UNITED STATES","displayName":"United States","isoThree":"USA","numberCode":840,"createDate":"2012-01-03 02:41:33"}},{"id":"LWD44j","name":"Main Brewery","streetAddress":"15120 E. Hampden Ave","locality":"Aurora","region":"Colorado","postalCode":"80014","phone":"303-400-5606","website":"http://www.drydockbrewing.com/","hoursOfOperation":"Mon - Thu: 12:00 am - 9:00 pm\r\nFri - Sat: 12:00 am - 11:00 pm\r\nSun: 12:00 am - 9:00 pm","latitude":39.6529966,"longitude":-104.8117475,"isPrimary":"Y","inPlanning":"N","isClosed":"N","openToPublic":"Y","locationType":"micro","locationTypeDisplay":"Micro Brewery","countryIsoCode":"US","yearOpened":"2005","status":"verified","statusDisplay":"Verified","createDate":"2012-01-03 02:41:53","updateDate":"2014-07-23 19:11:34","country":{"isoCode":"US","name":"UNITED STATES","displayName":"United States","isoThree":"USA","numberCode":840,"createDate":"2012-01-03 02:41:33"}},{"id":"ubXirA","name":"Production Facility","streetAddress":"2801 Tower Rd","locality":"Aurora","region":"Colorado","postalCode":"80011-3508","latitude":39.756605,"longitude":-104.773554,"isPrimary":"N","inPlanning":"N","isClosed":"N","openToPublic":"Y","locationType":"production","locationTypeDisplay":"Production Facility","countryIsoCode":"US","status":"verified","statusDisplay":"Verified","createDate":"2014-11-12 21:39:50","updateDate":"2014-11-12 21:39:50","country":{"isoCode":"US","name":"UNITED STATES","displayName":"United States","isoThree":"USA","numberCode":840,"createDate":"2012-01-03 02:41:33"}},{"id":"R6p6pu","name":"Main Brewery","streetAddress":"Möbelgatan 3","region":"Mölndal","postalCode":"431 33","phone":"031-87 79 00","website":"http://www.dugges.se/","latitude":57.643326,"longitude":12.03141,"isPrimary":"Y","inPlanning":"N","isClosed":"N","openToPublic":"Y","locationType":"micro","locationTypeDisplay":"Micro Brewery","countryIsoCode":"SE","yearOpened":"2005","status":"verified","statusDisplay":"Verified","createDate":"2012-01-03 02:41:53","updateDate":"2014-07-23 19:11:34","country":{"isoCode":"SE","name":"SWEDEN","displayName":"Sweden","isoThree":"SWE","numberCode":752,"createDate":"2012-01-03 02:41:33"}},{"id":"XW0elt","name":"Main Brewery","streetAddress":"30 Bridge Street","locality":"Millers Falls","region":"Massachusetts","postalCode":"01349","phone":"413-835-6340","website":"http://www.elementbeer.com/","hoursOfOperation":"Mon - Tue: 12:00 pm - 6:00 pm\r\nThu - Sat: 12:00 pm - 6:00 pm","latitude":42.577947,"longitude":-72.494568,"isPrimary":"Y","inPlanning":"N","isClosed":"N","openToPublic":"Y","locationType":"micro","locationTypeDisplay":"Micro Brewery","countryIsoCode":"US","yearOpened":"2005","status":"verified","statusDisplay":"Verified","createDate":"2012-01-03 02:41:53","updateDate":"2014-07-23 19:11:34","country":{"isoCode":"US","name":"UNITED STATES","displayName":"United States","isoThree":"USA","numberCode":840,"createDate":"2012-01-03 02:41:33"}},{"id":"8pERfE","name":"Main Brewery","locality":"Hillsborough","region":"New Jersey","postalCode":"08844","phone":"908-396-6166","website":"http://www.flounderbrewing.com/","latitude":40.48255,"longitude":-74.653114,"isPrimary":"Y","inPlanning":"Y","isClosed":"N","openToPublic":"N","locationType":"micro","locationTypeDisplay":"Micro Brewery","countryIsoCode":"US","yearOpened":"2005","status":"verified","statusDisplay":"Verified","createDate":"2012-01-03 02:41:54","updateDate":"2014-07-23 19:11:34","country":{"isoCode":"US","name":"UNITED STATES","displayName":"United States","isoThree":"USA","numberCode":840,"createDate":"2012-01-03 02:41:33"}},{"id":"SY2b6E","name":"Main Brewery","streetAddress":"525 East Madison Street","extendedAddress":"PO Box 776","locality":"Spring Green","region":"Wisconsin","postalCode":"53588","phone":"608-588-3300","website":"http://www.furthermorebeer.com/","latitude":43.18111,"longitude":-90.072391,"isPrimary":"Y","inPlanning":"N","isClosed":"N","openToPublic":"Y","locationType":"micro","locationTypeDisplay":"Micro Brewery","countryIsoCode":"US","status":"verified","statusDisplay":"Verified","createDate":"2012-01-03 02:41:55","updateDate":"2014-07-23 19:11:34","country":{"isoCode":"US","name":"UNITED STATES","displayName":"United States","isoThree":"USA","numberCode":840,"createDate":"2012-01-03 02:41:33"}},{"id":"hzZvpC","name":"Main Brewpub","streetAddress":"Widerholtstrasse 6 - 8","locality":"Kirchheim - Teck","region":"Baden-Württemberg","postalCode":"73230","latitude":48.649021,"longitude":9.452244,"isPrimary":"N","inPlanning":"N","isClosed":"N","openToPublic":"Y","locationType":"brewpub","locationTypeDisplay":"Brewpub","countryIsoCode":"DE","status":"verified","statusDisplay":"Verified","createDate":"2012-08-12 14:46:07","updateDate":"2014-07-23 19:11:34","country":{"isoCode":"DE","name":"GERMANY","displayName":"Germany","isoThree":"DEU","numberCode":276,"createDate":"2012-01-03 02:41:33"}},{"id":"xxKLgd","name":"Main Brewery","streetAddress":"117 East 11th Street","locality":"Hays","region":"Kansas","postalCode":"67601","phone":"785.621.BREW","website":"http://www.lbbrewing.com/","latitude":38.8721166,"longitude":-99.3299918,"isPrimary":"Y","inPlanning":"N","isClosed":"N","openToPublic":"Y","locationType":"micro","locationTypeDisplay":"Micro Brewery","countryIsoCode":"US","yearOpened":"2005","status":"verified","statusDisplay":"Verified","createDate":"2012-01-03 02:41:55","updateDate":"2014-07-23 19:11:34","country":{"isoCode":"US","name":"UNITED STATES","displayName":"United States","isoThree":"USA","numberCode":840,"createDate":"2012-01-03 02:41:33"}},{"id":"09IKmh","name":"Main Brewery","streetAddress":"Bytoften 10","region":"Roskilde","postalCode":"4000","website":"http://gourmetbryggeriet.dk/","latitude":55.643627,"longitude":12.1054592,"isPrimary":"Y","inPlanning":"N","isClosed":"N","openToPublic":"Y","locationType":"micro","locationTypeDisplay":"Micro Brewery","countryIsoCode":"DK","status":"verified","statusDisplay":"Verified","createDate":"2014-07-09 14:38:21","updateDate":"2014-07-23 19:11:34","country":{"isoCode":"DK","name":"DENMARK","displayName":"Denmark","isoThree":"DNK","numberCode":208,"createDate":"2012-01-03 02:41:33"}},{"id":"ugYYEh","name":"Main Brewery","streetAddress":"Ark Farm High Street","locality":"South Tiffield","region":"Northamptonshire","postalCode":"NN12 8AB","phone":"01327 351759","website":"http://www.greatoakleybrewery.co.uk/","latitude":52.158442,"longitude":-0.979995,"isPrimary":"Y","inPlanning":"N","isClosed":"N","openToPublic":"Y","locationType":"micro","locationTypeDisplay":"Micro Brewery","countryIsoCode":"GB","status":"verified","statusDisplay":"Verified","createDate":"2012-08-02 17:16:00","updateDate":"2014-07-23 19:11:34","country":{"isoCode":"GB","name":"UNITED KINGDOM","displayName":"United Kingdom","isoThree":"GBR","numberCode":826,"createDate":"2012-01-03 02:41:33"}},{"id":"xwqYvv","name":"Main Brewery","streetAddress":"Große Nikolaistr. 2","locality":"Halle (Saale)","region":"Sachsen-Anhalt","postalCode":"06108","latitude":51.483952,"longitude":11.968593,"isPrimary":"N","inPlanning":"N","isClosed":"N","openToPublic":"Y","locationType":"micro","locationTypeDisplay":"Micro Brewery","countryIsoCode":"DE","status":"verified","statusDisplay":"Verified","createDate":"2012-08-12 14:45:55","updateDate":"2014-07-23 19:11:34","country":{"isoCode":"DE","name":"GERMANY","displayName":"Germany","isoThree":"DEU","numberCode":276,"createDate":"2012-01-03 02:41:33"}},{"id":"v7H1Ev","name":"Main Brewery","streetAddress":"Försterstraße 6","locality":"Coswig-Neusörnewitz","region":"Sachsen","postalCode":"01640","latitude":51.134956,"longitude":13.576038,"isPrimary":"N","inPlanning":"N","isClosed":"N","openToPublic":"Y","locationType":"micro","locationTypeDisplay":"Micro Brewery","countryIsoCode":"DE","status":"verified","statusDisplay":"Verified","createDate":"2012-08-12 14:47:50","updateDate":"2014-07-23 19:11:34","country":{"isoCode":"DE","name":"GERMANY","displayName":"Germany","isoThree":"DEU","numberCode":276,"createDate":"2012-01-03 02:41:33"}},{"id":"DDPx51","name":"Main Brewery","streetAddress":"3113 Plaza Dr Ne","locality":"Grand Rapids","region":"Michigan","postalCode":"49525","phone":"616-361-9658","website":"http://hideoutbrewing.com/","latitude":43.017919,"longitude":-85.63082,"isPrimary":"Y","inPlanning":"N","isClosed":"N","openToPublic":"Y","locationType":"brewpub","locationTypeDisplay":"Brewpub","countryIsoCode":"US","yearOpened":"2005","status":"verified","statusDisplay":"Verified","createDate":"2012-01-03 02:41:57","updateDate":"2014-07-23 19:11:34","country":{"isoCode":"US","name":"UNITED STATES","displayName":"United States","isoThree":"USA","numberCode":840,"createDate":"2012-01-03 02:41:33"}},{"id":"5rIr0L","name":"Cidery","streetAddress":"Lower Barn Buildings","extendedAddress":"Haselor","locality":"Alcester","region":"Warwickshire","postalCode":"B49 6LX","phone":"+44 (0)1789 488 433","website":"http://www.hoganscider.co.uk/","latitude":52.216635,"longitude":-1.8236392,"isPrimary":"Y","inPlanning":"N","isClosed":"N","openToPublic":"Y","locationType":"cidery","locationTypeDisplay":"Cidery","countryIsoCode":"GB","yearOpened":"2005","status":"verified","statusDisplay":"Verified","createDate":"2014-08-28 12:20:05","updateDate":"2014-08-28 12:20:05","country":{"isoCode":"GB","name":"UNITED KINGDOM","displayName":"United Kingdom","isoThree":"GBR","numberCode":826,"createDate":"2012-01-03 02:41:33"}},{"id":"qLiGPG","name":"Main Brewery","streetAddress":"527 North Rice Avenue","extendedAddress":"#B","locality":"Oxnard","region":"California","postalCode":"93030","website":"http://www.hbbrewing.com/","latitude":34.208119,"longitude":-119.142239,"isPrimary":"Y","inPlanning":"N","isClosed":"N","openToPublic":"Y","locationType":"micro","locationTypeDisplay":"Micro Brewery","countryIsoCode":"US","yearOpened":"2005","status":"verified","statusDisplay":"Verified","createDate":"2012-01-03 02:41:57","updateDate":"2014-07-23 19:11:34","country":{"isoCode":"US","name":"UNITED STATES","displayName":"United States","isoThree":"USA","numberCode":840,"createDate":"2012-01-03 02:41:33"}},{"id":"eyYenc","name":"Main Brewery","streetAddress":"1960 N. 12th Street","locality":"Grand Junction","region":"Colorado","postalCode":"81501","phone":"970-263-0111","website":"http://kannahcreekbrewingco.com/","hoursOfOperation":"SUN - THURS 11AM - 10PM\r\nFRI - SAT 11AM - 11PM\r\nPhone: 970-263-0111","latitude":39.085288,"longitude":-108.5522844,"isPrimary":"Y","inPlanning":"N","isClosed":"N","openToPublic":"Y","locationType":"brewpub","locationTypeDisplay":"Brewpub","countryIsoCode":"US","yearOpened":"2005","status":"verified","statusDisplay":"Verified","createDate":"2012-01-03 02:41:59","updateDate":"2014-07-23 19:11:34","country":{"isoCode":"US","name":"UNITED STATES","displayName":"United States","isoThree":"USA","numberCode":840,"createDate":"2012-01-03 02:41:33"}},{"id":"Bk34Go","name":"Lancaster Brewery","streetAddress":"Lancaster Leisure Park","extendedAddress":"Wyresdale Road","locality":"Lancaster","region":"Lancashire","postalCode":"LA1 3LA","phone":"+44 (0)1524 848537","website":"http://www.lancasterbrewery.co.uk/","hoursOfOperation":"10am - 5pm daily","latitude":54.0398837,"longitude":-2.7803341,"isPrimary":"Y","inPlanning":"N","isClosed":"N","openToPublic":"Y","locationType":"micro","locationTypeDisplay":"Micro Brewery","countryIsoCode":"GB","yearOpened":"2011","status":"verified","statusDisplay":"Verified","createDate":"2013-03-21 18:19:16","updateDate":"2014-07-23 19:11:34","country":{"isoCode":"GB","name":"UNITED KINGDOM","displayName":"United Kingdom","isoThree":"GBR","numberCode":826,"createDate":"2012-01-03 02:41:33"}},{"id":"YNRamL","name":"Main Brewery","streetAddress":"The Granary, Langham Lane, Lodsworth","locality":"Lodsworth","postalCode":"GU28 9BU","phone":"+44 179.886.0861","website":"http://www.langhambrewery.co.uk/","hoursOfOperation":"Mon - Tue: 9:00 am - 5:30 pm\r\nThu: 9:00 am - 5:30 pm\r\nSat:\t10:00 am - 5:00 pm","latitude":50.996035,"longitude":-0.678129,"isPrimary":"Y","inPlanning":"N","isClosed":"N","openToPublic":"Y","locationType":"micro","locationTypeDisplay":"Micro Brewery","countryIsoCode":"GB","yearOpened":"2005","status":"verified","statusDisplay":"Verified","createDate":"2012-01-03 02:42:00","updateDate":"2014-07-23 19:11:34","country":{"isoCode":"GB","name":"UNITED KINGDOM","displayName":"United Kingdom","isoThree":"GBR","numberCode":826,"createDate":"2012-01-03 02:41:33"}},{"id":"1eKpO5","name":"Main Brewery","streetAddress":"1109 Fontaine drive","locality":"Ponderay","region":"Idaho","postalCode":"83852","phone":"208-263-9222","website":"http://www.laughingdogbrewing.com/","latitude":48.2980485,"longitude":-116.5461322,"isPrimary":"Y","inPlanning":"N","isClosed":"N","openToPublic":"Y","locationType":"micro","locationTypeDisplay":"Micro Brewery","countryIsoCode":"US","status":"verified","statusDisplay":"Verified","createDate":"2012-01-03 02:42:00","updateDate":"2014-07-23 19:11:34","country":{"isoCode":"US","name":"UNITED STATES","displayName":"United States","isoThree":"USA","numberCode":840,"createDate":"2012-01-03 02:41:33"}},{"id":"zqS7ze","name":"Main Brewery","streetAddress":"473 N Manitou Trail","locality":"Lake Leelanau","region":"Michigan","postalCode":"49653","phone":"877-759-9829 ‎","website":"http://www.leelanaubeer.com/","latitude":44.988594,"longitude":-85.772452,"isPrimary":"Y","inPlanning":"N","isClosed":"N","openToPublic":"Y","locationType":"micro","locationTypeDisplay":"Micro Brewery","countryIsoCode":"US","yearOpened":"2005","status":"verified","statusDisplay":"Verified","createDate":"2012-03-06 19:11:58","updateDate":"2014-07-23 19:11:34","country":{"isoCode":"US","name":"UNITED STATES","displayName":"United States","isoThree":"USA","numberCode":840,"createDate":"2012-01-03 02:41:33"}},{"id":"296YGQ","name":"Main Brewery","streetAddress":"Am Gelskamp 6","locality":"Detmold","postalCode":"D-32758","latitude":51.948337,"longitude":8.863038,"isPrimary":"Y","inPlanning":"N","isClosed":"N","openToPublic":"Y","locationType":"micro","locationTypeDisplay":"Micro Brewery","countryIsoCode":"DE","status":"verified","statusDisplay":"Verified","createDate":"2012-08-16 13:59:03","updateDate":"2014-07-23 19:11:34","country":{"isoCode":"DE","name":"GERMANY","displayName":"Germany","isoThree":"DEU","numberCode":276,"createDate":"2012-01-03 02:41:33"}},{"id":"08aIUw","name":"Main Brewery","streetAddress":"4405 Honoapiilani Highway #217","locality":"Lahaina","region":"Hawaii","postalCode":"96761","phone":"808-669-3474","website":"http://mauibrewingco.com/","latitude":20.972149,"longitude":-156.677334,"isPrimary":"Y","inPlanning":"N","isClosed":"N","openToPublic":"Y","locationType":"micro","locationTypeDisplay":"Micro Brewery","countryIsoCode":"US","yearOpened":"2005","status":"verified","statusDisplay":"Verified","createDate":"2012-01-03 02:42:01","updateDate":"2014-07-23 19:11:34","country":{"isoCode":"US","name":"UNITED STATES","displayName":"United States","isoThree":"USA","numberCode":840,"createDate":"2012-01-03 02:41:33"}},{"id":"XDOhVt","name":"Main Brewery","streetAddress":"412, Willow","locality":"Shawinigan","region":"Quebec","postalCode":"G9N 1X2","phone":"+1 819-537-9151","website":"http://www.troududiable.com/","hoursOfOperation":"Mon - Tue: 3:00 pm - 11:00 pm\r\nWed - Thu: 3:00 pm - 1:00 am\r\nFri - Sat: 3:00 pm - 3:00 am\r\nSun: 3:00 pm - 11:00 pm","latitude":46.5400455,"longitude":-72.7536287,"isPrimary":"Y","inPlanning":"N","isClosed":"N","openToPublic":"Y","locationType":"micro","locationTypeDisplay":"Micro Brewery","countryIsoCode":"CA","status":"verified","statusDisplay":"Verified","createDate":"2013-08-04 13:34:34","updateDate":"2014-07-23 19:11:34","country":{"isoCode":"CA","name":"CANADA","displayName":"Canada","isoThree":"CAN","numberCode":124,"createDate":"2012-01-03 02:41:33"}},{"id":"6d0vLV","name":"Main Brewery","streetAddress":"76a Cove Hill Road","locality":"Bridgewater","region":"Tasmania","postalCode":"7030","phone":"+61 3 6263 7773","website":"http://www.moobrew.com.au","latitude":-42.7342966,"longitude":147.2474967,"isPrimary":"Y","inPlanning":"N","isClosed":"N","openToPublic":"Y","locationType":"micro","locationTypeDisplay":"Micro Brewery","countryIsoCode":"AU","status":"verified","statusDisplay":"Verified","createDate":"2014-03-03 23:26:33","updateDate":"2014-07-23 19:11:34","country":{"isoCode":"AU","name":"AUSTRALIA","displayName":"Australia","isoThree":"AUS","numberCode":36,"createDate":"2012-01-03 02:41:33"}},{"id":"DlWtXi","name":"Thomas","streetAddress":"1 Nelson Boulevard","locality":"Thomas","region":"West Virginia","postalCode":"26292","phone":"304-463-4500","website":"http://mountainstatebrewing.com/","hoursOfOperation":"Thur-Fri 6pm-12am, \r\nSat 3pm-12am","latitude":39.140863,"longitude":-79.499701,"isPrimary":"Y","inPlanning":"N","isClosed":"N","openToPublic":"Y","locationType":"micro","locationTypeDisplay":"Micro Brewery","countryIsoCode":"US","status":"verified","statusDisplay":"Verified","createDate":"2012-01-03 02:42:02","updateDate":"2014-07-23 19:11:34","country":{"isoCode":"US","name":"UNITED STATES","displayName":"United States","isoThree":"USA","numberCode":840,"createDate":"2012-01-03 02:41:33"}},{"id":"trz33t","name":"Morgantown","streetAddress":"54 Clay Street","locality":"Morgantown","region":"West Virginia","postalCode":"26501","phone":"304-241-1976","website":"http://mountainstatebrewing.com/","hoursOfOperation":"Open daily 11am to 11pm","latitude":39.62725,"longitude":-79.961366,"isPrimary":"N","inPlanning":"N","isClosed":"N","openToPublic":"Y","locationType":"micro","locationTypeDisplay":"Micro Brewery","countryIsoCode":"US","status":"verified","statusDisplay":"Verified","createDate":"2012-07-16 17:05:13","updateDate":"2014-07-23 19:11:34","country":{"isoCode":"US","name":"UNITED STATES","displayName":"United States","isoThree":"USA","numberCode":840,"createDate":"2012-01-03 02:41:33"}},{"id":"WBhrDK","name":"Deep Creek Lake","streetAddress":"6690 Sang Run Road","locality":"McHenry","region":"Maryland","postalCode":"21541","phone":"301-387-3360","website":"http://mountainstatebrewing.com/","hoursOfOperation":"Mon-Thur 11-9pm\r\nFri-Sat 11-10pm, Sun 11-9pm","latitude":39.564423,"longitude":-79.380326,"isPrimary":"N","inPlanning":"N","isClosed":"N","openToPublic":"Y","locationType":"micro","locationTypeDisplay":"Micro Brewery","countryIsoCode":"US","status":"verified","statusDisplay":"Verified","createDate":"2012-07-16 17:06:07","updateDate":"2014-07-23 19:11:34","country":{"isoCode":"US","name":"UNITED STATES","displayName":"United States","isoThree":"USA","numberCode":840,"createDate":"2012-01-03 02:41:33"}},{"id":"AJJMlC","name":"Main Brewery","streetAddress":"4362 Mount Carmel Tobasco Road","locality":"Cincinnati","region":"Ohio","postalCode":"45244","phone":"513-519-7161","website":"http://mtcarmelbrewingcompany.com/","latitude":39.09352,"longitude":-84.2991009,"isPrimary":"Y","inPlanning":"N","isClosed":"N","openToPublic":"Y","locationType":"micro","locationTypeDisplay":"Micro Brewery","countryIsoCode":"US","yearOpened":"2005","status":"verified","statusDisplay":"Verified","createDate":"2012-01-03 02:42:03","updateDate":"2014-07-23 19:11:34","country":{"isoCode":"US","name":"UNITED STATES","displayName":"United States","isoThree":"USA","numberCode":840,"createDate":"2012-01-03 02:41:33"}},{"id":"BvyaM6","name":"Main","streetAddress":"27, Kislev St.","locality":"Kiriyat Gat","region":"Israel","postalCode":"82000","phone":"08-6886070","website":"http://www.negevbrewery.co.il/","latitude":31.6022772,"longitude":34.7790013,"isPrimary":"Y","inPlanning":"N","isClosed":"N","openToPublic":"Y","locationType":"micro","locationTypeDisplay":"Micro Brewery","countryIsoCode":"IL","yearOpened":"2005","status":"verified","statusDisplay":"Verified","createDate":"2013-01-07 16:20:49","updateDate":"2014-07-23 19:11:34","country":{"isoCode":"IL","name":"ISRAEL","displayName":"Israel","isoThree":"ISR","numberCode":376,"createDate":"2012-01-03 02:41:33"}},{"id":"P203ye","name":"Otley Brewery","streetAddress":"Unit 42 Albion Industrial Estate","extendedAddress":"Cilfynydd Road","locality":"Pontypridd","region":"Glamorgan","postalCode":"CF37 4NX","website":"http://www.otleybrewing.co.uk/","latitude":51.6266661,"longitude":-3.3217082,"isPrimary":"Y","inPlanning":"N","isClosed":"N","openToPublic":"N","locationType":"micro","locationTypeDisplay":"Micro Brewery","countryIsoCode":"GB","status":"verified","statusDisplay":"Verified","createDate":"2014-03-17 13:44:59","updateDate":"2014-07-23 19:11:34","country":{"isoCode":"GB","name":"UNITED KINGDOM","displayName":"United Kingdom","isoThree":"GBR","numberCode":826,"createDate":"2012-01-03 02:41:33"}},{"id":"2CRlqm","name":"Main Brewery","streetAddress":"34 Depot Street","locality":"Pittsfield","region":"Massachusetts","postalCode":"01201","phone":"413-997-3506","website":"http://pittsfieldbrewworks.com/","latitude":42.450747,"longitude":-73.254199,"isPrimary":"Y","inPlanning":"N","isClosed":"Y","openToPublic":"N","locationType":"brewpub","locationTypeDisplay":"Brewpub","countryIsoCode":"US","yearOpened":"2005","yearClosed":"2010","status":"verified","statusDisplay":"Verified","createDate":"2012-01-03 02:42:05","updateDate":"2014-07-23 19:11:34","country":{"isoCode":"US","name":"UNITED STATES","displayName":"United States","isoThree":"USA","numberCode":840,"createDate":"2012-01-03 02:41:33"}},{"id":"bevQW2","name":"Columbus Bar","streetAddress":"322 Fourth Street","locality":"Columbus","region":"Indiana","postalCode":"47201","phone":"(812) 375-8800","hoursOfOperation":"Monday - Thursday 11 a.m. - 11 p.m.\r\nFriday - Saturday 11 a.m. - 1 a.m.\r\nSunday 4 p.m. - 11","latitude":39.202412,"longitude":-85.922237,"isPrimary":"Y","inPlanning":"N","isClosed":"N","openToPublic":"Y","locationType":"brewpub","locationTypeDisplay":"Brewpub","countryIsoCode":"US","yearOpened":"2006","status":"verified","statusDisplay":"Verified","createDate":"2012-04-16 22:07:25","updateDate":"2014-07-23 19:11:34","country":{"isoCode":"US","name":"UNITED STATES","displayName":"United States","isoThree":"USA","numberCode":840,"createDate":"2012-01-03 02:41:33"}},{"id":"teNvBQ","name":"Main Brewery","streetAddress":"Upper Spernall Farm","extendedAddress":"Off Spernal Lane","locality":"Great Alne","region":"Warwickshire","postalCode":"B49 6JF","phone":"01789 488007","website":"http://www.puritybrewing.com/","hoursOfOperation":"9 - 5 weekdays\r\n10 - 1 Saturdays\r\nClosed on Sundays","latitude":52.2417579,"longitude":-1.8440071,"isPrimary":"Y","inPlanning":"N","isClosed":"N","openToPublic":"Y","locationType":"micro","locationTypeDisplay":"Micro Brewery","countryIsoCode":"GB","yearOpened":"2005","status":"verified","statusDisplay":"Verified","createDate":"2013-03-22 22:35:54","updateDate":"2014-07-23 19:11:34","country":{"isoCode":"GB","name":"UNITED KINGDOM","displayName":"United Kingdom","isoThree":"GBR","numberCode":826,"createDate":"2012-01-03 02:41:33"}},{"id":"ysoXZC","name":"Main Brewpub","streetAddress":"Bahnstrasse 15","locality":"Ratingen","region":"North Rhine-Westphalia","postalCode":"40878","latitude":51.297951,"longitude":6.85632,"isPrimary":"Y","inPlanning":"N","isClosed":"N","openToPublic":"Y","locationType":"micro","locationTypeDisplay":"Micro Brewery","countryIsoCode":"DE","status":"verified","statusDisplay":"Verified","createDate":"2012-08-13 01:01:20","updateDate":"2014-07-23 19:11:34","country":{"isoCode":"DE","name":"GERMANY","displayName":"Germany","isoThree":"DEU","numberCode":276,"createDate":"2012-01-03 02:41:33"}},{"id":"Sg96qS","name":"Main Brewery","streetAddress":"47 Mair Street","locality":"Ballarat","region":"Victoria","postalCode":"3350","phone":"+61 3 4308 0136","website":"http://www.rebellionbrewery.com.au/","latitude":-37.5599682,"longitude":143.8638663,"isPrimary":"Y","inPlanning":"N","isClosed":"N","openToPublic":"Y","locationType":"micro","locationTypeDisplay":"Micro Brewery","countryIsoCode":"AU","status":"verified","statusDisplay":"Verified","createDate":"2014-02-09 12:23:59","updateDate":"2014-07-23 19:11:34","country":{"isoCode":"AU","name":"AUSTRALIA","displayName":"Australia","isoThree":"AUS","numberCode":36,"createDate":"2012-01-03 02:41:33"}},{"id":"BMfoqw","name":"Main Brewery","streetAddress":"402 Ingalls St #27","locality":"Santa Cruz","region":"California","postalCode":"95060","phone":"831-425-4900","website":"http://www.santacruzmountainbrewing.com/","latitude":36.9586711,"longitude":-122.0490396,"isPrimary":"Y","inPlanning":"N","isClosed":"N","openToPublic":"Y","locationType":"micro","locationTypeDisplay":"Micro Brewery","countryIsoCode":"US","status":"verified","statusDisplay":"Verified","createDate":"2012-01-03 02:42:07","updateDate":"2014-07-23 19:11:34","country":{"isoCode":"US","name":"UNITED STATES","displayName":"United States","isoThree":"USA","numberCode":840,"createDate":"2012-01-03 02:41:33"}},{"id":"Sx5SJH","name":"Main Brewery","streetAddress":"108 W 3rd Street","locality":"Pueblo","region":"Colorado","postalCode":"81003","phone":"719-542-9974","website":"http://www.shamrockbrewing.com/","latitude":38.269494,"longitude":-104.607725,"isPrimary":"Y","inPlanning":"N","isClosed":"N","openToPublic":"Y","locationType":"micro","locationTypeDisplay":"Micro Brewery","countryIsoCode":"US","status":"verified","statusDisplay":"Verified","createDate":"2012-01-03 02:42:08","updateDate":"2014-07-23 19:11:34","country":{"isoCode":"US","name":"UNITED STATES","displayName":"United States","isoThree":"USA","numberCode":840,"createDate":"2012-01-03 02:41:33"}},{"id":"OIROBN","name":"Main Brewery","streetAddress":"190 5th Street","locality":"Benton Harbor","region":"Michigan","postalCode":"49022","phone":"269-925-8760","website":"http://www.liverybrew.com/","hoursOfOperation":"Mon - Thu: 4:00 pm - 12:00 am\r\nFri: 11:30 am - 1:00 am\r\nSat: 12:00 pm - 1:00 am\r\nSun: 12:00 pm - 12:00 am","latitude":42.1184758,"longitude":-86.4536849,"isPrimary":"Y","inPlanning":"N","isClosed":"N","openToPublic":"Y","locationType":"micro","locationTypeDisplay":"Micro Brewery","countryIsoCode":"US","status":"verified","statusDisplay":"Verified","createDate":"2012-01-03 02:42:10","updateDate":"2014-07-23 19:11:34","country":{"isoCode":"US","name":"UNITED STATES","displayName":"United States","isoThree":"USA","numberCode":840,"createDate":"2012-01-03 02:41:33"}},{"id":"rkmM7h","name":"Main Brewpub","streetAddress":"215 North LBJ","locality":"San Marcos","region":"Texas","postalCode":"78666","phone":"512.392.5158","website":"http://www.rootcellarcafe.com/brewery/","latitude":29.883343,"longitude":-97.9401695,"isPrimary":"Y","inPlanning":"N","isClosed":"N","openToPublic":"Y","locationType":"brewpub","locationTypeDisplay":"Brewpub","countryIsoCode":"US","status":"verified","statusDisplay":"Verified","createDate":"2013-08-14 00:54:34","updateDate":"2014-07-23 19:11:34","country":{"isoCode":"US","name":"UNITED STATES","displayName":"United States","isoThree":"USA","numberCode":840,"createDate":"2012-01-03 02:41:33"}},{"id":"7ZSgjU","name":"Main Brewery","streetAddress":"Riverside Brewery","locality":"Bakewell","region":"Derbyshire","postalCode":"DE45 1GS","phone":"01629 641000","website":"http://www.thornbridgebrewery.co.uk/","hoursOfOperation":"9.00am-4.00pm Monday to Friday","latitude":53.21333,"longitude":-1.675119,"isPrimary":"Y","inPlanning":"N","isClosed":"N","openToPublic":"Y","locationType":"micro","locationTypeDisplay":"Micro Brewery","countryIsoCode":"GB","status":"verified","statusDisplay":"Verified","createDate":"2012-03-27 01:13:48","updateDate":"2014-07-23 19:11:34","country":{"isoCode":"GB","name":"UNITED KINGDOM","displayName":"United Kingdom","isoThree":"GBR","numberCode":826,"createDate":"2012-01-03 02:41:33"}},{"id":"5hWjSw","name":"Main Brewery","phone":"+45 30247997","website":"http://www.to-ol.dk/","isPrimary":"Y","inPlanning":"N","isClosed":"N","openToPublic":"Y","locationType":"micro","locationTypeDisplay":"Micro Brewery","countryIsoCode":"DK","yearOpened":"2005","status":"verified","statusDisplay":"Verified","createDate":"2012-01-03 02:42:10","updateDate":"2014-07-23 19:11:34","country":{"isoCode":"DK","name":"DENMARK","displayName":"Denmark","isoThree":"DNK","numberCode":208,"createDate":"2012-01-03 02:41:33"}},{"id":"idtWht","name":"Main Brewery","streetAddress":"500 Welt St.","locality":"Weston","region":"Missouri","postalCode":"64098","phone":"816-640-5235","website":"http://www.westonirish.com/","latitude":39.411001,"longitude":-94.899604,"isPrimary":"Y","inPlanning":"N","isClosed":"N","openToPublic":"Y","locationType":"brewpub","locationTypeDisplay":"Brewpub","countryIsoCode":"US","yearOpened":"2005","status":"verified","statusDisplay":"Verified","createDate":"2012-01-03 02:42:12","updateDate":"2014-07-23 19:11:34","country":{"isoCode":"US","name":"UNITED STATES","displayName":"United States","isoThree":"USA","numberCode":840,"createDate":"2012-01-03 02:41:33"}},{"id":"DRj7FF","name":"Main Brewery","streetAddress":"Seata Barn","locality":"Askrigg","region":"North Yorkshire","phone":"01969 622027","website":"http://www.yorkshiredalesbrewery.com/","latitude":54.31617,"longitude":-2.07844,"isPrimary":"Y","inPlanning":"N","isClosed":"N","openToPublic":"N","locationType":"micro","locationTypeDisplay":"Micro Brewery","countryIsoCode":"GB","yearOpened":"2005","status":"verified","statusDisplay":"Verified","createDate":"2012-10-22 14:12:00","updateDate":"2014-07-23 19:11:34","country":{"isoCode":"GB","name":"UNITED KINGDOM","displayName":"United Kingdom","isoThree":"GBR","numberCode":826,"createDate":"2012-01-03 02:41:33"}}]