[{"id":"TGtEbk","name":"Office","streetAddress":"20750 High Desert Ln","extendedAddress":"Suite #107","locality":"Bend","region":"Oregon","postalCode":"97701","phone":"541-585-1007","latitude":44.089005,"longitude":-121.285385,"isPrimary":"N","inPlanning":"N","isClosed":"N","openToPublic":"N","locationType":"office","locationTypeDisplay":"Office","countryIsoCode":"US","status":"verified","statusDisplay":"Verified","createDate":"2012-01-03 02:41:43","updateDate":"2014-07-23 19:11:34","country":{"isoCode":"US","name":"UNITED STATES","displayName":"United States","isoThree":"USA","numberCode":840,"createDate":"2012-01-03 02:41:33"}},{"id":"YgHnZO","name":"Main Brewery","streetAddress":"62970 18th Street","locality":"Bend","region":"Oregon","postalCode":"97701","phone":"(541) 585-1007","latitude":44.087318,"longitude":-121.281329,"isPrimary":"N","inPlanning":"Y","isClosed":"N","openToPublic":"Y","locationType":"micro","locationTypeDisplay":"Micro Brewery","countryIsoCode":"US","status":"verified","statusDisplay":"Verified","createDate":"2012-09-29 12:29:56","updateDate":"2014-07-23 19:11:34","country":{"isoCode":"US","name":"UNITED STATES","displayName":"United States","isoThree":"USA","numberCode":840,"createDate":"2012-01-03 02:41:33"}},{"id":"B00bip","name":"Bend Pub","streetAddress":"1135 NW Galveston Ave","locality":"Bend","region":"Oregon","postalCode":"97701","phone":"(541) 678-5228","hoursOfOperation":"Mon:  11:00am - 11:00pm\nTue:  11:00am - 11:00pm\nWed:  11:00am - 11:00pm\nThu:  11:00am - 11:00pm\nFri:  11:00am - 12:00am\nSat:  11:00am - 12:00am\nSun:  11:00am - 11:00pm\n\n","latitude":44.0562359,"longitude":-121.3286052,"isPrimary":"N","inPlanning":"N","isClosed":"N","openToPublic":"Y","locationType":"restaurant","locationTypeDisplay":"Restaurant/Ale House","countryIsoCode":"US","status":"verified","statusDisplay":"Verified","createDate":"2012-09-29 12:31:35","updateDate":"2014-07-23 19:38:14","country":{"isoCode":"US","name":"UNITED STATES","displayName":"United States","isoThree":"USA","numberCode":840,"createDate":"2012-01-03 02:41:33"}},{"id":"7W7T98","name":"Brewpub","streetAddress":"826 West Bannock Street","locality":"Boise","region":"Idaho","postalCode":"83702","phone":"(208) 344-5870","website":"http://www.10barrel.com/","hoursOfOperation":"Mon:  11:00am - 12:00am\nTue:  11:00am - 12:00am\nWed:  11:00am - 12:00am\nThu:  11:00am - 12:00am\nFri:  11:00am - 12:00am\nSat:  11:00am - 12:00am\nSun:  11:00am - 12:00am\n\n","latitude":43.617859,"longitude":-116.202689,"isPrimary":"Y","inPlanning":"N","isClosed":"N","openToPublic":"Y","locationType":"brewpub","locationTypeDisplay":"Brewpub","countryIsoCode":"US","status":"verified","statusDisplay":"Verified","createDate":"2013-10-12 01:14:54","updateDate":"2014-07-23 19:38:15","country":{"isoCode":"US","name":"UNITED STATES","displayName":"United States","isoThree":"USA","numberCode":840,"createDate":"2012-01-03 02:41:33"}},{"id":"LtaJUb","name":"Main Brewery","streetAddress":"Mallah Building, Industrial Zone","extendedAddress":"Mazreat Yachoua","region":"Beirut","phone":"+961-3 967 961","latitude":33.881756,"longitude":35.521036,"isPrimary":"Y","inPlanning":"N","isClosed":"N","openToPublic":"Y","locationType":"micro","locationTypeDisplay":"Micro Brewery","countryIsoCode":"LB","yearOpened":"2006","status":"verified","statusDisplay":"Verified","createDate":"2012-02-08 15:31:56","updateDate":"2014-07-23 19:11:34","country":{"isoCode":"LB","name":"LEBANON","displayName":"Lebanon","isoThree":"LBN","numberCode":422,"createDate":"2012-01-03 02:41:33"}},{"id":"OUqh1N","name":"Main Brewpub","streetAddress":"204 Valley Street","locality":"Duboistown","region":"Pennsylvania","postalCode":"17702","phone":"570-326-3383","website":"http://www.thevalley-inn.com/","latitude":41.2225173,"longitude":-77.0369273,"isPrimary":"Y","inPlanning":"N","isClosed":"N","openToPublic":"Y","locationType":"brewpub","locationTypeDisplay":"Brewpub","countryIsoCode":"US","yearOpened":"2006","status":"verified","statusDisplay":"Verified","createDate":"2012-01-03 02:41:43","updateDate":"2014-07-23 19:11:34","country":{"isoCode":"US","name":"UNITED STATES","displayName":"United States","isoThree":"USA","numberCode":840,"createDate":"2012-01-03 02:41:33"}},{"id":"HaPdSL","name":"Main Brewery","streetAddress":"11337 Davenport St.","locality":"Omaha","region":"Nebraska","postalCode":"68130","phone":"402-884-7444","latitude":41.2602869,"longitude":-96.0903344,"isPrimary":"Y","inPlanning":"N","isClosed":"Y","openToPublic":"Y","locationType":"micro","locationTypeDisplay":"Micro Brewery","countryIsoCode":"US","yearOpened":"2006","status":"verified","statusDisplay":"Verified","createDate":"2012-01-03 02:41:43","updateDate":"2014-07-23 19:11:34","country":{"isoCode":"US","name":"UNITED STATES","displayName":"United States","isoThree":"USA","numberCode":840,"createDate":"2012-01-03 02:41:33"}},{"id":"boTIWO","name":"Main Location","streetAddress":"2002 Pankratz St","locality":"Madison","region":"Wisconsin","postalCode":"53704-4024","phone":"608-663-3926","website":"http://www.aleasylum.com/","hoursOfOperation":"Mon:  11:00am - 12:00am\nTue:  11:00am - 12:00am\nWed:  11:00am - 12:00am\nThu:  11:00am - 12:00am\nFri:  11:00am - 2:00am\nSat:  11:00am - 2:00am\nSun:  2:00pm - 12:00am\n\nMon - Thu:11:00 am - 12:00 am\r\nFri - Sat:11:00 am - 2:00 am\r\nSun:2:00 pm - 12:00 am","latitude":43.1207344,"longitude":-89.3537098,"isPrimary":"N","inPlanning":"N","isClosed":"Y","openToPublic":"Y","locationType":"micro","locationTypeDisplay":"Micro Brewery","countryIsoCode":"US","yearOpened":"2006","status":"verified","statusDisplay":"Verified","createDate":"2012-01-03 02:41:44","updateDate":"2014-11-18 19:31:56","country":{"isoCode":"US","name":"UNITED STATES","displayName":"United States","isoThree":"USA","numberCode":840,"createDate":"2012-01-03 02:41:33"}},{"id":"1NOTvG","name":"Main Brewery","streetAddress":"2002 Pankratz St.","locality":"Madison","region":"Wisconsin","postalCode":"53704","phone":"(608) 663-3926","website":"http://aleasylum.com/","hoursOfOperation":"Mon:  11:00am - 12:00am\nTue:  11:00am - 12:00am\nWed:  11:00am - 12:00am\nThu:  11:00am - 12:00am\nFri:  11:00am - 2:30am\nSat:  11:00am - 2:30am\nSun:  11:00am - 10:00pm\n\nMon - Thu: 11:00 am - 12:00 am\r\nFri - Sat: 11:00 am - 2:30 am\r\nSun: 11:00 am - 10:00 pm","latitude":43.1207344,"longitude":-89.3537098,"isPrimary":"Y","inPlanning":"N","isClosed":"N","openToPublic":"Y","locationType":"micro","locationTypeDisplay":"Micro Brewery","countryIsoCode":"US","yearOpened":"2006","status":"verified","statusDisplay":"Verified","createDate":"2013-04-01 00:03:46","updateDate":"2014-08-25 19:12:29","country":{"isoCode":"US","name":"UNITED STATES","displayName":"United States","isoThree":"USA","numberCode":840,"createDate":"2012-01-03 02:41:33"}},{"id":"F9PADg","name":"Main Brewery","streetAddress":"Hospitalstr. 50","region":"Alzey","postalCode":"55232","latitude":49.744882,"longitude":8.108906,"isPrimary":"Y","inPlanning":"N","isClosed":"N","openToPublic":"Y","locationType":"micro","locationTypeDisplay":"Micro Brewery","countryIsoCode":"DE","status":"verified","statusDisplay":"Verified","createDate":"2012-08-16 11:41:40","updateDate":"2014-07-23 19:11:34","country":{"isoCode":"DE","name":"GERMANY","displayName":"Germany","isoThree":"DEU","numberCode":276,"createDate":"2012-01-03 02:41:33"}},{"id":"GGaceU","name":"Main Brewery","streetAddress":"1821 Cherokee Street","locality":"Saint Louis","region":"Missouri","postalCode":"63118","phone":"314-771-8500","website":"http://www.amalgamatedbrewing.com/","latitude":38.5923841,"longitude":-90.2181681,"isPrimary":"Y","inPlanning":"N","isClosed":"Y","openToPublic":"Y","locationType":"brewpub","locationTypeDisplay":"Brewpub","countryIsoCode":"US","yearOpened":"2006","status":"verified","statusDisplay":"Verified","createDate":"2012-01-03 02:41:44","updateDate":"2014-07-23 19:11:34","country":{"isoCode":"US","name":"UNITED STATES","displayName":"United States","isoThree":"USA","numberCode":840,"createDate":"2012-01-03 02:41:33"}},{"id":"aQpHNT","name":"Main Meadery","streetAddress":"1481 Wordsworth","extendedAddress":"Suite B","locality":"Ferndale","region":"Michigan","postalCode":"48220","phone":"(313) 744-6323","website":"http://www.bnektar.com/","hoursOfOperation":"Fri:  5:30pm - 10:00pm\nSat:  1:00pm - 7:00pm\n\nFri: 5:30 pm - 10:00 pm\r\nSat: 1:00 pm - 7:00 pm","latitude":42.453829,"longitude":-83.1139,"isPrimary":"Y","inPlanning":"N","isClosed":"N","openToPublic":"Y","locationType":"micro","locationTypeDisplay":"Micro Brewery","countryIsoCode":"US","yearOpened":"2006","status":"verified","statusDisplay":"Verified","createDate":"2013-01-24 12:01:16","updateDate":"2014-09-29 20:33:41","country":{"isoCode":"US","name":"UNITED STATES","displayName":"United States","isoThree":"USA","numberCode":840,"createDate":"2012-01-03 02:41:33"}},{"id":"lvNMRa","name":"Beaus Brewery","streetAddress":"10 Terry Fox Drive","locality":"Vankleek Hill","region":"Ontario","postalCode":"K0B 1R0","phone":"(866) 585 BEER","website":"http://beaus.ca/","hoursOfOperation":"On-site store and tours, open 7 days a week, 10 am to 6 pm.","latitude":45.5177348,"longitude":-74.6374259,"isPrimary":"Y","inPlanning":"N","isClosed":"N","openToPublic":"Y","locationType":"micro","locationTypeDisplay":"Micro Brewery","countryIsoCode":"CA","yearOpened":"2006","status":"verified","statusDisplay":"Verified","createDate":"2013-03-21 10:36:23","updateDate":"2014-07-23 19:11:34","country":{"isoCode":"CA","name":"CANADA","displayName":"Canada","isoThree":"CAN","numberCode":124,"createDate":"2012-01-03 02:41:33"}},{"id":"UCrDF1","name":"Main Brewery","streetAddress":"1249-A Wicker Drive","locality":"Raleigh","region":"North Carolina","postalCode":"27604","phone":"919-834-0045","website":"http://bigbossbrewing.com","hoursOfOperation":"MON:  4PM – 12PM\r\nTUE:  4PM – 12PM\r\nWED:  4PM – 2AM\r\nTHU:  3PM – 2AM\r\nFRI:  2PM – 2AM\r\nSAT:  2PM – 2AM\r\nSUN:  CLOSED","latitude":35.809796,"longitude":-78.617231,"isPrimary":"Y","inPlanning":"N","isClosed":"N","openToPublic":"Y","locationType":"micro","locationTypeDisplay":"Micro Brewery","countryIsoCode":"US","yearOpened":"2007","status":"verified","statusDisplay":"Verified","createDate":"2012-01-03 02:41:46","updateDate":"2014-07-23 19:11:34","country":{"isoCode":"US","name":"UNITED STATES","displayName":"United States","isoThree":"USA","numberCode":840,"createDate":"2012-01-03 02:41:33"}},{"id":"JqCctT","name":"Main Brewery","streetAddress":"38302 St. Rt. 20","locality":"Concrete","region":"Washington","postalCode":"98237","phone":"360-826-3406","website":"http://www.birdsviewbrewingco.com/","hoursOfOperation":"Tue - Thu: 12:00 pm - 7:00 pm\r\nFri - Sat: 12:00 pm - 9:00 pm\r\nSun: 12:00 pm - 6:00 pm","latitude":48.528541,"longitude":-121.912325,"isPrimary":"Y","inPlanning":"N","isClosed":"N","openToPublic":"Y","locationType":"brewpub","locationTypeDisplay":"Brewpub","countryIsoCode":"US","yearOpened":"2006","status":"verified","statusDisplay":"Verified","createDate":"2012-01-03 02:41:46","updateDate":"2014-07-23 19:11:34","country":{"isoCode":"US","name":"UNITED STATES","displayName":"United States","isoThree":"USA","numberCode":840,"createDate":"2012-01-03 02:41:33"}},{"id":"w9vR2u","name":"Main Brewery","streetAddress":"Loc. Le Pergole Arcidosso (GR)","postalCode":"58031","website":"http://www.birra-amiata.it/","latitude":42.897769,"longitude":11.514756,"isPrimary":"Y","inPlanning":"N","isClosed":"N","openToPublic":"Y","locationType":"micro","locationTypeDisplay":"Micro Brewery","countryIsoCode":"IT","yearOpened":"2006","status":"verified","statusDisplay":"Verified","createDate":"2012-01-03 02:41:46","updateDate":"2014-07-23 19:11:34","country":{"isoCode":"IT","name":"ITALY","displayName":"Italy","isoThree":"ITA","numberCode":380,"createDate":"2012-01-03 02:41:33"}},{"id":"O6zeqn","name":"Main Brewery","streetAddress":"1 East 14 Mile Road","locality":"Clawson","region":"Michigan","postalCode":"48017","phone":"248-765-3051","website":"http://blacklotusbrewery.com/","hoursOfOperation":"Mon - Thu: 11:30 am - 1:00 am\r\nFri - Sat: 11:30 am - 2:00 am\r\nSun: 12:00 pm - 10:00 pm","latitude":42.5336695,"longitude":-83.1462303,"isPrimary":"Y","inPlanning":"N","isClosed":"N","openToPublic":"Y","locationType":"micro","locationTypeDisplay":"Micro Brewery","countryIsoCode":"US","yearOpened":"2006","status":"verified","statusDisplay":"Verified","createDate":"2012-01-03 02:41:46","updateDate":"2014-07-23 19:11:34","country":{"isoCode":"US","name":"UNITED STATES","displayName":"United States","isoThree":"USA","numberCode":840,"createDate":"2012-01-03 02:41:33"}},{"id":"wyUwDi","name":"Main Brewery","streetAddress":"7020 Easy Wind Dr","extendedAddress":"Suite 100","locality":"Austin","region":"Texas","postalCode":"78752","phone":"512-452-BEER","website":"http://www.blackstar.coop/","hoursOfOperation":"Monday - Thursday: 4:00pm - Midnight\r\nFriday - Saturday: 2:00pm - 1:00am\r\nSunday: 2:00pm - Midnight","latitude":30.332642,"longitude":-97.703887,"isPrimary":"Y","inPlanning":"N","isClosed":"N","openToPublic":"Y","locationType":"brewpub","locationTypeDisplay":"Brewpub","countryIsoCode":"US","yearOpened":"2006","status":"verified","statusDisplay":"Verified","createDate":"2012-01-03 02:41:46","updateDate":"2014-07-23 19:11:34","country":{"isoCode":"US","name":"UNITED STATES","displayName":"United States","isoThree":"USA","numberCode":840,"createDate":"2012-01-03 02:41:33"}},{"id":"8PE0wl","name":"Brasserie Dunham","streetAddress":"6, rue des Bois-Vert","locality":"Ham-Sud","region":"Québec","postalCode":"j0b3j0","phone":"450-800-6266","website":"http://lesbrasseursduhameau.ca/","latitude":45.7419792,"longitude":-71.5387478,"isPrimary":"Y","inPlanning":"N","isClosed":"N","openToPublic":"Y","locationType":"nano","locationTypeDisplay":"Nano Brewery","countryIsoCode":"CA","yearOpened":"2006","status":"verified","statusDisplay":"Verified","createDate":"2013-07-04 20:24:57","updateDate":"2014-07-23 19:11:34","country":{"isoCode":"CA","name":"CANADA","displayName":"Canada","isoThree":"CAN","numberCode":124,"createDate":"2012-01-03 02:41:33"}},{"id":"cYVl4N","name":"Main Brewery","streetAddress":"1010 E. Southview Dr","locality":"Marshall","region":"Minnesota","postalCode":"56258","phone":"507-747-BEER","website":"http://www.braubeer.com","latitude":44.436753,"longitude":-95.778069,"isPrimary":"Y","inPlanning":"N","isClosed":"N","openToPublic":"Y","locationType":"micro","locationTypeDisplay":"Micro Brewery","countryIsoCode":"US","yearOpened":"2006","status":"verified","statusDisplay":"Verified","createDate":"2012-01-03 02:41:48","updateDate":"2014-09-11 10:33:37","country":{"isoCode":"US","name":"UNITED STATES","displayName":"United States","isoThree":"USA","numberCode":840,"createDate":"2012-01-03 02:41:33"}},{"id":"XkJow7","name":"Main Brewery","locality":"Suhlendorf","region":"Lower Saxony","postalCode":"29562","latitude":52.938974,"longitude":10.76623,"isPrimary":"Y","inPlanning":"N","isClosed":"N","openToPublic":"Y","locationType":"micro","locationTypeDisplay":"Micro Brewery","countryIsoCode":"DE","status":"verified","statusDisplay":"Verified","createDate":"2012-08-13 01:20:46","updateDate":"2014-07-23 19:11:34","country":{"isoCode":"DE","name":"GERMANY","displayName":"Germany","isoThree":"DEU","numberCode":276,"createDate":"2012-01-03 02:41:33"}},{"id":"oYJLlX","name":"Main Brewery","streetAddress":"Unit 1, Kessock Workshops","locality":"Fraserburgh","postalCode":"AB43 8UE","phone":"+44 (0) 1346 519 009","website":"http://brewdog.com/","latitude":57.64784,"longitude":-1.934689,"isPrimary":"Y","inPlanning":"N","isClosed":"N","openToPublic":"Y","locationType":"micro","locationTypeDisplay":"Micro Brewery","countryIsoCode":"GB","yearOpened":"2006","status":"verified","statusDisplay":"Verified","createDate":"2012-01-03 02:41:48","updateDate":"2014-07-23 19:11:34","country":{"isoCode":"GB","name":"UNITED KINGDOM","displayName":"United Kingdom","isoThree":"GBR","numberCode":826,"createDate":"2012-01-03 02:41:33"}},{"id":"Cp589j","name":"Aberdeen","streetAddress":"17 Gallowgate","region":"Aberdeen","postalCode":"AB25 1EB","phone":"+44 (0) 1224 631 223","hoursOfOperation":"Mon:  12:00pm - 12:00am\nTue:  12:00pm - 12:00am\nWed:  12:00pm - 12:00am\nThu:  12:00pm - 12:00am\nFri:  12:00pm - 1:00am\nSat:  12:00pm - 1:00am\nSun:  12:30pm - 12:00am\n\nMon - Thurs 12pm to 12am \r\nFri - Sat 12pm to 1am \r\nSun 12:30pm to 12am","latitude":57.1494892,"longitude":-2.0977447,"isPrimary":"N","inPlanning":"N","isClosed":"N","openToPublic":"Y","locationType":"tasting","locationTypeDisplay":"Tasting Room","countryIsoCode":"GB","status":"verified","statusDisplay":"Verified","createDate":"2012-08-23 12:52:04","updateDate":"2014-09-29 20:36:34","country":{"isoCode":"GB","name":"UNITED KINGDOM","displayName":"United Kingdom","isoThree":"GBR","numberCode":826,"createDate":"2012-01-03 02:41:33"}},{"id":"p8nwJA","name":"Edinburgh","streetAddress":"143 Cowgate","region":"Edinburgh","postalCode":"EH1 1JS","phone":"+44 (0) 1312 206 517","hoursOfOperation":"Mon:  12:00pm - 1:00am\nTue:  12:00pm - 1:00am\nWed:  12:00pm - 1:00am\nThu:  12:00pm - 1:00am\nFri:  12:00pm - 1:00am\nSat:  12:00pm - 1:00am\nSun:  12:30pm - 1:00am\n\nMon - Sat 12pm to 1am\r\nSun 12.30pm to 1am","latitude":55.9483998,"longitude":-3.1893704,"isPrimary":"N","inPlanning":"N","isClosed":"N","openToPublic":"Y","locationType":"tasting","locationTypeDisplay":"Tasting Room","countryIsoCode":"GB","status":"verified","statusDisplay":"Verified","createDate":"2012-08-23 12:53:00","updateDate":"2014-09-29 20:36:35","country":{"isoCode":"GB","name":"UNITED KINGDOM","displayName":"United Kingdom","isoThree":"GBR","numberCode":826,"createDate":"2012-01-03 02:41:33"}},{"id":"RSWkSb","name":"Glasgow","streetAddress":"1397 Argyle Street","region":"Glasgow","postalCode":"G3 8AN","phone":"+44 (0) 1413 347 175","hoursOfOperation":"Mon:  12:00pm - 11:00pm\nTue:  12:00pm - 11:00pm\nWed:  12:00pm - 11:00pm\nThu:  12:00pm - 11:00pm\nFri:  12:00pm - 12:00am\nSat:  12:00pm - 12:00am\nSun:  12:30pm - 11:00pm\n\nMon - Thurs 12pm to 11pm\r\nFri - Sat 12pm to 12am\r\nSun 12.30pm to 11pm","latitude":55.8681637,"longitude":-4.2917879,"isPrimary":"N","inPlanning":"N","isClosed":"N","openToPublic":"Y","locationType":"tasting","locationTypeDisplay":"Tasting Room","countryIsoCode":"GB","status":"verified","statusDisplay":"Verified","createDate":"2012-08-23 12:54:03","updateDate":"2014-09-29 20:36:36","country":{"isoCode":"GB","name":"UNITED KINGDOM","displayName":"United Kingdom","isoThree":"GBR","numberCode":826,"createDate":"2012-01-03 02:41:33"}},{"id":"3mFYc2","name":"Camden","streetAddress":"113 Bayham Street","locality":"Camden Town","region":"London","postalCode":"NW1 0AG","phone":"+44 02 07284 4626","hoursOfOperation":"Mon:  12:00pm - 11:30pm\nTue:  12:00pm - 11:30pm\nWed:  12:00pm - 11:30pm\nThu:  12:00pm - 11:30pm\nFri:  12:00pm - 12:00pm\nSat:  12:00pm - 12:00pm\nSun:  12:00pm - 10:30pm\n\nMon - Thurs 12pm to 11.30pm \r\nFri - Sat 12pm to 12pm \r\nSun 12pm to 10.30pm","latitude":51.5384476,"longitude":-0.1409304,"isPrimary":"N","inPlanning":"N","isClosed":"N","openToPublic":"Y","locationType":"tasting","locationTypeDisplay":"Tasting Room","countryIsoCode":"GB","status":"verified","statusDisplay":"Verified","createDate":"2012-08-23 12:55:50","updateDate":"2014-09-29 20:36:37","country":{"isoCode":"GB","name":"UNITED KINGDOM","displayName":"United Kingdom","isoThree":"GBR","numberCode":826,"createDate":"2012-01-03 02:41:33"}},{"id":"g5yMlT","name":"Nottingham","streetAddress":"20 - 22 Broad Street","region":"Nottingham","postalCode":"NG1 3AL","phone":"+44 (0) 1159 583613","hoursOfOperation":"Sun:  12:00pm - 11:30pm\nFri:  12:00pm - 12:00am\nSat:  12:00pm - 12:00am\n\nSun - Thurs 12pm to 11:30pm\r\nFri - Sat 12pm to 12am","latitude":52.9541103,"longitude":-1.1436979,"isPrimary":"N","inPlanning":"N","isClosed":"N","openToPublic":"Y","locationType":"tasting","locationTypeDisplay":"Tasting Room","countryIsoCode":"GB","status":"verified","statusDisplay":"Verified","createDate":"2012-08-23 12:58:49","updateDate":"2014-09-29 20:36:38","country":{"isoCode":"GB","name":"UNITED KINGDOM","displayName":"United Kingdom","isoThree":"GBR","numberCode":826,"createDate":"2012-01-03 02:41:33"}},{"id":"IPhAuu","name":"Newcastle","streetAddress":"16 Dean Street","region":"Newcastle Upon Tyne","postalCode":"NE1 1PG","phone":"+44 (0) 1912 616586","hoursOfOperation":"Sun:  12:00pm - 1:00am\nFri:  12:00pm - 2:00am\nSat:  12:00pm - 2:00am\n\nSun - Thurs 12pm to 1am \r\nFri - Sat 12pm to 2am","latitude":54.9699396,"longitude":-1.6095017,"isPrimary":"N","inPlanning":"N","isClosed":"N","openToPublic":"Y","locationType":"tasting","locationTypeDisplay":"Tasting Room","countryIsoCode":"GB","status":"verified","statusDisplay":"Verified","createDate":"2012-08-23 13:00:49","updateDate":"2014-09-29 20:36:39","country":{"isoCode":"GB","name":"UNITED KINGDOM","displayName":"United Kingdom","isoThree":"GBR","numberCode":826,"createDate":"2012-01-03 02:41:33"}},{"id":"ujPz4L","name":"Manchester","streetAddress":"35 Peter St","region":"Manchester","postalCode":"M2 5BG","phone":"+44 (0) 161 832 1922","hoursOfOperation":"Mon:  12:00pm - 1:00am\nTue:  12:00pm - 1:00am\nWed:  12:00pm - 1:00am\nThu:  12:00pm - 1:00am\nFri:  12:00pm - 1:00am\nSat:  12:00pm - 1:00am\nSun:  12:00pm - 12:00am\n\nMon - Sat 12pm to 1am\r\nSun 12pm to 12am","latitude":53.4779857,"longitude":-2.2471641,"isPrimary":"N","inPlanning":"N","isClosed":"N","openToPublic":"Y","locationType":"tasting","locationTypeDisplay":"Tasting Room","countryIsoCode":"GB","status":"verified","statusDisplay":"Verified","createDate":"2012-08-23 13:01:42","updateDate":"2014-09-29 20:36:40","country":{"isoCode":"GB","name":"UNITED KINGDOM","displayName":"United Kingdom","isoThree":"GBR","numberCode":826,"createDate":"2012-01-03 02:41:33"}},{"id":"sp6Nir","name":"Main Brewery","streetAddress":"557 William Latham Drive","locality":"Bourbonnais","region":"Illinois","postalCode":"60914","phone":"815-936-9277","website":"http://www.brickstonebrewery.com/","latitude":41.1626245,"longitude":-87.8815744,"isPrimary":"Y","inPlanning":"N","isClosed":"N","openToPublic":"Y","locationType":"brewpub","locationTypeDisplay":"Brewpub","countryIsoCode":"US","status":"verified","statusDisplay":"Verified","createDate":"2012-01-03 02:41:48","updateDate":"2014-07-23 19:11:34","country":{"isoCode":"US","name":"UNITED STATES","displayName":"United States","isoThree":"USA","numberCode":840,"createDate":"2012-01-03 02:41:33"}},{"id":"72XZJG","name":"Main Brewery","locality":"Burlington","region":"Vermont","postalCode":"05401","latitude":44.47592,"longitude":-73.213234,"isPrimary":"Y","inPlanning":"N","isClosed":"N","openToPublic":"N","locationType":"micro","locationTypeDisplay":"Micro Brewery","countryIsoCode":"US","status":"verified","statusDisplay":"Verified","createDate":"2012-10-10 23:57:34","updateDate":"2014-07-23 19:11:34","country":{"isoCode":"US","name":"UNITED STATES","displayName":"United States","isoThree":"USA","numberCode":840,"createDate":"2012-01-03 02:41:33"}},{"id":"QzQdNR","name":"Main Brewery","streetAddress":"59 Main Street","extendedAddress":"Suite 2","locality":"Chatham","region":"New York","postalCode":"12037","phone":"518-697-0202","website":"http://chathambrewing.com/","hoursOfOperation":"Thu:  4:00pm - 7:00pm\nFri:  3:00pm - 8:00pm\nSat:  11:00am - 8:00pm\nSun:  12:00pm - 4:00pm\n\nThursday - 4PM to 7PM\r\nFriday - 3PM to 8PM\r\nSaturday - 11AM to 8PM\r\nSunday - 12PM to 4PM\r\nMonday - Wednesday - By appointment","latitude":42.3632658,"longitude":-73.5952376,"isPrimary":"Y","inPlanning":"N","isClosed":"N","openToPublic":"Y","locationType":"micro","locationTypeDisplay":"Micro Brewery","countryIsoCode":"US","yearOpened":"2006","status":"verified","statusDisplay":"Verified","createDate":"2012-01-03 02:41:50","updateDate":"2014-09-29 20:12:16","country":{"isoCode":"US","name":"UNITED STATES","displayName":"United States","isoThree":"USA","numberCode":840,"createDate":"2012-01-03 02:41:33"}},{"id":"gGEH3a","name":"Main Brewpub","streetAddress":"5810 Bond St.,","locality":"Cumming","region":"Georgia","postalCode":"30040","phone":"770-205-5512","website":"http://www.cherrystreetbrewing.com/","latitude":34.1813634,"longitude":-84.2198048,"isPrimary":"Y","inPlanning":"N","isClosed":"N","openToPublic":"Y","locationType":"brewpub","locationTypeDisplay":"Brewpub","countryIsoCode":"US","yearOpened":"2006","status":"verified","statusDisplay":"Verified","createDate":"2013-08-04 13:22:10","updateDate":"2014-07-23 19:11:34","country":{"isoCode":"US","name":"UNITED STATES","displayName":"United States","isoThree":"USA","numberCode":840,"createDate":"2012-01-03 02:41:33"}},{"id":"OLmblj","name":"Main Brewery","streetAddress":"36 Main St.","locality":"Amesbury","region":"Massachusetts","postalCode":"01913","phone":"978-378-3424","website":"http://www.codybrewing.com/","latitude":42.85728,"longitude":-70.930223,"isPrimary":"Y","inPlanning":"N","isClosed":"N","openToPublic":"Y","locationType":"micro","locationTypeDisplay":"Micro Brewery","countryIsoCode":"US","yearOpened":"2006","status":"verified","statusDisplay":"Verified","createDate":"2012-01-03 02:41:51","updateDate":"2014-07-23 19:11:34","country":{"isoCode":"US","name":"UNITED STATES","displayName":"United States","isoThree":"USA","numberCode":840,"createDate":"2012-01-03 02:41:33"}},{"id":"2VHydp","name":"Main Brewery","streetAddress":"385-10 Kamitome,","extendedAddress":"Miyoshi-machi","region":"Iruma-gun Saitama-ken Kawagoe-shi","postalCode":"354-004","phone":"+81 49-259-7735","website":"http://www.coedobrewery.com/","isPrimary":"Y","inPlanning":"N","isClosed":"N","openToPublic":"Y","locationType":"micro","locationTypeDisplay":"Micro Brewery","countryIsoCode":"JP","yearOpened":"2006","status":"verified","statusDisplay":"Verified","createDate":"2013-06-02 14:00:18","updateDate":"2014-07-23 19:11:34","country":{"isoCode":"JP","name":"JAPAN","displayName":"Japan","isoThree":"JPN","numberCode":392,"createDate":"2012-01-03 02:41:33"}},{"id":"vCzsuD","name":"Main Brewery","streetAddress":"2961 29th Street","locality":"Greeley","region":"Colorado","postalCode":"80631","phone":"[970] 356-0516","hoursOfOperation":"Sunday: 12pm (Noon) - 6pm\r\nMon-Thurs: 1pm - 10pm\r\nFri-Sat: 12pm (Noon) - 12am (Midnight)","latitude":40.3896751,"longitude":-104.7271911,"isPrimary":"Y","inPlanning":"N","isClosed":"N","openToPublic":"Y","locationType":"micro","locationTypeDisplay":"Micro Brewery","countryIsoCode":"US","status":"verified","statusDisplay":"Verified","createDate":"2013-08-12 22:20:48","updateDate":"2014-07-23 19:11:34","country":{"isoCode":"US","name":"UNITED STATES","displayName":"United States","isoThree":"USA","numberCode":840,"createDate":"2012-01-03 02:41:33"}},{"id":"5FcRQF","name":"Main Brewery","streetAddress":"27272 Gloucester Way","extendedAddress":"Unit 1","locality":"Aldergrove","region":"British Columbia","postalCode":"V4W 4A1","phone":"604-856-1055","website":"http://www.deadfrogbrewery.com/","latitude":49.098017,"longitude":-122.469246,"isPrimary":"Y","inPlanning":"N","isClosed":"N","openToPublic":"Y","locationType":"micro","locationTypeDisplay":"Micro Brewery","countryIsoCode":"CA","yearOpened":"2006","status":"verified","statusDisplay":"Verified","createDate":"2012-01-03 02:41:52","updateDate":"2014-07-23 19:11:34","country":{"isoCode":"CA","name":"CANADA","displayName":"Canada","isoThree":"CAN","numberCode":124,"createDate":"2012-01-03 02:41:33"}},{"id":"aSUtAe","name":"The Corinthians Boutique Hotel","streetAddress":"Nyati County, NIBM Annexe","locality":"South Pune","region":"Pune","postalCode":"411060","phone":"020 26952226","latitude":18.55502,"longitude":73.82782,"isPrimary":"Y","inPlanning":"N","isClosed":"N","openToPublic":"N","locationType":"micro","locationTypeDisplay":"Micro Brewery","countryIsoCode":"IN","status":"verified","statusDisplay":"Verified","createDate":"2012-07-30 21:56:33","updateDate":"2014-07-23 19:11:34","country":{"isoCode":"IN","name":"INDIA","displayName":"India","isoThree":"IND","numberCode":356,"createDate":"2012-01-03 02:41:33"}},{"id":"NsukDc","name":"Main Brewpub","streetAddress":"Haupstrasse 3","locality":"Oschersleben","region":"Saxony-Anhalt","postalCode":"D-39387","latitude":52.019166,"longitude":11.13117,"isPrimary":"Y","inPlanning":"N","isClosed":"N","openToPublic":"Y","locationType":"micro","locationTypeDisplay":"Micro Brewery","countryIsoCode":"DE","status":"verified","statusDisplay":"Verified","createDate":"2012-08-12 23:45:58","updateDate":"2014-07-23 19:11:34","country":{"isoCode":"DE","name":"GERMANY","displayName":"Germany","isoThree":"DEU","numberCode":276,"createDate":"2012-01-03 02:41:33"}},{"id":"neFESU","name":"Phusion Projects","streetAddress":"640 N La Salle Dr","locality":"Chicago","region":"Illinois","postalCode":"60654","phone":"(312) 888-3615","website":"http://www.drinkfour.com/","latitude":41.8935123,"longitude":-87.6327453,"isPrimary":"Y","inPlanning":"N","isClosed":"N","openToPublic":"N","locationType":"office","locationTypeDisplay":"Office","countryIsoCode":"US","yearOpened":"2006","status":"verified","statusDisplay":"Verified","createDate":"2014-07-10 14:52:55","updateDate":"2014-07-23 19:11:34","country":{"isoCode":"US","name":"UNITED STATES","displayName":"United States","isoThree":"USA","numberCode":840,"createDate":"2012-01-03 02:41:33"}},{"id":"PhzGeW","name":"Main Brewery","streetAddress":"Lühe 40 Am Sperrwerk","locality":"Jork-Borstel","region":"Niedersachsen","postalCode":"D-21635","latitude":53.533002,"longitude":9.67973,"isPrimary":"N","inPlanning":"N","isClosed":"N","openToPublic":"Y","locationType":"micro","locationTypeDisplay":"Micro Brewery","countryIsoCode":"DE","status":"verified","statusDisplay":"Verified","createDate":"2012-08-12 14:47:40","updateDate":"2014-07-23 19:11:34","country":{"isoCode":"DE","name":"GERMANY","displayName":"Germany","isoThree":"DEU","numberCode":276,"createDate":"2012-01-03 02:41:33"}},{"id":"fF1DVj","name":"Main Brewery","extendedAddress":"PO Box 660522","locality":"Birmingham","region":"Alabama","phone":"205-202-9311","latitude":33.46703,"longitude":-86.733419,"isPrimary":"Y","inPlanning":"N","isClosed":"N","openToPublic":"Y","locationType":"micro","locationTypeDisplay":"Micro Brewery","countryIsoCode":"US","yearOpened":"2006","status":"verified","statusDisplay":"Verified","createDate":"2012-01-03 02:41:53","updateDate":"2014-07-23 19:11:34","country":{"isoCode":"US","name":"UNITED STATES","displayName":"United States","isoThree":"USA","numberCode":840,"createDate":"2012-01-03 02:41:33"}},{"id":"Jh8Xdp","name":"Main Brewery","streetAddress":"186 James Fletcher Drive","extendedAddress":"Otahuhu","locality":"Auckland","postalCode":"2145","phone":"+64 21 632 337","website":"http://www.epicbeer.com/","latitude":-36.9489243,"longitude":174.8207961,"isPrimary":"Y","inPlanning":"N","isClosed":"N","openToPublic":"Y","locationType":"micro","locationTypeDisplay":"Micro Brewery","countryIsoCode":"NZ","yearOpened":"2006","status":"verified","statusDisplay":"Verified","createDate":"2012-01-03 02:41:54","updateDate":"2014-07-23 19:11:34","country":{"isoCode":"NZ","name":"NEW ZEALAND","displayName":"New Zealand","isoThree":"NZL","numberCode":554,"createDate":"2012-01-03 02:41:33"}},{"id":"ejlhsg","name":"Main Brewery","streetAddress":"11197 Brockway Road","locality":"Truckee","region":"California","postalCode":"96161","phone":"530-587-BEER","website":"http://www.fiftyfiftybrewing.com/","latitude":39.321965,"longitude":-120.163522,"isPrimary":"Y","inPlanning":"N","isClosed":"N","openToPublic":"Y","locationType":"micro","locationTypeDisplay":"Micro Brewery","countryIsoCode":"US","status":"verified","statusDisplay":"Verified","createDate":"2012-01-03 02:41:54","updateDate":"2014-07-23 19:11:34","country":{"isoCode":"US","name":"UNITED STATES","displayName":"United States","isoThree":"USA","numberCode":840,"createDate":"2012-01-03 02:41:33"}},{"id":"TEjq3r","name":"Main Brewery","streetAddress":"215 Railway","locality":"Holgate","region":"Ohio","postalCode":"43527","website":"http://www.flatrockbrewery.com/","latitude":41.249657,"longitude":-84.131351,"isPrimary":"Y","inPlanning":"N","isClosed":"N","openToPublic":"Y","locationType":"micro","locationTypeDisplay":"Micro Brewery","countryIsoCode":"US","yearOpened":"2006","status":"verified","statusDisplay":"Verified","createDate":"2012-06-20 13:51:28","updateDate":"2014-07-23 19:11:34","country":{"isoCode":"US","name":"UNITED STATES","displayName":"United States","isoThree":"USA","numberCode":840,"createDate":"2012-01-03 02:41:33"}},{"id":"wNkoSQ","name":"Main Brewery","streetAddress":"1328 Pineview Road","locality":"Dugspur","region":"Virginia","postalCode":"24325","phone":"(276) 398-2337","website":"http://www.foggyridgecider.com","latitude":36.766748,"longitude":-80.5282805,"isPrimary":"Y","inPlanning":"N","isClosed":"N","openToPublic":"Y","locationType":"micro","locationTypeDisplay":"Micro Brewery","countryIsoCode":"US","yearOpened":"2006","status":"verified","statusDisplay":"Verified","createDate":"2014-06-09 11:27:16","updateDate":"2014-07-23 19:11:34","country":{"isoCode":"US","name":"UNITED STATES","displayName":"United States","isoThree":"USA","numberCode":840,"createDate":"2012-01-03 02:41:33"}},{"id":"1PXsT9","name":"Main Brewery","streetAddress":"74 Parker St","locality":"Gardner","region":"Massachusetts","postalCode":"01440","phone":"978-669-0122","website":"http://www.gardnerale.com/","latitude":42.5759189,"longitude":-71.9971711,"isPrimary":"Y","inPlanning":"N","isClosed":"N","openToPublic":"Y","locationType":"micro","locationTypeDisplay":"Micro Brewery","countryIsoCode":"US","status":"verified","statusDisplay":"Verified","createDate":"2012-01-03 02:41:55","updateDate":"2014-07-23 19:11:34","country":{"isoCode":"US","name":"UNITED STATES","displayName":"United States","isoThree":"USA","numberCode":840,"createDate":"2012-01-03 02:41:33"}},{"id":"PP93rT","name":"Main Brewery","streetAddress":"529 Waverly Ave","locality":"Brooklyn","region":"New York","postalCode":"11238","website":"http://www.kelsoofbrooklyn.com/","latitude":40.6823455,"longitude":-73.9655843,"isPrimary":"Y","inPlanning":"N","isClosed":"N","openToPublic":"Y","locationType":"micro","locationTypeDisplay":"Micro Brewery","countryIsoCode":"US","yearOpened":"2006","status":"verified","statusDisplay":"Verified","createDate":"2012-01-03 02:41:56","updateDate":"2014-07-23 19:11:34","country":{"isoCode":"US","name":"UNITED STATES","displayName":"United States","isoThree":"USA","numberCode":840,"createDate":"2012-01-03 02:41:33"}},{"id":"Kd6WH6","name":"Main Brewery","streetAddress":"4257 N. Lincoln Ave","locality":"Chicago","region":"Illinois","postalCode":"60618","phone":"773-248-4038","website":"http://www.halfacrebeer.com/","hoursOfOperation":"Tue - Fri:\t12:00 pm - 8:00 pm\r\nSat:\t11:00 am - 7:00 pm\r\nSun:\t12:00 pm - 5:00 pm","latitude":41.9592701,"longitude":-87.6823099,"isPrimary":"Y","inPlanning":"N","isClosed":"N","openToPublic":"Y","locationType":"micro","locationTypeDisplay":"Micro Brewery","countryIsoCode":"US","yearOpened":"2006","status":"verified","statusDisplay":"Verified","createDate":"2012-01-03 02:41:56","updateDate":"2014-07-23 19:11:34","country":{"isoCode":"US","name":"UNITED STATES","displayName":"United States","isoThree":"USA","numberCode":840,"createDate":"2012-01-03 02:41:33"}},{"id":"HAszUa","name":"Main Brewery","streetAddress":"5400 North Clark Street","locality":"Chicago","region":"Illinois","postalCode":"60640","phone":"773-784-6969","website":"http://www.hamburgermarys.com/","latitude":41.979958,"longitude":-87.6685581,"isPrimary":"Y","inPlanning":"N","isClosed":"N","openToPublic":"Y","locationType":"brewpub","locationTypeDisplay":"Brewpub","countryIsoCode":"US","status":"verified","statusDisplay":"Verified","createDate":"2012-01-03 02:41:56","updateDate":"2014-07-23 19:11:34","country":{"isoCode":"US","name":"UNITED STATES","displayName":"United States","isoThree":"USA","numberCode":840,"createDate":"2012-01-03 02:41:33"}},{"id":"pX8lES","name":"Main Brewery","streetAddress":"108 Cabot Street","locality":"Holyoke","region":"Massachusetts","postalCode":"01040","phone":"413-323-8040","website":"http://www.highandmightybeer.com/","latitude":42.2011759,"longitude":-72.610427,"isPrimary":"Y","inPlanning":"N","isClosed":"N","openToPublic":"Y","locationType":"micro","locationTypeDisplay":"Micro Brewery","countryIsoCode":"US","yearOpened":"2006","status":"verified","statusDisplay":"Verified","createDate":"2012-01-03 02:41:57","updateDate":"2014-07-23 19:11:34","country":{"isoCode":"US","name":"UNITED STATES","displayName":"United States","isoThree":"USA","numberCode":840,"createDate":"2012-01-03 02:41:33"}},{"id":"vuAucY","name":"Hopfenstark","streetAddress":"643, boulevard L'Ange gardien","locality":"L'Assomption","region":"Québec","postalCode":"j5e1t1","phone":"1-450-713-1060","website":"http://www.hopfenstark.com/","hoursOfOperation":"Tuesday : 4PM - 6PM\r\nBottle takeout only. Will close permanently when Montreal's micro brewery will be open.","latitude":45.8220053,"longitude":-73.4316579,"isPrimary":"N","inPlanning":"N","isClosed":"N","openToPublic":"Y","locationType":"micro","locationTypeDisplay":"Micro Brewery","countryIsoCode":"CA","yearOpened":"2006","status":"verified","statusDisplay":"Verified","createDate":"2013-07-05 21:24:26","updateDate":"2014-07-23 19:11:34","country":{"isoCode":"CA","name":"CANADA","displayName":"Canada","isoThree":"CAN","numberCode":124,"createDate":"2012-01-03 02:41:33"}},{"id":"YDtilz","name":"Hopfenstark","streetAddress":"1494, rue Ontario Est","locality":"Montréal","region":"Québec","postalCode":"H2L 1S3","phone":"1-514-564-4678","website":"http://www.hopfenstark.com/","hoursOfOperation":"Will open in july 2013.","latitude":45.5242247,"longitude":-73.5604436,"isPrimary":"Y","inPlanning":"N","isClosed":"N","openToPublic":"Y","locationType":"brewpub","locationTypeDisplay":"Brewpub","countryIsoCode":"CA","yearOpened":"2013","status":"verified","statusDisplay":"Verified","createDate":"2013-07-05 21:27:15","updateDate":"2014-07-23 19:11:34","country":{"isoCode":"CA","name":"CANADA","displayName":"Canada","isoThree":"CAN","numberCode":124,"createDate":"2012-01-03 02:41:33"}},{"id":"UnpaXM","name":"Main Brewery","streetAddress":"1680-F East Waterloo Rd.","locality":"Akron","region":"Ohio","postalCode":"44306","phone":"330-352-4578","website":"http://www.hoppinfrog.com/","latitude":41.0245928,"longitude":-81.4677107,"isPrimary":"Y","inPlanning":"N","isClosed":"N","openToPublic":"Y","locationType":"brewpub","locationTypeDisplay":"Brewpub","countryIsoCode":"US","yearOpened":"1994","status":"verified","statusDisplay":"Verified","createDate":"2012-01-03 02:41:58","updateDate":"2014-07-23 19:11:34","country":{"isoCode":"US","name":"UNITED STATES","displayName":"United States","isoThree":"USA","numberCode":840,"createDate":"2012-01-03 02:41:33"}},{"id":"fz3g3i","name":"Main Brewery","streetAddress":"250 Old Ithaca Rd","locality":"Horseheads","region":"New York","postalCode":"14845","phone":"607-739-8468","website":"http://www.horseheadsbrewing.com/","hoursOfOperation":"Monday 12-6 PM\r\nTuesday\t12-6 PM\r\nWednesday 12-6 PM\r\nThursday 12-6 PM\r\nFriday 12-7 PM\r\nSaturday 12-7 PM\r\nSunday 12-4 PM","latitude":42.183297,"longitude":-76.812066,"isPrimary":"Y","inPlanning":"N","isClosed":"N","openToPublic":"Y","locationType":"micro","locationTypeDisplay":"Micro Brewery","countryIsoCode":"US","yearOpened":"2006","status":"verified","statusDisplay":"Verified","createDate":"2012-01-03 02:41:58","updateDate":"2014-07-23 19:11:34","country":{"isoCode":"US","name":"UNITED STATES","displayName":"United States","isoThree":"USA","numberCode":840,"createDate":"2012-01-03 02:41:33"}},{"id":"knTrj1","name":"Indslev Bryggeri A/S","streetAddress":"Store Landevej 13","locality":"Nr. Åby","postalCode":"5580","phone":"64441507","website":"http://www.indslevbryggeri.dk/","hoursOfOperation":"Monday: closed\r\nTuesday: closed\r\nWednesday: closed\r\nThursday: closed\r\nFriday: 14.00 to 17.00\r\nSaturday: 10.00 - 14.00\r\nSunday: closed","isPrimary":"Y","inPlanning":"N","isClosed":"N","openToPublic":"Y","locationType":"micro","locationTypeDisplay":"Micro Brewery","countryIsoCode":"DK","yearOpened":"2006","status":"verified","statusDisplay":"Verified","createDate":"2013-01-09 19:20:26","updateDate":"2014-07-23 19:11:34","country":{"isoCode":"DK","name":"DENMARK","displayName":"Denmark","isoThree":"DNK","numberCode":208,"createDate":"2012-01-03 02:41:33"}},{"id":"ANqPO1","name":"Main Brewery","streetAddress":"529 Waverly Avenue","locality":"Brooklyn","region":"New York","postalCode":"11778","phone":"718-398-2731","website":"http://kelsoofbrooklyn.com/","latitude":40.6823455,"longitude":-73.9655843,"isPrimary":"Y","inPlanning":"N","isClosed":"N","openToPublic":"Y","locationType":"micro","locationTypeDisplay":"Micro Brewery","countryIsoCode":"US","yearOpened":"2006","status":"verified","statusDisplay":"Verified","createDate":"2012-01-03 02:41:59","updateDate":"2014-07-23 19:11:34","country":{"isoCode":"US","name":"UNITED STATES","displayName":"United States","isoThree":"USA","numberCode":840,"createDate":"2012-01-03 02:41:33"}},{"id":"sIBGId","name":"Main Brewery","streetAddress":"13415 Sierra Highway","locality":"Kernville","region":"California","postalCode":"93238","phone":"760-376-2337","website":"http://www.kernriverbrewingcompany.com/","latitude":35.757512,"longitude":-118.419213,"isPrimary":"Y","inPlanning":"N","isClosed":"N","openToPublic":"Y","locationType":"micro","locationTypeDisplay":"Micro Brewery","countryIsoCode":"US","yearOpened":"2006","status":"verified","statusDisplay":"Verified","createDate":"2012-01-03 02:41:59","updateDate":"2014-07-23 19:11:34","country":{"isoCode":"US","name":"UNITED STATES","displayName":"United States","isoThree":"USA","numberCode":840,"createDate":"2012-01-03 02:41:33"}},{"id":"zTmurX","name":"Main Brewery","streetAddress":"C/ Comte 14","extendedAddress":"Poliogon Industrial Les Roques Roges","locality":"Alcover","region":"Tarragona","postalCode":"43460","website":"http://www.rosita.cat/","latitude":41.262476,"longitude":1.1709847,"isPrimary":"Y","inPlanning":"N","isClosed":"N","openToPublic":"Y","locationType":"micro","locationTypeDisplay":"Micro Brewery","countryIsoCode":"ES","status":"verified","statusDisplay":"Verified","createDate":"2013-08-18 13:55:43","updateDate":"2014-07-23 19:11:34","country":{"isoCode":"ES","name":"SPAIN","displayName":"Spain","isoThree":"ESP","numberCode":724,"createDate":"2012-01-03 02:41:33"}},{"id":"QeR22V","name":"Main Brewery","streetAddress":"444 Preston Avenue","locality":"Waitsburg","region":"Washington","postalCode":"99361","phone":"509-337-6261","website":"http://www.lahtneppur.com/","latitude":46.2694,"longitude":-118.148692,"isPrimary":"Y","inPlanning":"N","isClosed":"N","openToPublic":"Y","locationType":"micro","locationTypeDisplay":"Micro Brewery","countryIsoCode":"US","yearOpened":"2006","status":"verified","statusDisplay":"Verified","createDate":"2012-01-03 02:42:00","updateDate":"2014-07-23 19:11:34","country":{"isoCode":"US","name":"UNITED STATES","displayName":"United States","isoThree":"USA","numberCode":840,"createDate":"2012-01-03 02:41:33"}},{"id":"UvE3zp","name":"Main Brewery","streetAddress":"715 100th St SE","extendedAddress":"Suite A-1","locality":"Everett","region":"Washington","postalCode":"98208","phone":"425-423-7700","website":"http://www.lazyboybrewing.com/","latitude":47.9081,"longitude":-122.22171,"isPrimary":"Y","inPlanning":"N","isClosed":"N","openToPublic":"Y","locationType":"micro","locationTypeDisplay":"Micro Brewery","countryIsoCode":"US","yearOpened":"2006","status":"verified","statusDisplay":"Verified","createDate":"2012-01-03 02:42:00","updateDate":"2014-07-23 19:11:34","country":{"isoCode":"US","name":"UNITED STATES","displayName":"United States","isoThree":"USA","numberCode":840,"createDate":"2012-01-03 02:41:33"}},{"id":"emd8iK","name":"Main Brewery","streetAddress":"13200 Kirkham Way","extendedAddress":"#105","locality":"Poway","region":"California","postalCode":"92064","phone":"858-513-8070","website":"http://www.lightningbrewery.com/","hoursOfOperation":"Tasting Hours:\r\nFriday 1:30pm - 5:30pm\r\nSaturday 1:00pm - 5:00pm\r\n\r\nTasters cost $1 each or $5 for 6. \r\nPlease bring less than 6 people with you. We cannot accomodate large groups!","latitude":32.935492,"longitude":-117.043508,"isPrimary":"Y","inPlanning":"N","isClosed":"N","openToPublic":"Y","locationType":"micro","locationTypeDisplay":"Micro Brewery","countryIsoCode":"US","yearOpened":"2006","status":"verified","statusDisplay":"Verified","createDate":"2012-01-03 02:42:00","updateDate":"2014-07-23 19:11:34","country":{"isoCode":"US","name":"UNITED STATES","displayName":"United States","isoThree":"USA","numberCode":840,"createDate":"2012-01-03 02:41:33"}},{"id":"BrRXjH","name":"Microbrasserie de l'Île d'Orléans","streetAddress":"3887, Chemin Royal","locality":"Sainte-Famille","region":"Québec","postalCode":"g0a3p0","phone":"1-418-829-0408","website":"http://www.microorleans.com/","latitude":46.9632534,"longitude":-70.9516847,"isPrimary":"Y","inPlanning":"N","isClosed":"N","openToPublic":"Y","locationType":"micro","locationTypeDisplay":"Micro Brewery","countryIsoCode":"CA","yearOpened":"2006","status":"verified","statusDisplay":"Verified","createDate":"2013-07-03 15:22:14","updateDate":"2014-07-23 19:11:34","country":{"isoCode":"CA","name":"CANADA","displayName":"Canada","isoThree":"CAN","numberCode":124,"createDate":"2012-01-03 02:41:33"}},{"id":"7MLLbj","name":"Main Brewery","streetAddress":"4015 Tennessee Avenue","locality":"Chattanooga","region":"Tennessee","postalCode":"37409","phone":"423-821-6392","website":"http://www.bendbrewingbeer.com/","latitude":35.007563,"longitude":-85.327766,"isPrimary":"Y","inPlanning":"N","isClosed":"N","openToPublic":"Y","locationType":"micro","locationTypeDisplay":"Micro Brewery","countryIsoCode":"US","yearOpened":"2006","status":"verified","statusDisplay":"Verified","createDate":"2012-01-03 02:42:02","updateDate":"2014-07-23 19:11:34","country":{"isoCode":"US","name":"UNITED STATES","displayName":"United States","isoThree":"USA","numberCode":840,"createDate":"2012-01-03 02:41:33"}},{"id":"pGgCWL","name":"Main Brewery","streetAddress":"670 Trabert Ave","locality":"Atlanta","region":"Georgia","postalCode":"30318","phone":"(404) 352-7703","website":"http://mondaynightbrewing.com/","hoursOfOperation":"Mon: 5:30 pm - 7:30 pm\r\nThu: 5:30 pm - 7:30 pm\r\nSat: 2:00 pm - 4:00 pm","latitude":33.794919,"longitude":-84.40989,"isPrimary":"Y","inPlanning":"N","isClosed":"N","openToPublic":"Y","locationType":"micro","locationTypeDisplay":"Micro Brewery","countryIsoCode":"US","yearOpened":"2006","status":"verified","statusDisplay":"Verified","createDate":"2012-01-03 02:42:02","updateDate":"2014-07-23 19:11:34","country":{"isoCode":"US","name":"UNITED STATES","displayName":"United States","isoThree":"USA","numberCode":840,"createDate":"2012-01-03 02:41:33"}},{"id":"iwjjUw","name":"Main Brewery","streetAddress":"3443 Nelson Bay Road","locality":"Bobs Farm","region":"New South Wales","postalCode":"2316","phone":"+61 2 4982 6411","website":"http://www.murraysbrewingco.com.au","hoursOfOperation":"Mon - Sun: 10:00 am - 6:00 pm","latitude":-32.778288,"longitude":151.987527,"isPrimary":"Y","inPlanning":"N","isClosed":"N","openToPublic":"Y","locationType":"micro","locationTypeDisplay":"Micro Brewery","countryIsoCode":"AU","yearOpened":"2006","status":"verified","statusDisplay":"Verified","createDate":"2014-03-03 23:28:47","updateDate":"2014-07-23 19:11:34","country":{"isoCode":"AU","name":"AUSTRALIA","displayName":"Australia","isoThree":"AUS","numberCode":36,"createDate":"2012-01-03 02:41:33"}},{"id":"HWad7H","name":"Main Brewery","locality":"Cape Cod","region":"Massachusetts","website":"http://naukabout.com/","latitude":41.6729278,"longitude":-70.3390868,"isPrimary":"Y","inPlanning":"N","isClosed":"N","openToPublic":"Y","locationType":"micro","locationTypeDisplay":"Micro Brewery","countryIsoCode":"US","status":"verified","statusDisplay":"Verified","createDate":"2013-01-09 12:16:42","updateDate":"2014-07-23 19:11:34","country":{"isoCode":"US","name":"UNITED STATES","displayName":"United States","isoThree":"USA","numberCode":840,"createDate":"2012-01-03 02:41:33"}},{"id":"I3VkXV","name":"Main Brewery","streetAddress":"Fruängsgatan 2  611 31","region":"Nyköping","phone":"+46 (0) 155-772 80","website":"http://www.nilsoscar.se/","latitude":58.747754,"longitude":17.005329,"isPrimary":"Y","inPlanning":"N","isClosed":"N","openToPublic":"Y","locationType":"micro","locationTypeDisplay":"Micro Brewery","countryIsoCode":"SE","status":"verified","statusDisplay":"Verified","createDate":"2012-06-14 11:58:55","updateDate":"2014-07-23 19:11:34","country":{"isoCode":"SE","name":"SWEDEN","displayName":"Sweden","isoThree":"SWE","numberCode":752,"createDate":"2012-01-03 02:41:33"}},{"id":"KzHweV","name":"Main Brewery","streetAddress":"272 Van Buren St","locality":"Eugene","region":"Oregon","postalCode":"97402","phone":"877-7-NINKASI","website":"http://www.ninkasibrewing.com/","latitude":44.056855,"longitude":-123.10988,"isPrimary":"Y","inPlanning":"N","isClosed":"N","openToPublic":"Y","locationType":"micro","locationTypeDisplay":"Micro Brewery","countryIsoCode":"US","yearOpened":"2006","status":"verified","statusDisplay":"Verified","createDate":"2012-01-03 02:42:03","updateDate":"2014-07-23 19:11:34","country":{"isoCode":"US","name":"UNITED STATES","displayName":"United States","isoThree":"USA","numberCode":840,"createDate":"2012-01-03 02:41:33"}},{"id":"cZha6q","name":"Main Brewery","streetAddress":"1055 Madera St.","locality":"Eugene","region":"Oregon","postalCode":"97402","phone":"541-688-4555","website":"http://oakbrew.com/","latitude":44.073005,"longitude":-123.140739,"isPrimary":"Y","inPlanning":"N","isClosed":"N","openToPublic":"Y","locationType":"micro","locationTypeDisplay":"Micro Brewery","countryIsoCode":"US","yearOpened":"2006","status":"verified","statusDisplay":"Verified","createDate":"2012-01-03 02:42:04","updateDate":"2014-07-23 19:11:34","country":{"isoCode":"US","name":"UNITED STATES","displayName":"United States","isoThree":"USA","numberCode":840,"createDate":"2012-01-03 02:41:33"}},{"id":"Pee34A","name":"Public House","streetAddress":"207 Madison St","locality":"Eugene","region":"Oregon","postalCode":"97402","phone":"(541) 688-4555","website":"http://oakbrew.com/","latitude":44.057514,"longitude":-123.1030528,"isPrimary":"N","inPlanning":"N","isClosed":"N","openToPublic":"Y","locationType":"restaurant","locationTypeDisplay":"Restaurant/Ale House","countryIsoCode":"US","status":"verified","statusDisplay":"Verified","createDate":"2014-06-10 18:32:40","updateDate":"2014-07-23 19:11:34","country":{"isoCode":"US","name":"UNITED STATES","displayName":"United States","isoThree":"USA","numberCode":840,"createDate":"2012-01-03 02:41:33"}},{"id":"wnlFAt","name":"Main Brewery","streetAddress":"1800 Ord Way","locality":"Oceanside","region":"California","postalCode":"92056","phone":"760-721-4ALE","website":"http://www.oceansidealeworks.net/","latitude":33.2139439,"longitude":-117.2724416,"isPrimary":"Y","inPlanning":"N","isClosed":"N","openToPublic":"Y","locationType":"micro","locationTypeDisplay":"Micro Brewery","countryIsoCode":"US","yearOpened":"2005","status":"verified","statusDisplay":"Verified","createDate":"2012-01-03 02:42:04","updateDate":"2014-07-23 19:11:34","country":{"isoCode":"US","name":"UNITED STATES","displayName":"United States","isoThree":"USA","numberCode":840,"createDate":"2012-01-03 02:41:33"}},{"id":"VA10ul","name":"Main Brewery","streetAddress":"1301 Atlanta Avenue","locality":"Orlando","region":"Florida","postalCode":"32806","phone":"407-872-1117","website":"http://www.orlandobrewing.com/","hoursOfOperation":"Monday - Thursday, 3:00 to 10:00PM \r\nFriday & Saturday, 12:00 Noon to Late \r\nSunday 3:00 to 9:00PM \r\nBrewery Tour, Monday - Saturday at 6:00PM \r\nTaproom is closed on New Year’s Day, Easter, 4th of July, Thanksgiving, and Christmas.","latitude":28.5264635,"longitude":-81.3828909,"isPrimary":"Y","inPlanning":"N","isClosed":"N","openToPublic":"Y","locationType":"micro","locationTypeDisplay":"Micro Brewery","countryIsoCode":"US","status":"verified","statusDisplay":"Verified","createDate":"2012-01-03 02:42:04","updateDate":"2014-07-23 19:11:34","country":{"isoCode":"US","name":"UNITED STATES","displayName":"United States","isoThree":"USA","numberCode":840,"createDate":"2012-01-03 02:41:33"}},{"id":"6TEno6","name":"Main Brewery","streetAddress":"155 Mata Way Suite 104","locality":"San Marcos","region":"California","postalCode":"92069","phone":"760-891-0272","website":"http://www.portbrewing.com/","latitude":33.1416273,"longitude":-117.1492671,"isPrimary":"Y","inPlanning":"N","isClosed":"N","openToPublic":"Y","locationType":"micro","locationTypeDisplay":"Micro Brewery","countryIsoCode":"US","yearOpened":"2006","status":"verified","statusDisplay":"Verified","createDate":"2012-01-03 02:42:06","updateDate":"2014-10-13 14:47:15","country":{"isoCode":"US","name":"UNITED STATES","displayName":"United States","isoThree":"USA","numberCode":840,"createDate":"2012-01-03 02:41:33"}},{"id":"Hb7fk6","name":"Main Brewery","streetAddress":"Mittelroder Str. 25","locality":"Stadt Eldagsen","postalCode":"31832","latitude":52.207415,"longitude":9.55567,"isPrimary":"Y","inPlanning":"N","isClosed":"N","openToPublic":"Y","locationType":"micro","locationTypeDisplay":"Micro Brewery","countryIsoCode":"DE","status":"verified","statusDisplay":"Verified","createDate":"2012-08-16 14:57:33","updateDate":"2014-07-23 19:11:34","country":{"isoCode":"DE","name":"GERMANY","displayName":"Germany","isoThree":"DEU","numberCode":276,"createDate":"2012-01-03 02:41:33"}},{"id":"io9R00","name":"Main Brewery","streetAddress":"Dr. Robert-Meyer-Weg 22","locality":"Riegel","region":"Baden-Württemberg","postalCode":"79359","latitude":32.900625,"longitude":-102.528329,"isPrimary":"N","inPlanning":"N","isClosed":"N","openToPublic":"Y","locationType":"micro","locationTypeDisplay":"Micro Brewery","countryIsoCode":"DE","status":"verified","statusDisplay":"Verified","createDate":"2012-08-12 14:46:29","updateDate":"2014-07-23 19:11:34","country":{"isoCode":"DE","name":"GERMANY","displayName":"Germany","isoThree":"DEU","numberCode":276,"createDate":"2012-01-03 02:41:33"}},{"id":"101EVO","name":"Main Brewery","streetAddress":"3901 1st Ave S","locality":"Seattle","region":"Washington","postalCode":"98134","phone":"206-432-9734","website":"http://www.schoonerexact.com/","latitude":47.5685945,"longitude":-122.3342417,"isPrimary":"Y","inPlanning":"N","isClosed":"N","openToPublic":"Y","locationType":"micro","locationTypeDisplay":"Micro Brewery","countryIsoCode":"US","yearOpened":"2006","status":"verified","statusDisplay":"Verified","createDate":"2012-01-03 02:42:08","updateDate":"2014-07-23 19:11:34","country":{"isoCode":"US","name":"UNITED STATES","displayName":"United States","isoThree":"USA","numberCode":840,"createDate":"2012-01-03 02:41:33"}},{"id":"dDXOEp","name":"Main Brewery","streetAddress":"Düsternhorst 9","locality":"Schwarzenbek","region":"Schlewsig-Holstein","postalCode":"21493","website":"http://www.schwarzenbeker-brauhaus.de/","latitude":53.50192,"longitude":10.48137,"isPrimary":"N","inPlanning":"N","isClosed":"N","openToPublic":"Y","locationType":"micro","locationTypeDisplay":"Micro Brewery","countryIsoCode":"DE","status":"verified","statusDisplay":"Verified","createDate":"2012-08-12 14:46:26","updateDate":"2014-07-23 19:11:34","country":{"isoCode":"DE","name":"GERMANY","displayName":"Germany","isoThree":"DEU","numberCode":276,"createDate":"2012-01-03 02:41:33"}},{"id":"1oajgC","name":"Main Brewery","streetAddress":"45689 Hayes Road","locality":"Shelby Township","region":"Michigan","postalCode":"48315","phone":"586-532-9669","website":"http://sherwoodbrewing.com/","latitude":42.6322927,"longitude":-82.9735228,"isPrimary":"Y","inPlanning":"N","isClosed":"N","openToPublic":"Y","locationType":"brewpub","locationTypeDisplay":"Brewpub","countryIsoCode":"US","yearOpened":"2006","status":"verified","statusDisplay":"Verified","createDate":"2012-01-03 02:42:08","updateDate":"2014-07-23 19:11:34","country":{"isoCode":"US","name":"UNITED STATES","displayName":"United States","isoThree":"USA","numberCode":840,"createDate":"2012-01-03 02:41:33"}},{"id":"KDZsJL","name":"Main Brewery","streetAddress":"1922 United Way","locality":"Medford","region":"Oregon","postalCode":"97504","phone":"541-776-9898?","website":"http://www.sobrewing.com/","latitude":42.356287,"longitude":-122.859156,"isPrimary":"Y","inPlanning":"N","isClosed":"N","openToPublic":"Y","locationType":"micro","locationTypeDisplay":"Micro Brewery","countryIsoCode":"US","yearOpened":"2006","status":"verified","statusDisplay":"Verified","createDate":"2012-01-03 02:42:08","updateDate":"2014-07-23 19:11:34","country":{"isoCode":"US","name":"UNITED STATES","displayName":"United States","isoThree":"USA","numberCode":840,"createDate":"2012-01-03 02:41:33"}},{"id":"SmLlGS","name":"Main Brewery","streetAddress":"Am Diek 12","locality":"Colbitz","postalCode":"39326","latitude":52.299248,"longitude":11.595782,"isPrimary":"Y","inPlanning":"N","isClosed":"N","openToPublic":"Y","locationType":"micro","locationTypeDisplay":"Micro Brewery","countryIsoCode":"DE","status":"verified","statusDisplay":"Verified","createDate":"2012-08-16 15:12:05","updateDate":"2014-07-23 19:11:34","country":{"isoCode":"DE","name":"GERMANY","displayName":"Germany","isoThree":"DEU","numberCode":276,"createDate":"2012-01-03 02:41:33"}},{"id":"RwaR3B","name":"Main Brewery","streetAddress":"2519 Main St.","locality":"Conestoga","region":"Pennsylvania","postalCode":"17516","website":"http://www.springhousebeer.com/","latitude":39.9525,"longitude":-76.329515,"isPrimary":"Y","inPlanning":"N","isClosed":"N","openToPublic":"Y","locationType":"micro","locationTypeDisplay":"Micro Brewery","countryIsoCode":"US","status":"verified","statusDisplay":"Verified","createDate":"2012-01-03 02:42:08","updateDate":"2014-07-23 19:11:34","country":{"isoCode":"US","name":"UNITED STATES","displayName":"United States","isoThree":"USA","numberCode":840,"createDate":"2012-01-03 02:41:33"}},{"id":"yQQSln","name":"Taproom","streetAddress":"25 West King Street","locality":"Lancaster","region":"Pennsylvania","postalCode":"17603","phone":"(717) 399-4009","website":"http://www.springhousebeer.com/","hoursOfOperation":"Mon: 4:00 pm - 12:00 am\r\nTue - Sat: 11:00 am - 12:00 am\r\nSun: 12:00 pm - 11:00 pm","latitude":40.038495,"longitude":-76.306957,"isPrimary":"N","inPlanning":"N","isClosed":"N","openToPublic":"Y","locationType":"restaurant","locationTypeDisplay":"Restaurant/Ale House","countryIsoCode":"US","status":"verified","statusDisplay":"Verified","createDate":"2013-03-03 21:13:34","updateDate":"2014-07-23 19:11:34","country":{"isoCode":"US","name":"UNITED STATES","displayName":"United States","isoThree":"USA","numberCode":840,"createDate":"2012-01-03 02:41:33"}},{"id":"ItkrVU","name":"Main Brewery","streetAddress":"1727 Park Avenue","locality":"St. Louis","region":"Missouri","postalCode":"63104","phone":"314-231-2537","website":"http://www.squareonebrewery.com/","hoursOfOperation":"Mon - Sat: 11:00 am - 1:30 am\r\nSun: 10:00 am - 12:00 am","latitude":38.6168715,"longitude":-90.2110754,"isPrimary":"Y","inPlanning":"N","isClosed":"N","openToPublic":"Y","locationType":"micro","locationTypeDisplay":"Micro Brewery","countryIsoCode":"US","yearOpened":"2006","status":"verified","statusDisplay":"Verified","createDate":"2012-01-03 02:42:09","updateDate":"2014-07-23 19:11:34","country":{"isoCode":"US","name":"UNITED STATES","displayName":"United States","isoThree":"USA","numberCode":840,"createDate":"2012-01-03 02:41:33"}},{"id":"2REili","name":"Main Brewery","streetAddress":"4811 Dusharme Drive","locality":"Brooklyn Center","region":"Minnesota","postalCode":"55429","phone":"763-535-3330","website":"http://www.surlybrewing.com/","latitude":45.04285,"longitude":-93.324557,"isPrimary":"Y","inPlanning":"N","isClosed":"N","openToPublic":"Y","locationType":"micro","locationTypeDisplay":"Micro Brewery","countryIsoCode":"US","yearOpened":"2006","status":"verified","statusDisplay":"Verified","createDate":"2012-01-03 02:42:09","updateDate":"2014-07-23 19:11:34","country":{"isoCode":"US","name":"UNITED STATES","displayName":"United States","isoThree":"USA","numberCode":840,"createDate":"2012-01-03 02:41:33"}},{"id":"ocMbde","name":"Main Brewery","streetAddress":"418 North Salsipuedes Street","locality":"Santa Barbara","region":"California","postalCode":"93103","phone":"805-963-5398","website":"http://www.telegraphbrewing.com/","latitude":34.422903,"longitude":-119.687689,"isPrimary":"Y","inPlanning":"N","isClosed":"N","openToPublic":"Y","locationType":"micro","locationTypeDisplay":"Micro Brewery","countryIsoCode":"US","yearOpened":"2006","status":"verified","statusDisplay":"Verified","createDate":"2012-01-03 02:42:09","updateDate":"2014-07-25 18:37:45","country":{"isoCode":"US","name":"UNITED STATES","displayName":"United States","isoThree":"USA","numberCode":840,"createDate":"2012-01-03 02:41:33"}},{"id":"cvt0UF","name":"Main Brewery","streetAddress":"155 Mata Way","extendedAddress":"Suite 104","locality":"San Marcos","region":"California","postalCode":"92069","phone":"800-918-6816","website":"http://www.lostabbey.com/","latitude":33.1416273,"longitude":-117.1492671,"isPrimary":"Y","inPlanning":"N","isClosed":"N","openToPublic":"Y","locationType":"micro","locationTypeDisplay":"Micro Brewery","countryIsoCode":"US","yearOpened":"2006","status":"verified","statusDisplay":"Verified","createDate":"2012-01-03 02:42:10","updateDate":"2014-10-13 14:18:53","country":{"isoCode":"US","name":"UNITED STATES","displayName":"United States","isoThree":"USA","numberCode":840,"createDate":"2012-01-03 02:41:33"}},{"id":"1k3h3N","name":"Main Brewery","streetAddress":"4210 Kennett Pike","locality":"Greenville","region":"Delaware","postalCode":"19807","phone":"302-658-1826","website":"http://twinlakesbrewingcompany.com/","latitude":39.785885,"longitude":-75.602527,"isPrimary":"Y","inPlanning":"N","isClosed":"N","openToPublic":"Y","locationType":"brewpub","locationTypeDisplay":"Brewpub","countryIsoCode":"US","yearOpened":"2006","status":"verified","statusDisplay":"Verified","createDate":"2012-01-03 02:42:11","updateDate":"2014-07-23 19:11:34","country":{"isoCode":"US","name":"UNITED STATES","displayName":"United States","isoThree":"USA","numberCode":840,"createDate":"2012-01-03 02:41:33"}},{"id":"5Eerup","name":"Lassonde Industries Inc.","streetAddress":"755 Main Street","locality":"Rougemont","region":"Quebec","postalCode":"J0L 1M0","phone":"(866) 5527643","website":"http://www.lassonde.com/","latitude":45.438333,"longitude":-73.037778,"isPrimary":"Y","inPlanning":"N","isClosed":"N","openToPublic":"Y","locationType":"office","locationTypeDisplay":"Office","countryIsoCode":"CA","status":"verified","statusDisplay":"Verified","createDate":"2014-07-23 11:59:58","updateDate":"2014-07-23 19:11:34","country":{"isoCode":"CA","name":"CANADA","displayName":"Canada","isoThree":"CAN","numberCode":124,"createDate":"2012-01-03 02:41:33"}},{"id":"DEbm7U","name":"Main Brewery","streetAddress":"126 Muskingum Ave.","extendedAddress":"Suite E","locality":"Zanesville","region":"Ohio","postalCode":"43701","phone":"740-455-3767","website":"http://www.weaselboybrewing.com/","hoursOfOperation":"Tuesday through Friday  4pm to Midnight \r\nSaturday 3pm to Midnight","latitude":39.93638,"longitude":-82.009442,"isPrimary":"Y","inPlanning":"N","isClosed":"N","openToPublic":"Y","locationType":"brewpub","locationTypeDisplay":"Brewpub","countryIsoCode":"US","yearOpened":"2006","status":"verified","statusDisplay":"Verified","createDate":"2012-01-03 02:42:12","updateDate":"2014-07-29 11:29:57","country":{"isoCode":"US","name":"UNITED STATES","displayName":"United States","isoThree":"USA","numberCode":840,"createDate":"2012-01-03 02:41:33"}},{"id":"XSfRBX","name":"Main Brewery","streetAddress":"Havelock Street","locality":"Bedford","postalCode":"MK40 4LU","phone":"01234 272766","website":"http://www.wellsandyoungs.co.uk/","latitude":52.132011,"longitude":-0.481523,"isPrimary":"Y","inPlanning":"N","isClosed":"N","openToPublic":"Y","locationType":"micro","locationTypeDisplay":"Micro Brewery","countryIsoCode":"GB","yearOpened":"2006","status":"verified","statusDisplay":"Verified","createDate":"2012-01-03 02:42:12","updateDate":"2014-07-23 19:11:34","country":{"isoCode":"GB","name":"UNITED KINGDOM","displayName":"United Kingdom","isoThree":"GBR","numberCode":826,"createDate":"2012-01-03 02:41:33"}},{"id":"OF6Ab1","name":"Main Brewery","streetAddress":"Glasgow Green","region":"Glasgow","postalCode":"G240 1AW","phone":"+44 141 550 0135","website":"http://www.westbeer.com/","hoursOfOperation":"Mon - Thu: 11:00 am - 11:00 pm\r\nFri - Sat: 11:00 am - 12:00 am\r\nSun: 11:00 am - 11:00 pm","latitude":55.8470843,"longitude":-4.2362165,"isPrimary":"Y","inPlanning":"N","isClosed":"N","openToPublic":"Y","locationType":"micro","locationTypeDisplay":"Micro Brewery","countryIsoCode":"GB","yearOpened":"2006","status":"verified","statusDisplay":"Verified","createDate":"2013-03-21 10:51:46","updateDate":"2014-07-23 19:11:34","country":{"isoCode":"GB","name":"UNITED KINGDOM","displayName":"United Kingdom","isoThree":"GBR","numberCode":826,"createDate":"2012-01-03 02:41:33"}},{"id":"sVIbQO","name":"Main Brewery","streetAddress":"189-B Ewell Road","locality":"Williamsburg","region":"Virginia","postalCode":"23188","phone":"757-220-3670","website":"http://www.williamsburgalewerks.com/","latitude":37.3207221,"longitude":-76.7324337,"isPrimary":"Y","inPlanning":"N","isClosed":"N","openToPublic":"Y","locationType":"micro","locationTypeDisplay":"Micro Brewery","countryIsoCode":"US","yearOpened":"2006","status":"verified","statusDisplay":"Verified","createDate":"2012-01-03 02:42:13","updateDate":"2014-07-23 19:11:34","country":{"isoCode":"US","name":"UNITED STATES","displayName":"United States","isoThree":"USA","numberCode":840,"createDate":"2012-01-03 02:41:33"}},{"id":"pfj3jO","name":"Downtown Grill & Brewery","streetAddress":"424 South Gay Street","locality":"Knoxville","region":"Tennessee","postalCode":"37902","phone":"865-603-8750","website":"http://woodruffbrewing.com/","latitude":35.9656347,"longitude":-83.9183508,"isPrimary":"Y","inPlanning":"N","isClosed":"N","openToPublic":"N","locationType":"brewpub","locationTypeDisplay":"Brewpub","countryIsoCode":"US","yearOpened":"2006","status":"verified","statusDisplay":"Verified","createDate":"2012-01-03 02:42:16","updateDate":"2014-07-23 19:11:34","country":{"isoCode":"US","name":"UNITED STATES","displayName":"United States","isoThree":"USA","numberCode":840,"createDate":"2012-01-03 02:41:33"}}]