[{"id":"uLYwtl","name":"Main Brewery","streetAddress":"Süsterfeldstr. 21","locality":"Aachen","region":"Rhineland-Pfalz","postalCode":"52072","phone":"+49 (0)241-89463100","hoursOfOperation":"Mon:  9:00am - 6:00pm\nTue:  9:00am - 6:00pm\nWed:  9:00am - 6:00pm\nThu:  9:00am - 6:00pm\nFri:  9:00am - 6:00pm\nSat:  9:00am - 2:00pm\n\n","latitude":50.8247238,"longitude":6.0440697,"isPrimary":"Y","inPlanning":"N","isClosed":"N","openToPublic":"Y","locationType":"micro","locationTypeDisplay":"Micro Brewery","countryIsoCode":"DE","yearOpened":"2007","status":"verified","statusDisplay":"Verified","createDate":"2012-12-15 14:37:35","updateDate":"2014-07-23 19:38:45","country":{"isoCode":"DE","name":"GERMANY","displayName":"Germany","isoThree":"DEU","numberCode":276,"createDate":"2012-01-03 02:41:33"}},{"id":"J6OPsX","name":"Abashiri Beer","streetAddress":"4-1-2 Minami Nijo Nishi","locality":"Abashiri","region":"Hokkaido","postalCode":"093-0012","latitude":44.0213648,"longitude":144.2605994,"isPrimary":"Y","inPlanning":"N","isClosed":"N","openToPublic":"Y","locationType":"micro","locationTypeDisplay":"Micro Brewery","countryIsoCode":"JP","status":"new_unverified","statusDisplay":"New, Unverified","createDate":"2014-11-20 23:42:09","updateDate":"2014-11-20 23:42:10","country":{"isoCode":"JP","name":"JAPAN","displayName":"Japan","isoThree":"JPN","numberCode":392,"createDate":"2012-01-03 02:41:33"}},{"id":"FS17Tg","name":"Main Brewery","streetAddress":"311 10th Street","locality":"Golden","region":"Colorado","postalCode":"80401","phone":"800-936-5259","website":"http://www.acgolden.com/","latitude":39.7596611,"longitude":-105.2187669,"isPrimary":"Y","inPlanning":"N","isClosed":"N","openToPublic":"Y","locationType":"micro","locationTypeDisplay":"Micro Brewery","countryIsoCode":"US","yearOpened":"2007","status":"verified","statusDisplay":"Verified","createDate":"2012-01-03 02:41:43","updateDate":"2014-07-23 19:11:34","country":{"isoCode":"US","name":"UNITED STATES","displayName":"United States","isoThree":"USA","numberCode":840,"createDate":"2012-01-03 02:41:33"}},{"id":"c5A6lY","name":"Tall Paul’s Brewpub & Alligator Brewhouse","streetAddress":"10 SE 2nd Ave","locality":"Gainesville","region":"Florida","postalCode":"32601","phone":"(352) 505-0990","website":"http://alligatorbrewing.com/","latitude":29.650496,"longitude":-82.324556,"isPrimary":"Y","inPlanning":"Y","isClosed":"N","openToPublic":"Y","locationType":"nano","locationTypeDisplay":"Nano Brewery","countryIsoCode":"US","yearOpened":"2007","status":"verified","statusDisplay":"Verified","createDate":"2014-09-09 20:40:04","updateDate":"2014-09-09 20:41:40","country":{"isoCode":"US","name":"UNITED STATES","displayName":"United States","isoThree":"USA","numberCode":840,"createDate":"2012-01-03 02:41:33"}},{"id":"pguslr","name":"Main Brewery","streetAddress":"Unit 4 Lawrence Hill Industrial Park","extendedAddress":"Croydon Street","locality":"Lawrence Hill","region":"Bristol","postalCode":"BS5 0EB","latitude":51.4583567,"longitude":-2.5694249,"isPrimary":"Y","inPlanning":"N","isClosed":"N","openToPublic":"N","locationType":"production","locationTypeDisplay":"Production Facility","countryIsoCode":"GB","status":"verified","statusDisplay":"Verified","createDate":"2013-05-09 00:37:54","updateDate":"2014-07-23 19:11:34","country":{"isoCode":"GB","name":"UNITED KINGDOM","displayName":"United Kingdom","isoThree":"GBR","numberCode":826,"createDate":"2012-01-03 02:41:33"}},{"id":"S0dgvI","name":"The Old Stillage","streetAddress":"147 Church Rd","extendedAddress":"Redfield","locality":"Bristol","postalCode":"BS5 9LA","phone":"0117 939 4079","hoursOfOperation":"Mon:  4:00pm - 11:00pm\nTue:  4:00pm - 11:00pm\nWed:  4:00pm - 11:00pm\nThu:  4:00pm - 11:00pm\nFri:  4:00pm - 12:00am\nSat:  12:00pm - 12:00am\nSun:  12:00pm - 10:30pm\n\nMon-Thu 4pm-11pm;\r\nFri 4pm-12am;\r\nSat 12pm-12am;\r\nSun 12pm-10:30pm","latitude":51.4586634,"longitude":-2.5581766,"isPrimary":"N","inPlanning":"N","isClosed":"N","openToPublic":"Y","locationType":"tasting","locationTypeDisplay":"Tasting Room","countryIsoCode":"GB","status":"verified","statusDisplay":"Verified","createDate":"2013-05-09 00:40:12","updateDate":"2014-08-25 19:12:59","country":{"isoCode":"GB","name":"UNITED KINGDOM","displayName":"United Kingdom","isoThree":"GBR","numberCode":826,"createDate":"2012-01-03 02:41:33"}},{"id":"4KMV4j","name":"The Three Tuns","streetAddress":"78 Saint George's Road","extendedAddress":"Hotwells","locality":"Bristol","postalCode":"BS1 5UR","phone":"0117 907 0689","hoursOfOperation":"Mon:  12:00pm - 2:30pm\nTue:  12:00pm - 2:30pm\nWed:  12:00pm - 2:30pm\nThu:  12:00pm - 2:30pm\nFri:  12:00pm - 12:00am\nSat:  12:00pm - 12:00am\nSun:  4:00pm - 10:30pm\n\nMon-Thu 12pm-2.30pm & 4pm-11pm;\r\nFri-Sat 12pm-12am;\r\nSun 4pm-10:30pm","latitude":51.4511176,"longitude":-2.6049702,"isPrimary":"N","inPlanning":"N","isClosed":"N","openToPublic":"Y","locationType":"restaurant","locationTypeDisplay":"Restaurant/Ale House","countryIsoCode":"GB","status":"verified","statusDisplay":"Verified","createDate":"2013-05-09 00:41:57","updateDate":"2014-08-25 19:13:00","country":{"isoCode":"GB","name":"UNITED KINGDOM","displayName":"United Kingdom","isoThree":"GBR","numberCode":826,"createDate":"2012-01-03 02:41:33"}},{"id":"11D3Xr","name":"Main Brewery","streetAddress":"Elmar Wiemers Haller Str. 4","locality":"Nortrup","region":"Lower Saxony","postalCode":"49638","latitude":52.61706,"longitude":7.859219,"isPrimary":"Y","inPlanning":"N","isClosed":"N","openToPublic":"Y","locationType":"micro","locationTypeDisplay":"Micro Brewery","countryIsoCode":"DE","status":"verified","statusDisplay":"Verified","createDate":"2012-08-13 01:24:24","updateDate":"2014-07-23 19:11:34","country":{"isoCode":"DE","name":"GERMANY","displayName":"Germany","isoThree":"DEU","numberCode":276,"createDate":"2012-01-03 02:41:33"}},{"id":"ZU9GSR","name":"Main Brewery","streetAddress":"800 East 16th St.","locality":"Tucson","region":"Arizona","postalCode":"85719","phone":"520-791-2739","website":"http://www.barriobrewing.com/","hoursOfOperation":"Mon - Tue:\t11:00 am - 11:00 pm\r\nWed - Sat:\t11:00 am - 12:00 am\r\nSun:\t11:00 am - 11:00 pm","latitude":32.2147011,"longitude":-110.9597785,"isPrimary":"Y","inPlanning":"N","isClosed":"N","openToPublic":"Y","locationType":"micro","locationTypeDisplay":"Micro Brewery","countryIsoCode":"US","yearOpened":"2007","status":"verified","statusDisplay":"Verified","createDate":"2012-01-03 02:41:45","updateDate":"2014-07-23 19:11:34","country":{"isoCode":"US","name":"UNITED STATES","displayName":"United States","isoThree":"USA","numberCode":840,"createDate":"2012-01-03 02:41:33"}},{"id":"grgR6d","name":"Main Brewery","streetAddress":"On Concrete Plant 6","region":"Barth","postalCode":"18356","phone":"038231-450052","website":"http://www.brauerei-barth.de/","latitude":54.358158,"longitude":12.723545,"isPrimary":"Y","inPlanning":"N","isClosed":"N","openToPublic":"Y","locationType":"micro","locationTypeDisplay":"Micro Brewery","countryIsoCode":"DE","status":"verified","statusDisplay":"Verified","createDate":"2012-08-07 20:56:32","updateDate":"2014-07-23 19:11:34","country":{"isoCode":"DE","name":"GERMANY","displayName":"Germany","isoThree":"DEU","numberCode":276,"createDate":"2012-01-03 02:41:33"}},{"id":"owANw7","name":"Main Brewery","extendedAddress":"PO Box 515","locality":"Brazil","region":"Indiana","phone":"812-240-1147","website":"http://www.beecreekbrewery.com/","latitude":39.515569,"longitude":-87.132467,"isPrimary":"Y","inPlanning":"N","isClosed":"Y","openToPublic":"N","locationType":"micro","locationTypeDisplay":"Micro Brewery","countryIsoCode":"US","yearOpened":"2007","status":"verified","statusDisplay":"Verified","createDate":"2012-01-03 02:41:45","updateDate":"2014-07-23 19:11:34","country":{"isoCode":"US","name":"UNITED STATES","displayName":"United States","isoThree":"USA","numberCode":840,"createDate":"2012-01-03 02:41:33"}},{"id":"fzliLT","name":"Main Brewery","streetAddress":"1744 Terrace Drive","locality":"Roseville","region":"Minnesota","postalCode":"55113","phone":"(844) 879-2368","website":"http://www.bentbrewstillery.com/","latitude":45.0256835,"longitude":-93.1747238,"isPrimary":"Y","inPlanning":"N","isClosed":"N","openToPublic":"Y","locationType":"micro","locationTypeDisplay":"Micro Brewery","countryIsoCode":"US","status":"verified","statusDisplay":"Verified","createDate":"2014-02-15 12:21:59","updateDate":"2014-07-23 19:11:34","country":{"isoCode":"US","name":"UNITED STATES","displayName":"United States","isoThree":"USA","numberCode":840,"createDate":"2012-01-03 02:41:33"}},{"id":"N7CfsS","name":"Main Brewery","streetAddress":"Strada Argini","region":"Soragna (PR)","postalCode":"43 43019","phone":"+39 0524 90 137","website":"http://www.birrificiodelducato.net/","latitude":44.965514,"longitude":10.2243991,"isPrimary":"Y","inPlanning":"N","isClosed":"N","openToPublic":"Y","locationType":"micro","locationTypeDisplay":"Micro Brewery","countryIsoCode":"IT","status":"verified","statusDisplay":"Verified","createDate":"2013-01-10 11:28:37","updateDate":"2014-07-23 19:11:34","country":{"isoCode":"IT","name":"ITALY","displayName":"Italy","isoThree":"ITA","numberCode":380,"createDate":"2012-01-03 02:41:33"}},{"id":"CQW3hO","name":"Main Brewery","streetAddress":"9519 Critzers Shop Road","locality":"Afton","region":"Virginia","postalCode":"22920","phone":"540-456-8020","website":"http://www.bluemountainbrewery.com/","hoursOfOperation":"Mon-Sat 11:30am - 10:00pm\r\nSunday 11:30am- 9:00pm","latitude":38.0189991,"longitude":-78.8222064,"isPrimary":"Y","inPlanning":"N","isClosed":"N","openToPublic":"Y","locationType":"micro","locationTypeDisplay":"Micro Brewery","countryIsoCode":"US","yearOpened":"2007","status":"verified","statusDisplay":"Verified","createDate":"2012-01-03 02:41:47","updateDate":"2014-07-23 19:11:34","country":{"isoCode":"US","name":"UNITED STATES","displayName":"United States","isoThree":"USA","numberCode":840,"createDate":"2012-01-03 02:41:33"}},{"id":"zvSxNB","name":"Main Brewery","streetAddress":"262 Wanaque Ave, Rear","locality":"Pompton Lakes","region":"New Jersey","postalCode":"07442","phone":"973-570-6381","website":"http://www.boaksbeer.com/","latitude":41.003974,"longitude":-74.291753,"isPrimary":"Y","inPlanning":"N","isClosed":"N","openToPublic":"Y","locationType":"micro","locationTypeDisplay":"Micro Brewery","countryIsoCode":"US","yearOpened":"2007","status":"verified","statusDisplay":"Verified","createDate":"2012-01-03 02:41:47","updateDate":"2014-07-23 19:11:34","country":{"isoCode":"US","name":"UNITED STATES","displayName":"United States","isoThree":"USA","numberCode":840,"createDate":"2012-01-03 02:41:33"}},{"id":"nQPr2y","name":"Main Brewery","streetAddress":"39550 Seven Mile Road","locality":"Northville","region":"Michigan","postalCode":"48167","latitude":42.426124,"longitude":-83.434773,"isPrimary":"Y","inPlanning":"N","isClosed":"Y","openToPublic":"Y","locationType":"micro","locationTypeDisplay":"Micro Brewery","countryIsoCode":"US","yearOpened":"2007","status":"verified","statusDisplay":"Verified","createDate":"2012-01-03 02:41:47","updateDate":"2014-07-23 19:11:34","country":{"isoCode":"US","name":"UNITED STATES","displayName":"United States","isoThree":"USA","numberCode":840,"createDate":"2012-01-03 02:41:33"}},{"id":"7sItWX","name":"Main Brewery","streetAddress":"Brasserie Artésienne Rue Simone de Beauvoir","region":"Auchy-les-Mines","postalCode":"62138","phone":"+33 6 84 26 11 15","website":"http://www.biereartisanale.fr/","latitude":50.5220109,"longitude":2.7972156,"isPrimary":"Y","inPlanning":"N","isClosed":"N","openToPublic":"Y","locationType":"micro","locationTypeDisplay":"Micro Brewery","countryIsoCode":"FR","status":"verified","statusDisplay":"Verified","createDate":"2014-07-14 11:44:43","updateDate":"2014-07-23 19:11:34","country":{"isoCode":"FR","name":"FRANCE","displayName":"France","isoThree":"FRA","numberCode":250,"createDate":"2012-01-03 02:41:33"}},{"id":"iQIOpQ","name":"Main Brewery","streetAddress":"Zum Alten Brauhaus","locality":"Jenaprießnitz Jena","region":"Thuringia","postalCode":"D-07751","latitude":50.924769,"longitude":11.649696,"isPrimary":"Y","inPlanning":"N","isClosed":"N","openToPublic":"Y","locationType":"micro","locationTypeDisplay":"Micro Brewery","countryIsoCode":"DE","status":"verified","statusDisplay":"Verified","createDate":"2012-08-16 11:53:07","updateDate":"2014-07-23 19:11:34","country":{"isoCode":"DE","name":"GERMANY","displayName":"Germany","isoThree":"DEU","numberCode":276,"createDate":"2012-01-03 02:41:33"}},{"id":"sysVGG","name":"Main Brewery","streetAddress":"Backnanger Straße 78","locality":"Sulzbach an der Murr","region":"Baden-Württemberg","postalCode":"71560","latitude":49.003998,"longitude":9.496325,"isPrimary":"N","inPlanning":"N","isClosed":"N","openToPublic":"Y","locationType":"micro","locationTypeDisplay":"Micro Brewery","countryIsoCode":"DE","status":"verified","statusDisplay":"Verified","createDate":"2012-08-12 14:47:43","updateDate":"2014-07-23 19:11:34","country":{"isoCode":"DE","name":"GERMANY","displayName":"Germany","isoThree":"DEU","numberCode":276,"createDate":"2012-01-03 02:41:33"}},{"id":"sMEWAk","name":"Main Brewery","streetAddress":"Neisser Straße 1","locality":"Ingelheim","region":"Rheinland-Pfalz","postalCode":"55218","latitude":49.970295,"longitude":8.059935,"isPrimary":"N","inPlanning":"N","isClosed":"N","openToPublic":"Y","locationType":"micro","locationTypeDisplay":"Micro Brewery","countryIsoCode":"DE","status":"verified","statusDisplay":"Verified","createDate":"2012-08-12 14:45:52","updateDate":"2014-07-23 19:11:34","country":{"isoCode":"DE","name":"GERMANY","displayName":"Germany","isoThree":"DEU","numberCode":276,"createDate":"2012-01-03 02:41:33"}},{"id":"GohZ7B","name":"Main Brewery","streetAddress":"15315 Madison Avenue","locality":"Lakewood","region":"Ohio","postalCode":"44107","phone":"216-292-2739","website":"http://buckeyebeerengine.com/","latitude":41.477087,"longitude":-81.804132,"isPrimary":"Y","inPlanning":"N","isClosed":"N","openToPublic":"Y","locationType":"brewpub","locationTypeDisplay":"Brewpub","countryIsoCode":"US","yearOpened":"2007","status":"verified","statusDisplay":"Verified","createDate":"2012-01-03 02:41:49","updateDate":"2014-07-23 19:11:34","country":{"isoCode":"US","name":"UNITED STATES","displayName":"United States","isoThree":"USA","numberCode":840,"createDate":"2012-01-03 02:41:33"}},{"id":"sdArdZ","name":"Main Brewery","streetAddress":"40 Cowlitz","extendedAddress":"#B","locality":"St. Helens","region":"Oregon","postalCode":"97051","phone":"971-207-3742","website":"http://www.capturedbyporches.com/","latitude":45.8613328,"longitude":-122.7978764,"isPrimary":"Y","inPlanning":"N","isClosed":"N","openToPublic":"Y","locationType":"micro","locationTypeDisplay":"Micro Brewery","countryIsoCode":"US","yearOpened":"2007","status":"verified","statusDisplay":"Verified","createDate":"2012-01-03 02:41:50","updateDate":"2014-07-23 19:11:34","country":{"isoCode":"US","name":"UNITED STATES","displayName":"United States","isoThree":"USA","numberCode":840,"createDate":"2012-01-03 02:41:33"}},{"id":"IRqZSn","name":"Main Brewery","streetAddress":"2526  Montana Ave-B","locality":"Billings","region":"Montana","postalCode":"59101","phone":"406-252-0663","website":"http://www.cartersbrewing.com/","latitude":45.7828315,"longitude":-108.5015379,"isPrimary":"Y","inPlanning":"N","isClosed":"N","openToPublic":"Y","locationType":"micro","locationTypeDisplay":"Micro Brewery","countryIsoCode":"US","yearOpened":"2007","status":"verified","statusDisplay":"Verified","createDate":"2012-01-03 02:41:50","updateDate":"2014-07-23 19:11:34","country":{"isoCode":"US","name":"UNITED STATES","displayName":"United States","isoThree":"USA","numberCode":840,"createDate":"2012-01-03 02:41:33"}},{"id":"trVGJB","name":"Cayman Islands Brewery","streetAddress":"366 Shamrock Road","extendedAddress":"PO Box 32329","locality":"George Town","postalCode":"KY1-1209","phone":"(345) 947-6699","website":"http://www.caybrew.com","isPrimary":"Y","inPlanning":"N","isClosed":"N","openToPublic":"Y","locationType":"production","locationTypeDisplay":"Production Facility","countryIsoCode":"KY","yearOpened":"2007","status":"verified","statusDisplay":"Verified","createDate":"2014-08-18 04:17:54","updateDate":"2014-08-18 11:27:21","country":{"isoCode":"KY","name":"CAYMAN ISLANDS","displayName":"Cayman Islands","isoThree":"CYM","numberCode":136,"createDate":"2012-01-03 02:41:33"}},{"id":"yyXPEU","name":"Main Brewery","streetAddress":"Carrer del Feu 15","locality":"Sant Miquel de Balenyà","postalCode":"08554","phone":"+34 938 123 217","latitude":41.8424748,"longitude":2.2458771,"isPrimary":"Y","inPlanning":"N","isClosed":"N","openToPublic":"Y","locationType":"micro","locationTypeDisplay":"Micro Brewery","countryIsoCode":"ES","status":"verified","statusDisplay":"Verified","createDate":"2013-09-18 10:49:09","updateDate":"2014-07-23 19:11:34","country":{"isoCode":"ES","name":"SPAIN","displayName":"Spain","isoThree":"ESP","numberCode":724,"createDate":"2012-01-03 02:41:33"}},{"id":"bA9hdh","name":"Main Brewery","streetAddress":"125 West Highway 14","locality":"Spearfish","region":"South Dakota","postalCode":"57783","phone":"605-717-0006","website":"http://www.crowpeakbrewing.com/","hoursOfOperation":"Mon - Thu: 4:00 pm - 9:00 pm\r\nFri - Sat: 2:00 pm - 10:00 pm\r\nSun: 12:00 pm - 8:00 pm","latitude":44.5177631,"longitude":-103.8710587,"isPrimary":"Y","inPlanning":"N","isClosed":"N","openToPublic":"Y","locationType":"micro","locationTypeDisplay":"Micro Brewery","countryIsoCode":"US","yearOpened":"2007","status":"verified","statusDisplay":"Verified","createDate":"2012-01-03 02:41:52","updateDate":"2014-09-11 10:33:07","country":{"isoCode":"US","name":"UNITED STATES","displayName":"United States","isoThree":"USA","numberCode":840,"createDate":"2012-01-03 02:41:33"}},{"id":"tGWt0q","name":"Slow Quarter","streetAddress":"5 Main Road, Darling, South Africa","locality":"Darling","region":"Western Cape","phone":"+27 82 889 1175","website":"http://www.darlingbrew.co.za/tap-room/","hoursOfOperation":"Tue - Thu: 10:00 am - 6:00 pm\r\nFri: 10:00 am - 8:00 pm\r\nSat: 10:00 am - 6:00 pm","latitude":-33.3778176,"longitude":18.3843956,"isPrimary":"Y","inPlanning":"N","isClosed":"N","openToPublic":"Y","locationType":"tasting","locationTypeDisplay":"Tasting Room","countryIsoCode":"ZA","status":"verified","statusDisplay":"Verified","createDate":"2013-07-27 11:07:48","updateDate":"2014-07-23 19:11:34","country":{"isoCode":"ZA","name":"SOUTH AFRICA","displayName":"South Africa","isoThree":"ZAF","numberCode":710,"createDate":"2012-01-03 02:41:33"}},{"id":"gFWElp","name":"Production Facility","streetAddress":"1616 G.E. Rd Unit #1","locality":"Bloomington","region":"Illinois","postalCode":"61704","phone":"877-572-7563","website":"http://www.destihlbrewery.com/","latitude":40.4530204,"longitude":-88.9617887,"isPrimary":"Y","inPlanning":"N","isClosed":"N","openToPublic":"Y","locationType":"production","locationTypeDisplay":"Production Facility","countryIsoCode":"US","yearOpened":"2007","status":"verified","statusDisplay":"Verified","createDate":"2012-01-03 02:41:52","updateDate":"2014-07-28 11:06:40","country":{"isoCode":"US","name":"UNITED STATES","displayName":"United States","isoThree":"USA","numberCode":840,"createDate":"2012-01-03 02:41:33"}},{"id":"I31xmn","name":"Normal","streetAddress":"318 S. Towanda Avenue","locality":"Normal","region":"Illinois","postalCode":"61761","phone":"309-862-2337","website":"http://www.destihl.com/","hoursOfOperation":"Mon:  11:00am - 10:00pm\nTue:  11:00am - 10:00pm\nWed:  11:00am - 10:00pm\nThu:  11:00am - 10:00pm\nFri:  11:00am - 11:00pm\nSat:  11:00am - 11:00pm\nSun:  10:00am - 9:00pm\n\nReservations, call-ahead seating and \r\nwalk-ins are accepted for Lunch or Dinner. \r\n\r\nFor parties of 6 or greater, please call us directly to make your reservation.","latitude":40.5046987,"longitude":-88.957125,"isPrimary":"N","inPlanning":"N","isClosed":"N","openToPublic":"Y","locationType":"brewpub","locationTypeDisplay":"Brewpub","countryIsoCode":"US","yearOpened":"2007","status":"verified","statusDisplay":"Verified","createDate":"2014-07-28 11:05:15","updateDate":"2014-07-28 11:06:06","country":{"isoCode":"US","name":"UNITED STATES","displayName":"United States","isoThree":"USA","numberCode":840,"createDate":"2012-01-03 02:41:33"}},{"id":"uMklwE","name":"Champaign","streetAddress":"301 N. Neil Street","locality":"Champaign","region":"Illinois","postalCode":"61820","phone":"217-356-0301","website":"http://www.destihl.com/","hoursOfOperation":"Mon:  11:00am - 10:00pm\nTue:  11:00am - 10:00pm\nWed:  11:00am - 10:00pm\nThu:  11:00am - 10:00pm\nFri:  11:00am - 11:00pm\nSat:  11:00am - 11:00pm\nSun:  11:00am - 9:00pm\n\nReservations, call-ahead seating and \r\nwalk-ins are accepted for Lunch or Dinner. \r\n\r\nFor parties of 6 or greater, please call us directly to make your reservation.","latitude":40.1190386,"longitude":-88.2438816,"isPrimary":"N","inPlanning":"N","isClosed":"N","openToPublic":"Y","locationType":"brewpub","locationTypeDisplay":"Brewpub","countryIsoCode":"US","yearOpened":"2011","status":"verified","statusDisplay":"Verified","createDate":"2014-07-28 11:06:05","updateDate":"2014-07-28 11:06:19","country":{"isoCode":"US","name":"UNITED STATES","displayName":"United States","isoThree":"USA","numberCode":840,"createDate":"2012-01-03 02:41:33"}},{"id":"4kMvnC","name":"Main Brewery","streetAddress":"8 Fourth Street","locality":"Hood River","region":"Oregon","postalCode":"97031","phone":"541-387-0042","website":"http://www.doublemountainbrewery.com/","latitude":45.7099797,"longitude":-121.5144842,"isPrimary":"Y","inPlanning":"N","isClosed":"N","openToPublic":"Y","locationType":"micro","locationTypeDisplay":"Micro Brewery","countryIsoCode":"US","status":"verified","statusDisplay":"Verified","createDate":"2012-01-03 02:41:53","updateDate":"2014-07-23 19:11:34","country":{"isoCode":"US","name":"UNITED STATES","displayName":"United States","isoThree":"USA","numberCode":840,"createDate":"2012-01-03 02:41:33"}},{"id":"5YwQy0","name":"Main Brewery","streetAddress":"528 Arnold Ave","locality":"Point Pleasant Beach","region":"New Jersey","postalCode":"08742","phone":"732-202-7782","website":"http://www.beachhausbeer.com/","latitude":40.091779,"longitude":-74.049265,"isPrimary":"Y","inPlanning":"N","isClosed":"N","openToPublic":"Y","locationType":"micro","locationTypeDisplay":"Micro Brewery","countryIsoCode":"US","yearOpened":"2007","status":"verified","statusDisplay":"Verified","createDate":"2012-01-03 02:41:53","updateDate":"2014-07-23 19:11:34","country":{"isoCode":"US","name":"UNITED STATES","displayName":"United States","isoThree":"USA","numberCode":840,"createDate":"2012-01-03 02:41:33"}},{"id":"Gf9h6p","name":"Main Brewery","streetAddress":"Mühlenweg 4","locality":"Groß Glevitz","region":"Mecklenburg-Vorpommern","postalCode":"D-17192","latitude":53.512638,"longitude":12.688588,"isPrimary":"N","inPlanning":"N","isClosed":"N","openToPublic":"Y","locationType":"micro","locationTypeDisplay":"Micro Brewery","countryIsoCode":"DE","status":"verified","statusDisplay":"Verified","createDate":"2012-08-12 14:47:42","updateDate":"2014-07-23 19:11:34","country":{"isoCode":"DE","name":"GERMANY","displayName":"Germany","isoThree":"DEU","numberCode":276,"createDate":"2012-01-03 02:41:33"}},{"id":"6gpvgZ","name":"Main Brewery","streetAddress":"2035 Benson Avenue","locality":"St. Paul","region":"Minnesota","postalCode":"55116","website":"http://flatearthbrewing.com/","latitude":44.9084187,"longitude":-93.1538067,"isPrimary":"Y","inPlanning":"N","isClosed":"N","openToPublic":"Y","locationType":"micro","locationTypeDisplay":"Micro Brewery","countryIsoCode":"US","status":"verified","statusDisplay":"Verified","createDate":"2012-01-03 02:41:54","updateDate":"2014-07-23 19:11:34","country":{"isoCode":"US","name":"UNITED STATES","displayName":"United States","isoThree":"USA","numberCode":840,"createDate":"2012-01-03 02:41:33"}},{"id":"LNr16q","name":"Hamm's Building","streetAddress":"688 Minnehaha Avenue East","locality":"Saint Paul","region":"Minnesota","postalCode":"55106","phone":"(651) 698-1945","website":"http://www.flatearthbrewing.com","hoursOfOperation":"Mon - Sat: 12:00 pm - 6:30 pm","latitude":44.9629992,"longitude":-93.0716823,"isPrimary":"N","inPlanning":"N","isClosed":"N","openToPublic":"Y","locationType":"micro","locationTypeDisplay":"Micro Brewery","countryIsoCode":"US","yearOpened":"2013","status":"verified","statusDisplay":"Verified","createDate":"2014-05-23 13:42:34","updateDate":"2014-07-23 19:11:34","country":{"isoCode":"US","name":"UNITED STATES","displayName":"United States","isoThree":"USA","numberCode":840,"createDate":"2012-01-03 02:41:33"}},{"id":"amIfT7","name":"Main Brewery","streetAddress":"10913 C Office Park Drive","locality":"Charlotte","region":"North Carolina","postalCode":"28273","website":"http://fourfriendsbrewing.com/","hoursOfOperation":"Saturday: 3pm - 7pm","latitude":35.12048,"longitude":-80.9595499,"isPrimary":"Y","inPlanning":"N","isClosed":"Y","openToPublic":"N","locationType":"micro","locationTypeDisplay":"Micro Brewery","countryIsoCode":"US","yearOpened":"2007","yearClosed":"2014","status":"verified","statusDisplay":"Verified","createDate":"2012-01-03 02:41:55","updateDate":"2014-07-23 19:11:34","country":{"isoCode":"US","name":"UNITED STATES","displayName":"United States","isoThree":"USA","numberCode":840,"createDate":"2012-01-03 02:41:33"}},{"id":"pj4HJk","name":"Main Brewery","streetAddress":"114 14th Street South","locality":"Birmingham","region":"Alabama","postalCode":"35223","website":"http://www.goodpeoplebrewing.com/","hoursOfOperation":"Taproom Hours\r\nWednesday: 3pm - 8pm\r\nThursday: 3pm - 8pm\r\nFriday: 3pm - 8pm\r\nSaturday: 1pm - 4pm","latitude":33.50713,"longitude":-86.811894,"isPrimary":"Y","inPlanning":"N","isClosed":"N","openToPublic":"Y","locationType":"micro","locationTypeDisplay":"Micro Brewery","countryIsoCode":"US","yearOpened":"2007","status":"verified","statusDisplay":"Verified","createDate":"2012-01-03 02:41:56","updateDate":"2014-07-23 19:11:34","country":{"isoCode":"US","name":"UNITED STATES","displayName":"United States","isoThree":"USA","numberCode":840,"createDate":"2012-01-03 02:41:33"}},{"id":"kGYkIn","name":"Production Facility","streetAddress":"403 Hill Road","locality":"Greensboro Bend","region":"Vermont","postalCode":"05842","website":"http://www.hillfarmstead.com/grassrootsbrewing/","latitude":44.6111966,"longitude":-72.246696,"isPrimary":"Y","inPlanning":"N","isClosed":"N","openToPublic":"N","locationType":"production","locationTypeDisplay":"Production Facility","countryIsoCode":"US","yearOpened":"2007","status":"verified","statusDisplay":"Verified","createDate":"2014-02-25 17:26:13","updateDate":"2014-07-23 19:11:34","country":{"isoCode":"US","name":"UNITED STATES","displayName":"United States","isoThree":"USA","numberCode":840,"createDate":"2012-01-03 02:41:33"}},{"id":"xm6rt6","name":"Main Brewery","streetAddress":"Great Newsome Farm","extendedAddress":"South Frodingham","locality":"Winestead Hull","region":"East Yorks","postalCode":"HU12 0NR","phone":"01964 612201","website":"http://www.greatnewsomebrewery.co.uk/","latitude":53.718597,"longitude":-0.0183702,"isPrimary":"Y","inPlanning":"N","isClosed":"N","openToPublic":"Y","locationType":"micro","locationTypeDisplay":"Micro Brewery","countryIsoCode":"GB","yearOpened":"2007","status":"verified","statusDisplay":"Verified","createDate":"2014-01-16 20:53:38","updateDate":"2014-07-23 19:11:34","country":{"isoCode":"GB","name":"UNITED KINGDOM","displayName":"United Kingdom","isoThree":"GBR","numberCode":826,"createDate":"2012-01-03 02:41:33"}},{"id":"a57dkm","name":"Main Brewery","streetAddress":"275 E. Kawili St","locality":"Hilo","region":"Hawaii","postalCode":"96720","phone":"808-934-8211","website":"http://www.hawaiinuibrewing.com/","latitude":19.7059868,"longitude":-155.0691282,"isPrimary":"Y","inPlanning":"N","isClosed":"N","openToPublic":"Y","locationType":"micro","locationTypeDisplay":"Micro Brewery","countryIsoCode":"US","status":"verified","statusDisplay":"Verified","createDate":"2012-01-03 02:41:57","updateDate":"2014-07-23 19:11:34","country":{"isoCode":"US","name":"UNITED STATES","displayName":"United States","isoThree":"USA","numberCode":840,"createDate":"2012-01-03 02:41:33"}},{"id":"8wcv7h","name":"Main Brewery","streetAddress":"1670 Stirrup Loop","locality":"Healdsburg","region":"California","postalCode":"95448","phone":"707.385.9385","website":"http://www.healdsburgbeercompany.com/","latitude":38.63915,"longitude":-122.863248,"isPrimary":"Y","inPlanning":"N","isClosed":"N","openToPublic":"Y","locationType":"micro","locationTypeDisplay":"Micro Brewery","countryIsoCode":"US","status":"verified","statusDisplay":"Verified","createDate":"2012-01-03 02:41:57","updateDate":"2014-07-23 19:11:34","country":{"isoCode":"US","name":"UNITED STATES","displayName":"United States","isoThree":"USA","numberCode":840,"createDate":"2012-01-03 02:41:33"}},{"id":"wYUVVF","name":"Main Brewery","streetAddress":"Bischofsheimer Straße 13","locality":"Maintal-Hochstadt","region":"Hesse","postalCode":"63477","latitude":50.151353,"longitude":8.831394,"isPrimary":"Y","inPlanning":"N","isClosed":"N","openToPublic":"Y","locationType":"micro","locationTypeDisplay":"Micro Brewery","countryIsoCode":"DE","status":"verified","statusDisplay":"Verified","createDate":"2012-08-16 13:46:37","updateDate":"2014-07-23 19:11:34","country":{"isoCode":"DE","name":"GERMANY","displayName":"Germany","isoThree":"DEU","numberCode":276,"createDate":"2012-01-03 02:41:33"}},{"id":"7QObTq","name":"Main Brewery","streetAddress":"Florengasse 3","region":"Fulda","postalCode":"36037","latitude":50.549933,"longitude":9.679048,"isPrimary":"Y","inPlanning":"N","isClosed":"N","openToPublic":"Y","locationType":"micro","locationTypeDisplay":"Micro Brewery","countryIsoCode":"DE","status":"verified","statusDisplay":"Verified","createDate":"2012-08-15 15:22:51","updateDate":"2014-07-23 19:11:34","country":{"isoCode":"DE","name":"GERMANY","displayName":"Germany","isoThree":"DEU","numberCode":276,"createDate":"2012-01-03 02:41:33"}},{"id":"E1zSFp","name":"Main Brewery","streetAddress":"6980 Marketplace Drive","locality":"Goleta","region":"California","postalCode":"93117","phone":"805-968-2810","website":"http://www.hollisterbrewco.com/","latitude":34.4287382,"longitude":-119.8715415,"isPrimary":"Y","inPlanning":"N","isClosed":"N","openToPublic":"Y","locationType":"micro","locationTypeDisplay":"Micro Brewery","countryIsoCode":"US","yearOpened":"2007","status":"verified","statusDisplay":"Verified","createDate":"2012-01-03 02:41:57","updateDate":"2014-07-23 19:11:34","country":{"isoCode":"US","name":"UNITED STATES","displayName":"United States","isoThree":"USA","numberCode":840,"createDate":"2012-01-03 02:41:33"}},{"id":"oxMCya","name":"Main Brewery","streetAddress":"618 S. Wheeling Ave","locality":"Tulsa","region":"Oklahoma","postalCode":"74104","phone":"918-292-8781","website":"http://marshallbrewing.com/","latitude":36.151685,"longitude":-95.965142,"isPrimary":"Y","inPlanning":"N","isClosed":"N","openToPublic":"Y","locationType":"micro","locationTypeDisplay":"Micro Brewery","countryIsoCode":"US","yearOpened":"2007","status":"verified","statusDisplay":"Verified","createDate":"2012-01-03 02:42:01","updateDate":"2014-07-23 19:11:34","country":{"isoCode":"US","name":"UNITED STATES","displayName":"United States","isoThree":"USA","numberCode":840,"createDate":"2012-01-03 02:41:33"}},{"id":"RH5181","name":"Main Brewery","streetAddress":"2 Pinchy Lane","locality":"Belfast","region":"Maine","postalCode":"04915","phone":"207-338-1707","website":"http://www.marshallwharf.com/","latitude":44.428722,"longitude":-69.005409,"isPrimary":"Y","inPlanning":"N","isClosed":"N","openToPublic":"Y","locationType":"brewpub","locationTypeDisplay":"Brewpub","countryIsoCode":"US","status":"verified","statusDisplay":"Verified","createDate":"2012-01-03 02:42:01","updateDate":"2014-09-26 13:34:52","country":{"isoCode":"US","name":"UNITED STATES","displayName":"United States","isoThree":"USA","numberCode":840,"createDate":"2012-01-03 02:41:33"}},{"id":"TPTX6g","name":"Main Brewery","streetAddress":"12 Resnik Rd","locality":"Plymouth","region":"Massachusetts","postalCode":"02360","phone":"508-746-2674","website":"http://mayflowerbrewing.com/","hoursOfOperation":"Tasting & Tour Hours\r\nThursdays and Fridays 4:30PM to 6:30PM\r\nSaturdays 11AM to 3PM","latitude":41.949046,"longitude":-70.711393,"isPrimary":"Y","inPlanning":"N","isClosed":"N","openToPublic":"Y","locationType":"micro","locationTypeDisplay":"Micro Brewery","countryIsoCode":"US","yearOpened":"2007","status":"verified","statusDisplay":"Verified","createDate":"2012-01-03 02:42:01","updateDate":"2014-07-23 19:11:34","country":{"isoCode":"US","name":"UNITED STATES","displayName":"United States","isoThree":"USA","numberCode":840,"createDate":"2012-01-03 02:41:33"}},{"id":"irUeaM","name":"Main Brewery","streetAddress":"Dannevirkegade 22, 1. tv.","locality":"Copenhagen V","postalCode":"DK-1763","phone":"45-4162-3489","website":"http://www.mikkeller.dk/","latitude":55.6647648,"longitude":12.541426,"isPrimary":"Y","inPlanning":"N","isClosed":"N","openToPublic":"Y","locationType":"micro","locationTypeDisplay":"Micro Brewery","countryIsoCode":"DK","yearOpened":"2007","status":"verified","statusDisplay":"Verified","createDate":"2012-01-03 02:42:02","updateDate":"2014-07-23 19:11:34","country":{"isoCode":"DK","name":"DENMARK","displayName":"Denmark","isoThree":"DNK","numberCode":208,"createDate":"2012-01-03 02:41:33"}},{"id":"JrORvw","name":"Main Brewery","streetAddress":"1441 L Street","locality":"San Diego","region":"California","postalCode":"92101","phone":"619-628-0500","website":"http://www.missionbrewery.com/","latitude":32.7074347,"longitude":-117.1519306,"isPrimary":"Y","inPlanning":"N","isClosed":"N","openToPublic":"Y","locationType":"micro","locationTypeDisplay":"Micro Brewery","countryIsoCode":"US","yearOpened":"2007","status":"verified","statusDisplay":"Verified","createDate":"2012-01-03 02:42:02","updateDate":"2014-10-29 16:02:41","country":{"isoCode":"US","name":"UNITED STATES","displayName":"United States","isoThree":"USA","numberCode":840,"createDate":"2012-01-03 02:41:33"}},{"id":"dM7gjl","name":"Main Brewery","streetAddress":"4 Church Street","locality":"Mudgee","region":"New South Wales","postalCode":"2850","phone":"+61 2 6372 6726","website":"http://www.mudgeebrewing.com.au/","hoursOfOperation":"Mon - Tue: 8:00 am - 5:30 pm\r\nWed - Sun: 8:00 am - 12:00 am","latitude":-32.5902793,"longitude":149.588563,"isPrimary":"Y","inPlanning":"N","isClosed":"N","openToPublic":"Y","locationType":"micro","locationTypeDisplay":"Micro Brewery","countryIsoCode":"AU","yearOpened":"2007","status":"verified","statusDisplay":"Verified","createDate":"2014-03-03 23:15:53","updateDate":"2014-07-23 19:11:34","country":{"isoCode":"AU","name":"AUSTRALIA","displayName":"Australia","isoThree":"AUS","numberCode":36,"createDate":"2012-01-03 02:41:33"}},{"id":"hqzdKG","name":"Brewpub","streetAddress":"7474 Towne Center Parkway #101","locality":"Papillion","region":"Nebraska","postalCode":"68046","phone":"402-934-7100","website":"http://www.nebraskabrewingco.com/","hoursOfOperation":"Mon:  11:00am - 10:00pm\nTue:  11:00am - 10:00pm\nWed:  11:00am - 10:00pm\nThu:  11:00am - 10:00pm\nFri:  11:00am - 1:00am\nSat:  11:00am - 1:00am\nSun:  11:00am - 9:00pm\n\n","latitude":41.1369088,"longitude":-96.0294849,"isPrimary":"N","inPlanning":"N","isClosed":"N","openToPublic":"Y","locationType":"brewpub","locationTypeDisplay":"Brewpub","countryIsoCode":"US","yearOpened":"2007","status":"verified","statusDisplay":"Verified","createDate":"2012-01-03 02:42:03","updateDate":"2014-07-25 18:45:08","country":{"isoCode":"US","name":"UNITED STATES","displayName":"United States","isoThree":"USA","numberCode":840,"createDate":"2012-01-03 02:41:33"}},{"id":"bIGDNv","name":"Nebraska Brewing Company","streetAddress":"6950 South 108th Street","locality":"La Vista","region":"Nebraska","postalCode":"68128","phone":"402-934-0950","website":"http://www.nebraskabrewingco.com","latitude":41.188961,"longitude":-96.082033,"isPrimary":"Y","inPlanning":"N","isClosed":"N","openToPublic":"Y","locationType":"production","locationTypeDisplay":"Production Facility","countryIsoCode":"US","yearOpened":"2014","status":"verified","statusDisplay":"Verified","createDate":"2013-09-18 21:21:06","updateDate":"2014-07-25 18:39:53","country":{"isoCode":"US","name":"UNITED STATES","displayName":"United States","isoThree":"USA","numberCode":840,"createDate":"2012-01-03 02:41:33"}},{"id":"0ht406","name":"Main Brewery","streetAddress":"Oberförster-Hermann-Müller-Weg 6","locality":"Goslar-Hahnenklee","region":"Lower Saxony","postalCode":"38644","latitude":51.951186,"longitude":10.383834,"isPrimary":"N","inPlanning":"N","isClosed":"N","openToPublic":"Y","locationType":"micro","locationTypeDisplay":"Micro Brewery","countryIsoCode":"DE","status":"verified","statusDisplay":"Verified","createDate":"2012-08-12 14:47:53","updateDate":"2014-07-23 19:11:34","country":{"isoCode":"DE","name":"GERMANY","displayName":"Germany","isoThree":"DEU","numberCode":276,"createDate":"2012-01-03 02:41:33"}},{"id":"EQYWiA","name":"Plockton","streetAddress":"Bank Street","locality":"Plockton","postalCode":"IV52 8TP","website":"http://www.theplocktonbrewery.com/","latitude":57.3364263,"longitude":-5.6528875,"isPrimary":"Y","inPlanning":"N","isClosed":"N","openToPublic":"Y","locationType":"micro","locationTypeDisplay":"Micro Brewery","countryIsoCode":"GB","status":"verified","statusDisplay":"Verified","createDate":"2013-10-06 14:21:22","updateDate":"2014-07-23 19:11:34","country":{"isoCode":"GB","name":"UNITED KINGDOM","displayName":"United Kingdom","isoThree":"GBR","numberCode":826,"createDate":"2012-01-03 02:41:33"}},{"id":"sBUp7v","name":"Main Brewery","streetAddress":"10 Hoveys Rd,","locality":"Barongarook","region":"Victoria","postalCode":"3249","phone":"(+61 3) 52338515","website":"http://www.pricklymoses.com.au","latitude":-38.4442968,"longitude":143.5656539,"isPrimary":"Y","inPlanning":"N","isClosed":"N","openToPublic":"Y","locationType":"micro","locationTypeDisplay":"Micro Brewery","countryIsoCode":"AU","status":"verified","statusDisplay":"Verified","createDate":"2014-01-15 12:52:18","updateDate":"2014-07-23 19:11:34","country":{"isoCode":"AU","name":"AUSTRALIA","displayName":"Australia","isoThree":"AUS","numberCode":36,"createDate":"2012-01-03 02:41:33"}},{"id":"Ml1FV3","name":"Main Brewery","streetAddress":"Kamp 5","locality":"Wackersleben","region":"Sachsen-Anhalt","postalCode":"39393","latitude":52.06957,"longitude":11.021955,"isPrimary":"N","inPlanning":"N","isClosed":"N","openToPublic":"Y","locationType":"micro","locationTypeDisplay":"Micro Brewery","countryIsoCode":"DE","status":"verified","statusDisplay":"Verified","createDate":"2012-08-12 14:47:11","updateDate":"2014-07-23 19:11:34","country":{"isoCode":"DE","name":"GERMANY","displayName":"Germany","isoThree":"DEU","numberCode":276,"createDate":"2012-01-03 02:41:33"}},{"id":"i8AEK8","name":"Proof Brewing Co Pub & Bottle Shop","streetAddress":"1717 West Tennessee Street","locality":"Tallahassee","region":"Florida","postalCode":"32304","phone":"(850) 894-5638","website":"http://www.proofbrewingco.com","hoursOfOperation":"Pub:\r\n7 Days 5pm - 2am\r\n\r\nBottle Shop:\r\nSun - Thurs 12pm - 2am\r\nFri & Sat 11am - 2am","latitude":30.448702,"longitude":-84.310061,"isPrimary":"N","inPlanning":"N","isClosed":"N","openToPublic":"Y","locationType":"brewpub","locationTypeDisplay":"Brewpub","countryIsoCode":"US","status":"verified","statusDisplay":"Verified","createDate":"2014-02-20 21:07:18","updateDate":"2014-07-23 19:11:34","country":{"isoCode":"US","name":"UNITED STATES","displayName":"United States","isoThree":"USA","numberCode":840,"createDate":"2012-01-03 02:41:33"}},{"id":"KRt2TZ","name":"Proof Brewing Co","streetAddress":"644 McDonnell Drive","locality":"Tallahassee","region":"Florida","postalCode":"32310","phone":"(850) 894-5638","website":"http://www.proofbrewingco.com","latitude":30.432835,"longitude":-84.292911,"isPrimary":"Y","inPlanning":"Y","isClosed":"N","openToPublic":"N","locationType":"production","locationTypeDisplay":"Production Facility","countryIsoCode":"US","yearOpened":"2014","status":"verified","statusDisplay":"Verified","createDate":"2014-02-20 21:09:21","updateDate":"2014-07-23 19:11:34","country":{"isoCode":"US","name":"UNITED STATES","displayName":"United States","isoThree":"USA","numberCode":840,"createDate":"2012-01-03 02:41:33"}},{"id":"CsQLk5","name":"Main Brewery","streetAddress":"124 West Broadway","locality":"Butte","region":"Montana","postalCode":"59701","phone":"406-723-0245","website":"http://www.wedigbeer.com/","hoursOfOperation":"Monday - Saturday: 1:00 - 8:00 p.m.\r\n\r\nSunday: 1:00 - 6:00 p.m.","latitude":46.013472,"longitude":-112.538404,"isPrimary":"Y","inPlanning":"N","isClosed":"N","openToPublic":"Y","locationType":"micro","locationTypeDisplay":"Micro Brewery","countryIsoCode":"US","yearOpened":"2007","status":"verified","statusDisplay":"Verified","createDate":"2012-01-03 02:42:06","updateDate":"2014-07-23 19:11:34","country":{"isoCode":"US","name":"UNITED STATES","displayName":"United States","isoThree":"USA","numberCode":840,"createDate":"2012-01-03 02:41:33"}},{"id":"lEg7Tx","name":"Main Brewery","streetAddress":"225 East 16th Street","locality":"Traverse City","region":"Michigan","postalCode":"49684","phone":"231-944-1239","website":"http://www.rightbrainbrewery.com/","hoursOfOperation":"Mon - Wed: 12:00 pm - 12:00 am\r\nThurs - Sat: 11:00 am - 1:00 am\r\nSun: 12:00 pm - 10:00 pm","latitude":44.749331,"longitude":-85.620418,"isPrimary":"Y","inPlanning":"N","isClosed":"N","openToPublic":"Y","locationType":"brewpub","locationTypeDisplay":"Brewpub","countryIsoCode":"US","status":"verified","statusDisplay":"Verified","createDate":"2012-01-03 02:42:07","updateDate":"2014-07-23 19:11:34","country":{"isoCode":"US","name":"UNITED STATES","displayName":"United States","isoThree":"USA","numberCode":840,"createDate":"2012-01-03 02:41:33"}},{"id":"edZ3Sg","name":"Main Brewery","streetAddress":"8 S. San Marcos Place","locality":"Chandler","region":"Arizona","postalCode":"85225","phone":"480-917-8700","website":"http://www.santanbrewing.com/","latitude":33.303233,"longitude":-111.842532,"isPrimary":"Y","inPlanning":"N","isClosed":"N","openToPublic":"Y","locationType":"brewpub","locationTypeDisplay":"Brewpub","countryIsoCode":"US","yearOpened":"2007","status":"verified","statusDisplay":"Verified","createDate":"2012-01-03 02:42:07","updateDate":"2014-10-29 16:03:27","country":{"isoCode":"US","name":"UNITED STATES","displayName":"United States","isoThree":"USA","numberCode":840,"createDate":"2012-01-03 02:41:33"}},{"id":"GxHrc7","name":"Main Brewery","streetAddress":"50 Slicers Avenue","locality":"Sapphire","region":"North Carolina","postalCode":"28774","phone":"828-743-0220","website":"http://www.sapphiremountainbrewingcompany.com/","latitude":35.116492,"longitude":-83.017791,"isPrimary":"Y","inPlanning":"N","isClosed":"N","openToPublic":"Y","locationType":"restaurant","locationTypeDisplay":"Restaurant/Ale House","countryIsoCode":"US","yearOpened":"2007","status":"verified","statusDisplay":"Verified","createDate":"2012-01-03 02:42:07","updateDate":"2014-07-23 19:11:34","country":{"isoCode":"US","name":"UNITED STATES","displayName":"United States","isoThree":"USA","numberCode":840,"createDate":"2012-01-03 02:41:33"}},{"id":"Fq6PBJ","name":"Main Brewery","streetAddress":"980 Terrys Creek Rd","region":"Port Williams","postalCode":"NSB0P1T0","phone":"19025425544","hoursOfOperation":"Mon:  10:00am - 6:00pm\nTue:  10:00am - 6:00pm\nWed:  10:00am - 6:00pm\nThu:  10:00am - 6:00pm\nFri:  10:00am - 6:00pm\nSat:  10:00am - 5:00pm\nSun:  12:00pm - 5:00pm\n\n","latitude":45.0963119,"longitude":-64.4071833,"isPrimary":"Y","inPlanning":"N","isClosed":"N","openToPublic":"Y","locationType":"micro","locationTypeDisplay":"Micro Brewery","countryIsoCode":"CA","status":"verified","statusDisplay":"Verified","createDate":"2014-10-09 14:58:24","updateDate":"2014-10-09 14:58:24","country":{"isoCode":"CA","name":"CANADA","displayName":"Canada","isoThree":"CAN","numberCode":124,"createDate":"2012-01-03 02:41:33"}},{"id":"SdHg0o","name":"Siboire","streetAddress":"80, rue du Dépôt","locality":"Sherbrooke","region":"Québec","postalCode":"j1h5g1","phone":"1-819-565-3636","website":"http://www.siboire.ca/","latitude":45.3986115,"longitude":-71.8878305,"isPrimary":"Y","inPlanning":"N","isClosed":"N","openToPublic":"Y","locationType":"brewpub","locationTypeDisplay":"Brewpub","countryIsoCode":"CA","status":"verified","statusDisplay":"Verified","createDate":"2013-07-05 14:34:00","updateDate":"2014-07-23 19:11:34","country":{"isoCode":"CA","name":"CANADA","displayName":"Canada","isoThree":"CAN","numberCode":124,"createDate":"2012-01-03 02:41:33"}},{"id":"3yB4hK","name":"Main Brewery","streetAddress":"Fischergasse 6","region":"Bautzen","postalCode":"02625","latitude":51.179994,"longitude":14.421181,"isPrimary":"Y","inPlanning":"N","isClosed":"N","openToPublic":"Y","locationType":"micro","locationTypeDisplay":"Micro Brewery","countryIsoCode":"DE","status":"verified","statusDisplay":"Verified","createDate":"2012-08-15 17:47:18","updateDate":"2014-07-23 19:11:34","country":{"isoCode":"DE","name":"GERMANY","displayName":"Germany","isoThree":"DEU","numberCode":276,"createDate":"2012-01-03 02:41:33"}},{"id":"9qvHxn","name":"Main Brewery","streetAddress":"434 Sharkathmi Ave","locality":"Soldotna","region":"Alaska","postalCode":"99669","phone":"907-260-7837","website":"http://www.steliasbrewingco.com/","hoursOfOperation":"SUMMER HOURS:\r\nSunday – Thursday 12pm-10pm\r\nFriday & Saturday 12pm-11pm","latitude":60.4930996,"longitude":-151.0404641,"isPrimary":"Y","inPlanning":"N","isClosed":"N","openToPublic":"Y","locationType":"micro","locationTypeDisplay":"Micro Brewery","countryIsoCode":"US","status":"verified","statusDisplay":"Verified","createDate":"2012-01-03 02:42:09","updateDate":"2014-07-23 19:11:34","country":{"isoCode":"US","name":"UNITED STATES","displayName":"United States","isoThree":"USA","numberCode":840,"createDate":"2012-01-03 02:41:33"}},{"id":"XqWTM7","name":"TailGate Beer","locality":"San Diego","region":"California","phone":"858-215-4842","website":"http://www.tailgatebeer.com","latitude":32.7153292,"longitude":-117.1572551,"isPrimary":"Y","inPlanning":"N","isClosed":"N","openToPublic":"N","locationType":"micro","locationTypeDisplay":"Micro Brewery","countryIsoCode":"US","yearOpened":"2007","status":"verified","statusDisplay":"Verified","createDate":"2012-01-03 02:42:09","updateDate":"2014-07-23 19:11:34","country":{"isoCode":"US","name":"UNITED STATES","displayName":"United States","isoThree":"USA","numberCode":840,"createDate":"2012-01-03 02:41:33"}},{"id":"mTy5ez","name":"Main Brewery","streetAddress":"8845 Quail Lane","extendedAddress":"# 1","locality":"Manhattan","region":"Kansas","postalCode":"66502","phone":"785-537-1131","hoursOfOperation":"Monday - Friday: 11am - 5pm\r\nTours Saturday","latitude":39.197474,"longitude":-96.509281,"isPrimary":"Y","inPlanning":"N","isClosed":"N","openToPublic":"Y","locationType":"micro","locationTypeDisplay":"Micro Brewery","countryIsoCode":"US","yearOpened":"2007","status":"verified","statusDisplay":"Verified","createDate":"2012-01-03 02:42:09","updateDate":"2014-07-23 19:11:34","country":{"isoCode":"US","name":"UNITED STATES","displayName":"United States","isoThree":"USA","numberCode":840,"createDate":"2012-01-03 02:41:33"}},{"id":"4sTRXQ","name":"Main Brewery","streetAddress":"Unit 2E Pontygwindy Rd","region":"Caerphilly","postalCode":"CF83 3HU","phone":"+44 29 2086 7707","website":"http://www.theceltexperience.co.uk/","hoursOfOperation":"Mon - Fri: 7:00 am - 6:00 pm","latitude":51.5891051,"longitude":-3.2272924,"isPrimary":"Y","inPlanning":"N","isClosed":"N","openToPublic":"Y","locationType":"micro","locationTypeDisplay":"Micro Brewery","countryIsoCode":"GB","yearOpened":"2007","status":"verified","statusDisplay":"Verified","createDate":"2013-11-12 12:46:39","updateDate":"2014-07-23 19:11:34","country":{"isoCode":"GB","name":"UNITED KINGDOM","displayName":"United Kingdom","isoThree":"GBR","numberCode":826,"createDate":"2012-01-03 02:41:33"}},{"id":"Cunzp1","name":"Main Brewery","streetAddress":"1/58 Uralla Road","region":"Port Macquarie","postalCode":"NSW 2444","phone":"(02) 6581 3949","website":"http://www.thelittlebrewingcompany.com.au/","latitude":-31.4560051,"longitude":152.8828256,"isPrimary":"Y","inPlanning":"N","isClosed":"N","openToPublic":"Y","locationType":"micro","locationTypeDisplay":"Micro Brewery","countryIsoCode":"AU","status":"verified","statusDisplay":"Verified","createDate":"2013-12-29 23:52:28","updateDate":"2014-07-23 19:11:34","country":{"isoCode":"AU","name":"AUSTRALIA","displayName":"Australia","isoThree":"AUS","numberCode":36,"createDate":"2012-01-03 02:41:33"}},{"id":"mI2ZZh","name":"Main Brewery","streetAddress":"3020 N. Water Street","locality":"Bay City","region":"Michigan","postalCode":"48708","phone":"989-894-4950","website":"http://tricitybrewing.com/","latitude":43.608177,"longitude":-83.866711,"isPrimary":"Y","inPlanning":"N","isClosed":"N","openToPublic":"Y","locationType":"micro","locationTypeDisplay":"Micro Brewery","countryIsoCode":"US","yearOpened":"2007","status":"verified","statusDisplay":"Verified","createDate":"2012-01-03 02:42:10","updateDate":"2014-07-23 19:11:34","country":{"isoCode":"US","name":"UNITED STATES","displayName":"United States","isoThree":"USA","numberCode":840,"createDate":"2012-01-03 02:41:33"}},{"id":"OblNj8","name":"Main Brewery","streetAddress":"918 Pearl Street","locality":"Durham","region":"North Carolina","postalCode":"27701","phone":"919-683-2337","website":"http://www.trianglebrewery.com","hoursOfOperation":"Tours every Saturday 1pm to 2:30pm","latitude":35.996523,"longitude":-78.889416,"isPrimary":"Y","inPlanning":"N","isClosed":"N","openToPublic":"Y","locationType":"micro","locationTypeDisplay":"Micro Brewery","countryIsoCode":"US","yearOpened":"2008","status":"verified","statusDisplay":"Verified","createDate":"2012-01-03 02:42:10","updateDate":"2014-07-23 19:11:34","country":{"isoCode":"US","name":"UNITED STATES","displayName":"United States","isoThree":"USA","numberCode":840,"createDate":"2012-01-03 02:41:33"}},{"id":"7KfjoY","name":"Main Brewery","streetAddress":"4700 Ohio Avenue South","extendedAddress":"Unit A","locality":"Seattle","region":"Washington","postalCode":"98134","phone":"206-762-0490","website":"http://www.twobeersbrewery.com/","latitude":47.560571,"longitude":-122.338128,"isPrimary":"Y","inPlanning":"N","isClosed":"N","openToPublic":"Y","locationType":"micro","locationTypeDisplay":"Micro Brewery","countryIsoCode":"US","yearOpened":"2007","status":"verified","statusDisplay":"Verified","createDate":"2012-01-03 02:42:11","updateDate":"2014-07-23 19:11:34","country":{"isoCode":"US","name":"UNITED STATES","displayName":"United States","isoThree":"USA","numberCode":840,"createDate":"2012-01-03 02:41:33"}},{"id":"O6Vs65","name":"Main Brewery","streetAddress":"1530 Barton Springs Road","locality":"Austin","region":"Texas","postalCode":"78704","phone":"512-476-0100","website":"http://www.unclebillysaustin.com/","latitude":30.2620755,"longitude":-97.761331,"isPrimary":"Y","inPlanning":"N","isClosed":"N","openToPublic":"Y","locationType":"micro","locationTypeDisplay":"Micro Brewery","countryIsoCode":"US","status":"verified","statusDisplay":"Verified","createDate":"2012-01-03 02:42:11","updateDate":"2014-07-23 19:11:34","country":{"isoCode":"US","name":"UNITED STATES","displayName":"United States","isoThree":"USA","numberCode":840,"createDate":"2012-01-03 02:41:33"}},{"id":"MOpp7e","name":"Lake Travis","streetAddress":"6550 Comanche Trail","extendedAddress":"Suite 201","locality":"Austin","region":"Texas","postalCode":"78732","phone":"512-266-0111","website":"http://www.unclebillysaustin.com/","latitude":30.4058986,"longitude":-97.8739516,"isPrimary":"N","inPlanning":"N","isClosed":"Y","openToPublic":"N","locationType":"micro","locationTypeDisplay":"Micro Brewery","countryIsoCode":"US","status":"verified","statusDisplay":"Verified","createDate":"2012-01-03 02:42:16","updateDate":"2014-09-26 14:10:30","country":{"isoCode":"US","name":"UNITED STATES","displayName":"United States","isoThree":"USA","numberCode":840,"createDate":"2012-01-03 02:41:33"}},{"id":"lFrwWQ","name":"Main Brewery","streetAddress":"Perricher Weg 54c","locality":"Wesel-Büderich","region":"Nordrhein-Westfalen","postalCode":"D-46487","latitude":51.681115,"longitude":6.56955,"isPrimary":"N","inPlanning":"N","isClosed":"N","openToPublic":"Y","locationType":"micro","locationTypeDisplay":"Micro Brewery","countryIsoCode":"DE","status":"verified","statusDisplay":"Verified","createDate":"2012-08-12 14:47:32","updateDate":"2014-07-23 19:11:34","country":{"isoCode":"DE","name":"GERMANY","displayName":"Germany","isoThree":"DEU","numberCode":276,"createDate":"2012-01-03 02:41:33"}},{"id":"Oa5lvx","name":"Main Brewery","streetAddress":"Pirmasenserstraße 102","locality":"Contwig","region":"Rheinland-Pfalz","postalCode":"D-66497","latitude":49.24825,"longitude":7.428935,"isPrimary":"N","inPlanning":"N","isClosed":"N","openToPublic":"Y","locationType":"micro","locationTypeDisplay":"Micro Brewery","countryIsoCode":"DE","status":"verified","statusDisplay":"Verified","createDate":"2012-08-12 14:46:24","updateDate":"2014-07-23 19:11:34","country":{"isoCode":"DE","name":"GERMANY","displayName":"Germany","isoThree":"DEU","numberCode":276,"createDate":"2012-01-03 02:41:33"}},{"id":"OShITU","name":"Main Brewery","streetAddress":"22235 Pontiac Trail","locality":"South Lyon","region":"Michigan","postalCode":"48178","phone":"248-486-2595","website":"http://witchshatbrewing.com/","hoursOfOperation":"Mon-Thur 3-11\r\nFri-Sat 2-12\r\nSun 2-8","latitude":42.444618,"longitude":-83.650261,"isPrimary":"Y","inPlanning":"N","isClosed":"N","openToPublic":"Y","locationType":"micro","locationTypeDisplay":"Micro Brewery","countryIsoCode":"US","status":"verified","statusDisplay":"Verified","createDate":"2012-07-11 18:05:57","updateDate":"2014-07-23 19:11:34","country":{"isoCode":"US","name":"UNITED STATES","displayName":"United States","isoThree":"USA","numberCode":840,"createDate":"2012-01-03 02:41:33"}},{"id":"Z5oRX9","name":"Main Brewery","streetAddress":"826 Central Ave","locality":"Northwood","region":"Iowa","postalCode":"50459","phone":"641-324-4991","website":"http://www.worthbrewing.com/","hoursOfOperation":"Tap Room Hours: \r\nWed: 5 to 9 p.m.\r\nFri: 5 to 11 p.m.\r\nSat: noon to 11 p.m.","latitude":43.444055,"longitude":-93.220486,"isPrimary":"Y","inPlanning":"N","isClosed":"N","openToPublic":"Y","locationType":"micro","locationTypeDisplay":"Micro Brewery","countryIsoCode":"US","yearOpened":"2007","status":"verified","statusDisplay":"Verified","createDate":"2012-01-03 02:42:13","updateDate":"2014-07-23 19:11:34","country":{"isoCode":"US","name":"UNITED STATES","displayName":"United States","isoThree":"USA","numberCode":840,"createDate":"2012-01-03 02:41:33"}}]