[{"id":"qxAQSJ","name":"Main Brewery","streetAddress":"407 Radam","extendedAddress":"F200","locality":"Austin","region":"Texas","postalCode":"78745","phone":"512-707-2337","website":"http://www.512brewing.com/","latitude":30.2234,"longitude":-97.769736,"isPrimary":"Y","inPlanning":"N","isClosed":"N","openToPublic":"Y","locationType":"micro","locationTypeDisplay":"Micro Brewery","countryIsoCode":"US","yearOpened":"2008","status":"verified","statusDisplay":"Verified","createDate":"2012-01-03 02:41:43","updateDate":"2014-07-23 19:38:12","country":{"isoCode":"US","name":"UNITED STATES","displayName":"United States","isoThree":"USA","numberCode":840,"createDate":"2012-01-03 02:41:33"}},{"id":"jyuMYD","name":"Main Brewery","streetAddress":"29/43-45 East Esplanade Manly","region":"New South Wales","postalCode":"2095","phone":"+61 2 9976 2300","website":"http://www.4pinesbeer.com.au/","hoursOfOperation":"Mon:  11:00am - 12:00am\nTue:  11:00am - 12:00am\nWed:  11:00am - 12:00am\nThu:  11:00am - 12:00am\nFri:  11:00am - 12:00am\nSat:  11:00am - 12:00am\nSun:  11:00am - 12:00am\n\n","latitude":-33.799478,"longitude":151.285436,"isPrimary":"Y","inPlanning":"N","isClosed":"N","openToPublic":"Y","locationType":"micro","locationTypeDisplay":"Micro Brewery","countryIsoCode":"AU","status":"verified","statusDisplay":"Verified","createDate":"2012-12-29 14:03:47","updateDate":"2014-07-23 19:38:29","country":{"isoCode":"AU","name":"AUSTRALIA","displayName":"Australia","isoThree":"AUS","numberCode":36,"createDate":"2012-01-03 02:41:33"}},{"id":"aztnLa","name":"Main Location","streetAddress":"3006 Judson St Ste 110","locality":"Gig Harbor","region":"Washington","postalCode":"98335-1226","phone":"253-514-8129","website":"http://www.7seasbrewing.com/","hoursOfOperation":"Wed:  3:00pm - 9:00pm\nThu:  3:00pm - 9:00pm\nFri:  3:00pm - 9:00pm\nSat:  2:00pm - 8:00pm\nSun:  2:00pm - 8:00pm\n\n","latitude":47.3272977,"longitude":-122.5795175,"isPrimary":"Y","inPlanning":"N","isClosed":"N","openToPublic":"Y","locationType":"micro","locationTypeDisplay":"Micro Brewery","countryIsoCode":"US","yearOpened":"2008","status":"verified","statusDisplay":"Verified","createDate":"2012-01-03 02:41:43","updateDate":"2014-11-18 19:30:42","country":{"isoCode":"US","name":"UNITED STATES","displayName":"United States","isoThree":"USA","numberCode":840,"createDate":"2012-01-03 02:41:33"}},{"id":"OcxClb","name":"Main Brewery","streetAddress":"342 Carson Creek Rd.","locality":"Carson","region":"Washington","postalCode":"98610","phone":"509.427.4297","website":"http://www.acadianorganics.com/","hoursOfOperation":"Thu:  4:00pm - 7:00pm\nFri:  4:00pm - 7:00pm\nSat:  1:00pm - 7:00pm\nSun:  1:00pm - 7:00pm\n\n","latitude":45.7252544,"longitude":-121.8205813,"isPrimary":"Y","inPlanning":"N","isClosed":"N","openToPublic":"Y","locationType":"nano","locationTypeDisplay":"Nano Brewery","countryIsoCode":"US","yearOpened":"2008","status":"verified","statusDisplay":"Verified","createDate":"2012-10-23 12:27:54","updateDate":"2014-07-23 19:38:51","country":{"isoCode":"US","name":"UNITED STATES","displayName":"United States","isoThree":"USA","numberCode":840,"createDate":"2012-01-03 02:41:33"}},{"id":"QdFD02","name":"Main Brewery","streetAddress":"8385 Miramar Mall","extendedAddress":"#206","locality":"San Diego","region":"California","postalCode":"92121","phone":"619-822-1612","website":"http://www.airdalebrewing.com/","latitude":32.878973,"longitude":-117.182816,"isPrimary":"Y","inPlanning":"N","isClosed":"Y","openToPublic":"Y","locationType":"micro","locationTypeDisplay":"Micro Brewery","countryIsoCode":"US","yearOpened":"2008","status":"verified","statusDisplay":"Verified","createDate":"2012-01-03 02:41:43","updateDate":"2014-07-23 19:11:34","country":{"isoCode":"US","name":"UNITED STATES","displayName":"United States","isoThree":"USA","numberCode":840,"createDate":"2012-01-03 02:41:33"}},{"id":"saJQnv","name":"Main Brewery","streetAddress":"1060 NE 25th Ave‎","extendedAddress":"Suite B","locality":"Hillsboro","region":"Oregon","postalCode":"97124","phone":"503-828-1400","website":"http://www.ambacht.us/","hoursOfOperation":"Open daily from Tuesday until Friday from 4 until 8 pm. Saturday and Sunday we will be at Farmers' Markets.","isPrimary":"Y","inPlanning":"N","isClosed":"N","openToPublic":"Y","locationType":"micro","locationTypeDisplay":"Micro Brewery","countryIsoCode":"US","yearOpened":"2008","status":"verified","statusDisplay":"Verified","createDate":"2012-01-03 02:41:44","updateDate":"2014-09-29 20:33:26","country":{"isoCode":"US","name":"UNITED STATES","displayName":"United States","isoThree":"USA","numberCode":840,"createDate":"2012-01-03 02:41:33"}},{"id":"rjaX5E","name":"Main Brewery","streetAddress":"Andwell","locality":"Hook","region":"Hampshire","postalCode":"RG27 9PA","phone":"01256 761044","website":"http://www.andwells.com/","latitude":51.268524,"longitude":-1.013585,"isPrimary":"Y","inPlanning":"N","isClosed":"N","openToPublic":"Y","locationType":"micro","locationTypeDisplay":"Micro Brewery","countryIsoCode":"GB","status":"verified","statusDisplay":"Verified","createDate":"2012-07-12 13:02:18","updateDate":"2014-07-23 19:11:34","country":{"isoCode":"GB","name":"UNITED KINGDOM","displayName":"United Kingdom","isoThree":"GBR","numberCode":826,"createDate":"2012-01-03 02:41:33"}},{"id":"KXNebo","name":"Main Brewery","streetAddress":"215 E Bremer Ave","locality":"Waverly","region":"Iowa","postalCode":"50677","phone":"319-961-8162","website":"http://www.angrycedar.com/","latitude":42.726121,"longitude":-92.467369,"isPrimary":"Y","inPlanning":"N","isClosed":"N","openToPublic":"Y","locationType":"micro","locationTypeDisplay":"Micro Brewery","countryIsoCode":"US","yearOpened":"2008","status":"verified","statusDisplay":"Verified","createDate":"2012-01-03 02:41:44","updateDate":"2014-07-23 19:11:34","country":{"isoCode":"US","name":"UNITED STATES","displayName":"United States","isoThree":"USA","numberCode":840,"createDate":"2012-01-03 02:41:33"}},{"id":"vXHRxO","name":"Main Brewery","streetAddress":"304 East Hopkins Avenue","locality":"Aspen","postalCode":"81611","phone":"970-920-2739","website":"http://aspenbrewingcompany.com/","latitude":39.190334,"longitude":-106.820307,"isPrimary":"Y","inPlanning":"N","isClosed":"N","openToPublic":"Y","locationType":"micro","locationTypeDisplay":"Micro Brewery","countryIsoCode":"US","status":"verified","statusDisplay":"Verified","createDate":"2012-01-03 02:41:44","updateDate":"2014-07-23 19:11:34","country":{"isoCode":"US","name":"UNITED STATES","displayName":"United States","isoThree":"USA","numberCode":840,"createDate":"2012-01-03 02:41:33"}},{"id":"3GI0hE","name":"Main Brewery","streetAddress":"209 Technology Park Lane","locality":"Fuquay-Varina","region":"North Carolina","postalCode":"27526","phone":"919-567-2337","website":"http://www.aviatorbrew.com/","hoursOfOperation":"Thursday & Friday – We open the doors at 5pm, single tour at 6pm and close at 8pm. Note there is only one tour at 6pm.\r\n\r\nSaturday – We open the doors at 3pm, and do tours from 4pm-6pm and close at 8pm.  No tours after 6pm.","latitude":35.619701,"longitude":-78.808539,"isPrimary":"Y","inPlanning":"N","isClosed":"N","openToPublic":"Y","locationType":"micro","locationTypeDisplay":"Micro Brewery","countryIsoCode":"US","yearOpened":"2008","status":"verified","statusDisplay":"Verified","createDate":"2012-01-03 02:41:44","updateDate":"2014-09-29 20:33:37","country":{"isoCode":"US","name":"UNITED STATES","displayName":"United States","isoThree":"USA","numberCode":840,"createDate":"2012-01-03 02:41:33"}},{"id":"FUOlYc","name":"Tap House","streetAddress":"600 E. Broad St.","locality":"Fuquay-Varina","region":"North Carolina","postalCode":"27526","phone":"919.552.8826","website":"http://www.aviatorbrew.com/","hoursOfOperation":"Mon:  12:00pm - 12:00am\nTue:  12:00pm - 12:00am\nWed:  12:00pm - 12:00am\nThu:  12:00pm - 12:00am\nFri:  12:00pm - 1:00am\nSat:  12:00pm - 1:00am\nSun:  12:00pm - 12:00am\n\nMon-Thur Noon-12am; \r\nFri,Sat Noon-1am; \r\nSun Noon-12am","latitude":35.5929549,"longitude":-78.7940578,"isPrimary":"N","inPlanning":"N","isClosed":"N","openToPublic":"Y","locationType":"tasting","locationTypeDisplay":"Tasting Room","countryIsoCode":"US","yearOpened":"2008","status":"verified","statusDisplay":"Verified","createDate":"2012-01-10 02:53:49","updateDate":"2014-09-29 20:33:38","country":{"isoCode":"US","name":"UNITED STATES","displayName":"United States","isoThree":"USA","numberCode":840,"createDate":"2012-01-03 02:41:33"}},{"id":"ro7Zi3","name":"SmokeHouse Restaurant","streetAddress":"525 E. Broad St","locality":"Fuquay-Varina","region":"North Carolina","postalCode":"27526","phone":"(919) 557-7675","website":"http://www.aviatorbrew.com/","hoursOfOperation":"Mon:  11:30am - 10:00pm\nTue:  11:30am - 10:00pm\nWed:  11:30am - 10:00pm\nThu:  11:30am - 10:00pm\nFri:  11:30am - 10:00pm\nSat:  11:30am - 11:00pm\nSun:  12:00pm - 9:00pm\n\nMon-Fri 11:30am-10pm\r\nSat 11:30am-11pm\r\nSun Noon-9pm","latitude":35.5923185,"longitude":-78.7843771,"isPrimary":"N","inPlanning":"N","isClosed":"N","openToPublic":"Y","locationType":"restaurant","locationTypeDisplay":"Restaurant/Ale House","countryIsoCode":"US","yearOpened":"2008","status":"verified","statusDisplay":"Verified","createDate":"2012-01-10 02:55:07","updateDate":"2014-09-29 20:33:39","country":{"isoCode":"US","name":"UNITED STATES","displayName":"United States","isoThree":"USA","numberCode":840,"createDate":"2012-01-03 02:41:33"}},{"id":"Htjd06","name":"Main Brewery","streetAddress":"2330 La Mirada Drive","extendedAddress":"Suite 300","locality":"Vista","region":"California","postalCode":"92081","phone":"(760) 598-7720","website":"http://www.aztecbrewery.com/","hoursOfOperation":"Wed:  4:00pm - 8:00pm\nThu:  4:00pm - 9:00pm\nFri:  4:00pm - 9:00pm\nSat:  1:00pm - 9:00pm\nSun:  1:00pm - 7:00pm\n\nWed: 4:00 pm - 8:00 pm\r\nThu - Fri: 4:00 pm - 9:00 pm\r\nSat: 1:00 pm - 9:00 pm\r\nSun: 1:00 pm - 7:00 pm","latitude":33.1497682,"longitude":-117.2299038,"isPrimary":"Y","inPlanning":"N","isClosed":"N","openToPublic":"Y","locationType":"micro","locationTypeDisplay":"Micro Brewery","countryIsoCode":"US","yearOpened":"2008","status":"verified","statusDisplay":"Verified","createDate":"2012-01-03 02:41:44","updateDate":"2014-09-29 20:33:40","country":{"isoCode":"US","name":"UNITED STATES","displayName":"United States","isoThree":"USA","numberCode":840,"createDate":"2012-01-03 02:41:33"}},{"id":"jqnqnz","name":"Main Brewery","locality":"Hendricks","region":"Minnesota","postalCode":"56136","website":"http://www.beerforwildlife.com/","latitude":44.506575,"longitude":-96.424299,"isPrimary":"Y","inPlanning":"N","isClosed":"N","openToPublic":"Y","locationType":"micro","locationTypeDisplay":"Micro Brewery","countryIsoCode":"US","status":"verified","statusDisplay":"Verified","createDate":"2012-01-03 02:41:45","updateDate":"2014-07-23 19:11:34","country":{"isoCode":"US","name":"UNITED STATES","displayName":"United States","isoThree":"USA","numberCode":840,"createDate":"2012-01-03 02:41:33"}},{"id":"HOU7N3","name":"Main Brewery","streetAddress":"9617 Pike 9037","locality":"Bowling Green","region":"Missouri","postalCode":"63334","phone":"573-795-9828","website":"http://www.batcreekbrewery.com/","latitude":39.3901731,"longitude":-91.2996708,"isPrimary":"Y","inPlanning":"N","isClosed":"N","openToPublic":"Y","locationType":"micro","locationTypeDisplay":"Micro Brewery","countryIsoCode":"US","yearOpened":"2008","status":"verified","statusDisplay":"Verified","createDate":"2012-01-03 02:41:45","updateDate":"2014-07-23 19:11:34","country":{"isoCode":"US","name":"UNITED STATES","displayName":"United States","isoThree":"USA","numberCode":840,"createDate":"2012-01-03 02:41:33"}},{"id":"LfH9KN","name":"Main Brewery","streetAddress":"104 Orgain","extendedAddress":"PO Box 196","locality":"Wibaux","region":"Montana","postalCode":"59353","phone":"406-795-2337","website":"http://www.beavercreekbrewery.com/","latitude":46.947407,"longitude":-104.201059,"isPrimary":"Y","inPlanning":"N","isClosed":"N","openToPublic":"Y","locationType":"micro","locationTypeDisplay":"Micro Brewery","countryIsoCode":"US","yearOpened":"2008","status":"verified","statusDisplay":"Verified","createDate":"2012-01-03 02:41:45","updateDate":"2014-07-23 19:11:34","country":{"isoCode":"US","name":"UNITED STATES","displayName":"United States","isoThree":"USA","numberCode":840,"createDate":"2012-01-03 02:41:33"}},{"id":"EOAsdE","name":"Main Brewery","streetAddress":"328 West Front Street","locality":"Berwick","region":"Pennsylvania","postalCode":"18603","phone":"570-709-1056","website":"http://berwickbrewing.com/","latitude":41.052789,"longitude":-76.237608,"isPrimary":"Y","inPlanning":"N","isClosed":"N","openToPublic":"Y","locationType":"micro","locationTypeDisplay":"Micro Brewery","countryIsoCode":"US","status":"verified","statusDisplay":"Verified","createDate":"2012-01-03 02:42:04","updateDate":"2014-07-23 19:11:34","country":{"isoCode":"US","name":"UNITED STATES","displayName":"United States","isoThree":"USA","numberCode":840,"createDate":"2012-01-03 02:41:33"}},{"id":"nYWMnC","name":"Main Brewery","streetAddress":"5205 South Second Ave.","locality":"Everett","region":"Washington","postalCode":"98203","phone":"(206) 380-1768","website":"http://www.betabrewing.com/","latitude":47.949936,"longitude":-122.194356,"isPrimary":"Y","inPlanning":"N","isClosed":"N","openToPublic":"Y","locationType":"micro","locationTypeDisplay":"Micro Brewery","countryIsoCode":"US","status":"verified","statusDisplay":"Verified","createDate":"2013-04-28 18:46:47","updateDate":"2014-07-23 19:11:34","country":{"isoCode":"US","name":"UNITED STATES","displayName":"United States","isoThree":"USA","numberCode":840,"createDate":"2012-01-03 02:41:33"}},{"id":"mIWMKP","name":"Main Brewery","streetAddress":"9832 14th Ave SW","locality":"Seattle","region":"Washington","postalCode":"98106","phone":"206-453-8915","website":"http://www.bigalbrewing.com/","latitude":47.514331,"longitude":-122.352784,"isPrimary":"Y","inPlanning":"N","isClosed":"N","openToPublic":"Y","locationType":"micro","locationTypeDisplay":"Micro Brewery","countryIsoCode":"US","yearOpened":"2008","status":"verified","statusDisplay":"Verified","createDate":"2012-01-03 02:41:46","updateDate":"2014-07-23 19:11:34","country":{"isoCode":"US","name":"UNITED STATES","displayName":"United States","isoThree":"USA","numberCode":840,"createDate":"2012-01-03 02:41:33"}},{"id":"sch4sr","name":"Main Brewpub","streetAddress":"2229 Colonial Ave SW","locality":"Roanoke","region":"Virginia","postalCode":"24015","phone":"540-777-0007","hoursOfOperation":"Mon - Fri:\t11:00 am - 5:00 pm","latitude":37.254684,"longitude":-79.956178,"isPrimary":"Y","inPlanning":"N","isClosed":"N","openToPublic":"Y","locationType":"brewpub","locationTypeDisplay":"Brewpub","countryIsoCode":"US","yearOpened":"2008","status":"verified","statusDisplay":"Verified","createDate":"2012-02-01 18:19:41","updateDate":"2014-07-23 19:11:34","country":{"isoCode":"US","name":"UNITED STATES","displayName":"United States","isoThree":"USA","numberCode":840,"createDate":"2012-01-03 02:41:33"}},{"id":"GClcJQ","name":"Main Brewery","streetAddress":"via San Michele Campagna 22C","locality":"43036 Fidenza","region":"Province of Parma","phone":"0524.533289","website":"http://www.birratoccalmatto.it/","latitude":44.866279,"longitude":10.0615953,"isPrimary":"Y","inPlanning":"N","isClosed":"N","openToPublic":"Y","locationType":"micro","locationTypeDisplay":"Micro Brewery","countryIsoCode":"IT","status":"verified","statusDisplay":"Verified","createDate":"2013-01-21 20:23:21","updateDate":"2014-07-23 19:11:34","country":{"isoCode":"IT","name":"ITALY","displayName":"Italy","isoThree":"ITA","numberCode":380,"createDate":"2012-01-03 02:41:33"}},{"id":"prAn3y","name":"Main Brewery","streetAddress":"Via Nazionale 87","locality":"Forni di Sopra","region":"Udine","postalCode":"33024","phone":"0433 88066","website":"http://www.birrificiofogliederba.it/","latitude":46.4111512,"longitude":12.5884521,"isPrimary":"Y","inPlanning":"N","isClosed":"N","openToPublic":"Y","locationType":"micro","locationTypeDisplay":"Micro Brewery","countryIsoCode":"IT","status":"verified","statusDisplay":"Verified","createDate":"2014-02-28 00:28:17","updateDate":"2014-07-23 19:11:34","country":{"isoCode":"IT","name":"ITALY","displayName":"Italy","isoThree":"ITA","numberCode":380,"createDate":"2012-01-03 02:41:33"}},{"id":"ac2lB0","name":"Main Brewery","streetAddress":"19 Mill Street","extendedAddress":"Suite 4","locality":"Orono","region":"Maine","postalCode":"04473","phone":"207-949-2880","website":"http://blackbearmicrobrew.com/","hoursOfOperation":"Wed - Fri: 4:00 pm - 8:00 pm","latitude":44.883098,"longitude":-68.671337,"isPrimary":"Y","inPlanning":"N","isClosed":"N","openToPublic":"Y","locationType":"micro","locationTypeDisplay":"Micro Brewery","countryIsoCode":"US","yearOpened":"2008","status":"verified","statusDisplay":"Verified","createDate":"2012-01-03 02:41:46","updateDate":"2014-07-23 19:11:34","country":{"isoCode":"US","name":"UNITED STATES","displayName":"United States","isoThree":"USA","numberCode":840,"createDate":"2012-01-03 02:41:33"}},{"id":"Vq0Dad","name":"Main Brewery","streetAddress":"114 Main Street","locality":"Stevensville","region":"Montana","postalCode":"59870","phone":"406-777-0680","website":"http://blacksmithbrewing.com/","latitude":46.511686,"longitude":-114.092666,"isPrimary":"Y","inPlanning":"N","isClosed":"N","openToPublic":"Y","locationType":"micro","locationTypeDisplay":"Micro Brewery","countryIsoCode":"US","yearOpened":"2008","status":"verified","statusDisplay":"Verified","createDate":"2012-01-03 02:41:46","updateDate":"2014-07-23 19:11:34","country":{"isoCode":"US","name":"UNITED STATES","displayName":"United States","isoThree":"USA","numberCode":840,"createDate":"2012-01-03 02:41:33"}},{"id":"q43seg","name":"Main Brewery","streetAddress":"420 Harrison Drive","locality":"Centerport","region":"New York","postalCode":"11721","phone":"631-891-7909","website":"http://www.blindbatbrewery.com/","latitude":40.89588,"longitude":-73.381098,"isPrimary":"Y","inPlanning":"N","isClosed":"N","openToPublic":"N","locationType":"micro","locationTypeDisplay":"Micro Brewery","countryIsoCode":"US","yearOpened":"2008","status":"verified","statusDisplay":"Verified","createDate":"2012-01-03 02:41:46","updateDate":"2014-07-23 19:11:34","country":{"isoCode":"US","name":"UNITED STATES","displayName":"United States","isoThree":"USA","numberCode":840,"createDate":"2012-01-03 02:41:33"}},{"id":"LTLdF5","name":"Main Brewery","streetAddress":"1020 Turnpike St","locality":"Canton","region":"Massachusetts","postalCode":"02021","phone":"781-821-2337","website":"http://www.bluehillsbrewery.com/","hoursOfOperation":"Gift Shop:\r\nMon-Fri 9:00 am - 5:00pm\r\n\r\nTastings: \r\nFri:\t3:30 pm - 6:30 pm\r\nSat:\t2:00 pm\t- 6:00 pm","latitude":42.150538,"longitude":-71.103699,"isPrimary":"Y","inPlanning":"N","isClosed":"N","openToPublic":"Y","locationType":"micro","locationTypeDisplay":"Micro Brewery","countryIsoCode":"US","status":"verified","statusDisplay":"Verified","createDate":"2012-01-03 02:41:47","updateDate":"2014-07-23 19:11:34","country":{"isoCode":"US","name":"UNITED STATES","displayName":"United States","isoThree":"USA","numberCode":840,"createDate":"2012-01-03 02:41:33"}},{"id":"Gv8T4E","name":"Main Brewery","streetAddress":"Level 2, Cairns Square, Cnr Shields & Abbott St","locality":"Cairns","region":"Queensland","postalCode":"4870","phone":"+61 7 4052 2888","website":"http://www.blueskybrewery.com.au/","latitude":-16.9212804,"longitude":145.7768921,"isPrimary":"Y","inPlanning":"N","isClosed":"N","openToPublic":"Y","locationType":"micro","locationTypeDisplay":"Micro Brewery","countryIsoCode":"AU","yearOpened":"2008","status":"verified","statusDisplay":"Verified","createDate":"2014-07-14 11:22:07","updateDate":"2014-07-23 19:11:34","country":{"isoCode":"AU","name":"AUSTRALIA","displayName":"Australia","isoThree":"AUS","numberCode":36,"createDate":"2012-01-03 02:41:33"}},{"id":"FAazG9","name":"Main Brewery","streetAddress":"51 Macbeth St","locality":"Braeside","region":"Victoria","postalCode":"3195","phone":"+61 3 9580 4339","website":"http://www.boatrocker.com.au/","latitude":-38.003652,"longitude":145.11376,"isPrimary":"Y","inPlanning":"N","isClosed":"N","openToPublic":"Y","locationType":"micro","locationTypeDisplay":"Micro Brewery","countryIsoCode":"AU","status":"verified","statusDisplay":"Verified","createDate":"2014-03-16 14:22:51","updateDate":"2014-07-23 19:11:34","country":{"isoCode":"AU","name":"AUSTRALIA","displayName":"Australia","isoThree":"AUS","numberCode":36,"createDate":"2012-01-03 02:41:33"}},{"id":"t11to9","name":"Main Brewery","streetAddress":"401 S Richman Ave","locality":"Fullerton","region":"California","postalCode":"92832","phone":"714-871-2337","website":"http://www.bootleggersbrewery.com/","hoursOfOperation":"Thu:  4:00pm - 9:00pm\nFri:  4:00pm - 9:00pm\nSat:  2:00pm - 9:00pm\n\nThursdays 4-9 pm\r\nFridays from 4-9 pm\r\nSaturdays 2-9 pm.","latitude":33.8682504,"longitude":-117.933221,"isPrimary":"Y","inPlanning":"N","isClosed":"N","openToPublic":"Y","locationType":"micro","locationTypeDisplay":"Micro Brewery","countryIsoCode":"US","yearOpened":"2008","status":"verified","statusDisplay":"Verified","createDate":"2012-01-03 02:41:47","updateDate":"2014-09-29 20:36:17","country":{"isoCode":"US","name":"UNITED STATES","displayName":"United States","isoThree":"USA","numberCode":840,"createDate":"2012-01-03 02:41:33"}},{"id":"HS3aUS","name":"Boquébière","streetAddress":"50, rue Wellington Nord","locality":"Sherbrooke","region":"Québec","postalCode":"j1h5b7","phone":"1-819-542-1311","website":"http://boquebiere.com/","latitude":45.4023016,"longitude":-71.8908551,"isPrimary":"Y","inPlanning":"N","isClosed":"N","openToPublic":"Y","locationType":"brewpub","locationTypeDisplay":"Brewpub","countryIsoCode":"CA","yearOpened":"2008","status":"verified","statusDisplay":"Verified","createDate":"2013-07-03 15:46:05","updateDate":"2014-07-23 19:11:34","country":{"isoCode":"CA","name":"CANADA","displayName":"Canada","isoThree":"CAN","numberCode":124,"createDate":"2012-01-03 02:41:33"}},{"id":"Tx6gof","name":"Le Bien, Le Malt","streetAddress":"141, avenue Belzille","locality":"Rimouski","region":"Québec","postalCode":"g5l 3e5","phone":"1-418-723-1339","website":"http://lebienlemalt.com/","latitude":48.4535988,"longitude":-68.5241761,"isPrimary":"Y","inPlanning":"N","isClosed":"N","openToPublic":"Y","locationType":"brewpub","locationTypeDisplay":"Brewpub","countryIsoCode":"CA","yearOpened":"2008","status":"verified","statusDisplay":"Verified","createDate":"2013-07-03 14:50:25","updateDate":"2014-07-23 19:11:34","country":{"isoCode":"CA","name":"CANADA","displayName":"Canada","isoThree":"CAN","numberCode":124,"createDate":"2012-01-03 02:41:33"}},{"id":"uH1uGw","name":"Main Brewery","streetAddress":"1483, Ottawa","locality":"Montréal","region":"Québec","postalCode":"H3C 1S9","phone":"(514) 788-4500","website":"http://www.brasseurdemontreal.ca/","latitude":45.490148,"longitude":-73.5636904,"isPrimary":"N","inPlanning":"N","isClosed":"N","openToPublic":"Y","locationType":"micro","locationTypeDisplay":"Micro Brewery","countryIsoCode":"CA","yearOpened":"2008","status":"verified","statusDisplay":"Verified","createDate":"2013-06-16 11:32:01","updateDate":"2014-07-23 19:11:34","country":{"isoCode":"CA","name":"CANADA","displayName":"Canada","isoThree":"CAN","numberCode":124,"createDate":"2012-01-03 02:41:33"}},{"id":"WakiQN","name":"Resto-bar","streetAddress":"1485, Ottawa","locality":"Montréal","region":"Québec","postalCode":"H3C 1S9","phone":"(514) 788-4505","website":"http://www.brasseurdemontreal.ca/","hoursOfOperation":"Monday to Friday\r\nfrom 11:30 a.m., lunch and supper\r\n\r\nSaturdays and Sundays\r\nfrom 3:00 p.m.","latitude":45.490148,"longitude":-73.5636904,"isPrimary":"Y","inPlanning":"N","isClosed":"N","openToPublic":"Y","locationType":"restaurant","locationTypeDisplay":"Restaurant/Ale House","countryIsoCode":"CA","status":"verified","statusDisplay":"Verified","createDate":"2013-06-16 11:32:42","updateDate":"2014-09-29 20:36:27","country":{"isoCode":"CA","name":"CANADA","displayName":"Canada","isoThree":"CAN","numberCode":124,"createDate":"2012-01-03 02:41:33"}},{"id":"vvqWPj","name":"Main Brewery","streetAddress":"Okerstraße 32","locality":"Goslar","region":"Niedersachsen","postalCode":"D-38640","latitude":51.90684,"longitude":10.43196,"isPrimary":"N","inPlanning":"N","isClosed":"N","openToPublic":"Y","locationType":"micro","locationTypeDisplay":"Micro Brewery","countryIsoCode":"DE","status":"verified","statusDisplay":"Verified","createDate":"2012-08-12 14:48:11","updateDate":"2014-07-23 19:11:34","country":{"isoCode":"DE","name":"GERMANY","displayName":"Germany","isoThree":"DEU","numberCode":276,"createDate":"2012-01-03 02:41:33"}},{"id":"jw2viZ","name":"Main Brewery","streetAddress":"Buntzelstrasse 89 Bohnsdorf","locality":"Berlin","region":"Berlin","postalCode":"12526","latitude":52.401995,"longitude":13.56507,"isPrimary":"N","inPlanning":"N","isClosed":"N","openToPublic":"Y","locationType":"micro","locationTypeDisplay":"Micro Brewery","countryIsoCode":"DE","status":"verified","statusDisplay":"Verified","createDate":"2012-08-12 14:47:45","updateDate":"2014-07-23 19:11:34","country":{"isoCode":"DE","name":"GERMANY","displayName":"Germany","isoThree":"DEU","numberCode":276,"createDate":"2012-01-03 02:41:33"}},{"id":"Dpa9Pp","name":"Main Brewery","streetAddress":"Am Tiefwarensee 1","locality":"Waren","postalCode":"17192","latitude":53.51094,"longitude":12.78299,"isPrimary":"Y","inPlanning":"N","isClosed":"N","openToPublic":"Y","locationType":"micro","locationTypeDisplay":"Micro Brewery","countryIsoCode":"DE","status":"verified","statusDisplay":"Verified","createDate":"2012-08-16 12:18:36","updateDate":"2014-07-23 19:11:34","country":{"isoCode":"DE","name":"GERMANY","displayName":"Germany","isoThree":"DEU","numberCode":276,"createDate":"2012-01-03 02:41:33"}},{"id":"Kvwj49","name":"Main Brewery","streetAddress":"Große Straße 14","locality":"Steinfeld (Oldenburg)","region":"Niedersachsen","postalCode":"D-49439","latitude":52.586863,"longitude":8.217186,"isPrimary":"N","inPlanning":"N","isClosed":"N","openToPublic":"Y","locationType":"micro","locationTypeDisplay":"Micro Brewery","countryIsoCode":"DE","status":"verified","statusDisplay":"Verified","createDate":"2012-08-12 14:47:58","updateDate":"2014-07-23 19:11:34","country":{"isoCode":"DE","name":"GERMANY","displayName":"Germany","isoThree":"DEU","numberCode":276,"createDate":"2012-01-03 02:41:33"}},{"id":"6Jgvnk","name":"Main Brewery","streetAddress":"13444 Cailfornia Street","locality":"Yucaipa","region":"California","postalCode":"92399","phone":"(951) 907-4844","website":"http://www.brewrebellion.com","hoursOfOperation":"Mon:  4:00pm - 9:00pm\nTue:  4:00pm - 9:00pm\nWed:  4:00pm - 9:00pm\nThu:  4:00pm - 9:00pm\nFri:  4:00pm - 9:00pm\nSat:  12:00pm - 9:00pm\nSun:  9:00am - 6:00pm\n\nMon - Fri: 4:00 pm - 9:00 pm\r\nSat: 12:00 pm - 9:00 pm\r\nSun: 9:00 am - 6:00 pm","latitude":34.00952,"longitude":-117.0391112,"isPrimary":"Y","inPlanning":"N","isClosed":"N","openToPublic":"Y","locationType":"micro","locationTypeDisplay":"Micro Brewery","countryIsoCode":"US","yearOpened":"2008","status":"verified","statusDisplay":"Verified","createDate":"2014-02-02 15:22:19","updateDate":"2014-09-29 20:36:34","country":{"isoCode":"US","name":"UNITED STATES","displayName":"United States","isoThree":"USA","numberCode":840,"createDate":"2012-01-03 02:41:33"}},{"id":"bY0joH","name":"Main Brewery","streetAddress":"De Leiteweg 8020 Ruddervoorde Belgium","locality":"Ruddervoorde","postalCode":"8020","phone":"+32 478 74 54 64","website":"http://www.deleite.be/","latitude":51.10493,"longitude":3.2213,"isPrimary":"Y","inPlanning":"N","isClosed":"N","openToPublic":"Y","locationType":"micro","locationTypeDisplay":"Micro Brewery","countryIsoCode":"BE","yearOpened":"2008","status":"verified","statusDisplay":"Verified","createDate":"2012-01-03 02:41:49","updateDate":"2014-07-23 19:11:34","country":{"isoCode":"BE","name":"BELGIUM","displayName":"Belgium","isoThree":"BEL","numberCode":56,"createDate":"2012-01-03 02:41:33"}},{"id":"h8cmZS","name":"Main Brewery","streetAddress":"Leuvensebaan 219","locality":"Holsbeek","postalCode":"3220","phone":"+32 473839463","website":"http://www.brouwerij-devlier.com/","latitude":50.9133737,"longitude":4.7310771,"isPrimary":"Y","inPlanning":"N","isClosed":"N","openToPublic":"Y","locationType":"micro","locationTypeDisplay":"Micro Brewery","countryIsoCode":"BE","yearOpened":"2008","status":"verified","statusDisplay":"Verified","createDate":"2012-01-03 02:41:49","updateDate":"2014-07-23 19:11:34","country":{"isoCode":"BE","name":"BELGIUM","displayName":"Belgium","isoThree":"BEL","numberCode":56,"createDate":"2012-01-03 02:41:33"}},{"id":"eUykxk","name":"Main Brewery","streetAddress":"1155 S. Rock Blvd","locality":"Reno","region":"Nevada","postalCode":"89502","phone":"775-857-4444","website":"http://www.buckbeanbeer.com/","latitude":39.4978546,"longitude":-119.750399,"isPrimary":"Y","inPlanning":"N","isClosed":"Y","openToPublic":"Y","locationType":"micro","locationTypeDisplay":"Micro Brewery","countryIsoCode":"US","yearOpened":"2008","yearClosed":"2012","status":"verified","statusDisplay":"Verified","createDate":"2012-01-03 02:41:49","updateDate":"2014-07-23 19:11:34","country":{"isoCode":"US","name":"UNITED STATES","displayName":"United States","isoThree":"USA","numberCode":840,"createDate":"2012-01-03 02:41:33"}},{"id":"4JeSmy","name":"Main Brewery","streetAddress":"1470 S Main St","locality":"Blacksburg","region":"Virginia","postalCode":"24060","phone":"540-953-2855","website":"http://www.bullandbones.com/","hoursOfOperation":"Mon - Sun:\t11:00 am\t-\t2:00 am","latitude":37.2162344,"longitude":-80.4010595,"isPrimary":"Y","inPlanning":"N","isClosed":"N","openToPublic":"Y","locationType":"brewpub","locationTypeDisplay":"Brewpub","countryIsoCode":"US","status":"verified","statusDisplay":"Verified","createDate":"2012-01-03 02:41:49","updateDate":"2014-07-23 19:11:34","country":{"isoCode":"US","name":"UNITED STATES","displayName":"United States","isoThree":"USA","numberCode":840,"createDate":"2012-01-03 02:41:33"}},{"id":"nr8K3C","name":"Main Brewery","streetAddress":"115 Hurley Rd. Bldg 9A","locality":"Oxford","region":"Connecticut","postalCode":"06478","phone":"203-262-6075","website":"http://www.cavalrybrewing.com/","latitude":41.47704,"longitude":-73.1428532,"isPrimary":"Y","inPlanning":"N","isClosed":"N","openToPublic":"Y","locationType":"micro","locationTypeDisplay":"Micro Brewery","countryIsoCode":"US","yearOpened":"2008","status":"verified","statusDisplay":"Verified","createDate":"2012-01-03 02:41:50","updateDate":"2014-07-23 19:11:34","country":{"isoCode":"US","name":"UNITED STATES","displayName":"United States","isoThree":"USA","numberCode":840,"createDate":"2012-01-03 02:41:33"}},{"id":"85Bz7F","name":"Main Brewery","streetAddress":"7743 Doty Road","locality":"Madison","region":"Ohio","postalCode":"44057","phone":"440-466-3485","website":"http://www.ratbrew.com/","latitude":41.740434,"longitude":-81.006285,"isPrimary":"Y","inPlanning":"N","isClosed":"N","openToPublic":"Y","locationType":"micro","locationTypeDisplay":"Micro Brewery","countryIsoCode":"US","yearOpened":"2008","status":"verified","statusDisplay":"Verified","createDate":"2012-01-03 02:41:50","updateDate":"2014-07-23 19:11:34","country":{"isoCode":"US","name":"UNITED STATES","displayName":"United States","isoThree":"USA","numberCode":840,"createDate":"2012-01-03 02:41:33"}},{"id":"T7p9M6","name":"Main Brewery","streetAddress":"601 W. Holly St.","locality":"Bellingham","region":"Washington","postalCode":"98225","phone":"360-752-3377","website":"http://www.chuckanutbreweryandkitchen.com/","hoursOfOperation":"Sunday - Thursday\r\nFood Service 11:30 - 9:00pm \r\nBar Open Late\r\n\r\nFriday and Saturday\r\nFood Service 11:30 - 10:00pm\r\nBar Open Late","latitude":48.7531923,"longitude":-122.4851023,"isPrimary":"Y","inPlanning":"N","isClosed":"N","openToPublic":"Y","locationType":"brewpub","locationTypeDisplay":"Brewpub","countryIsoCode":"US","status":"verified","statusDisplay":"Verified","createDate":"2012-01-03 02:41:50","updateDate":"2014-09-29 20:12:21","country":{"isoCode":"US","name":"UNITED STATES","displayName":"United States","isoThree":"USA","numberCode":840,"createDate":"2012-01-03 02:41:33"}},{"id":"K4zZoP","name":"Main Brewery","streetAddress":"3924 West Spruce Street","extendedAddress":"Suite A","locality":"Tampa","region":"Florida","postalCode":"33607","phone":"813-348-6363 ext 206","website":"http://cigarcitybeer.com/","latitude":27.958667,"longitude":-82.509302,"isPrimary":"Y","inPlanning":"N","isClosed":"N","openToPublic":"Y","locationType":"micro","locationTypeDisplay":"Micro Brewery","countryIsoCode":"US","yearOpened":"2008","status":"verified","statusDisplay":"Verified","createDate":"2012-01-03 02:41:51","updateDate":"2014-07-23 19:11:34","country":{"isoCode":"US","name":"UNITED STATES","displayName":"United States","isoThree":"USA","numberCode":840,"createDate":"2012-01-03 02:41:33"}},{"id":"V0T8uP","name":"Brewpub","streetAddress":"15491 N Dale Mabry Hwy","locality":"Tampa","region":"Florida","postalCode":"33624","phone":"(813) 962-1274","website":"http://cigarcitybrewpub.com/","hoursOfOperation":"Sun:  11:00am - 10:00pm, 11:00am - 3:00pm\nFri:  11:00am - 11:00pm\nSat:  11:00am - 11:00pm, 11:00am - 3:00pm\n\nSunday – Thursday: 11am – 10pm\r\nFriday & Saturday: 11am – 11pm\r\nBrunch: Saturday & Sunday: 11am – 3pm","latitude":28.0914308,"longitude":-82.5024599,"isPrimary":"N","inPlanning":"N","isClosed":"N","openToPublic":"Y","locationType":"brewpub","locationTypeDisplay":"Brewpub","countryIsoCode":"US","status":"verified","statusDisplay":"Verified","createDate":"2013-12-29 23:38:13","updateDate":"2014-09-29 20:12:22","country":{"isoCode":"US","name":"UNITED STATES","displayName":"United States","isoThree":"USA","numberCode":840,"createDate":"2012-01-03 02:41:33"}},{"id":"bfPDGk","name":"Main Brewery","streetAddress":"4745 Council Heights Rd.","locality":"Oklahoma City","region":"Oklahoma","postalCode":"73179","phone":"405-842-2667","website":"http://www.coopaleworks.com/","latitude":35.4185963,"longitude":-97.6571658,"isPrimary":"Y","inPlanning":"N","isClosed":"N","openToPublic":"Y","locationType":"micro","locationTypeDisplay":"Micro Brewery","countryIsoCode":"US","yearOpened":"2008","status":"verified","statusDisplay":"Verified","createDate":"2012-01-03 02:41:51","updateDate":"2014-09-25 20:04:12","country":{"isoCode":"US","name":"UNITED STATES","displayName":"United States","isoThree":"USA","numberCode":840,"createDate":"2012-01-03 02:41:33"}},{"id":"2obyBa","name":"Corsaire","streetAddress":"5955, rue Saint-Laurent","extendedAddress":"local 101","locality":"Lévis","region":"Québec","postalCode":"g6v3p5","phone":"1-418-380-2505","website":"http://www.corsairemicro.com/","latitude":46.8105881,"longitude":-71.1869705,"isPrimary":"Y","inPlanning":"N","isClosed":"N","openToPublic":"Y","locationType":"brewpub","locationTypeDisplay":"Brewpub","countryIsoCode":"CA","yearOpened":"2008","status":"verified","statusDisplay":"Verified","createDate":"2013-07-03 15:38:39","updateDate":"2014-07-23 19:11:34","country":{"isoCode":"CA","name":"CANADA","displayName":"Canada","isoThree":"CAN","numberCode":124,"createDate":"2012-01-03 02:41:33"}},{"id":"aLaCSt","name":"Main Brewery","phone":"424-259-2337","website":"http://cosmicbrewery.com/","isPrimary":"Y","inPlanning":"N","isClosed":"N","openToPublic":"Y","locationType":"micro","locationTypeDisplay":"Micro Brewery","countryIsoCode":"US","yearOpened":"2008","status":"verified","statusDisplay":"Verified","createDate":"2012-01-03 02:41:51","updateDate":"2014-07-23 19:11:34","country":{"isoCode":"US","name":"UNITED STATES","displayName":"United States","isoThree":"USA","numberCode":840,"createDate":"2012-01-03 02:41:33"}},{"id":"NqX68g","name":"Main Brewery","streetAddress":"929 North Russell Street","locality":"Portland","region":"Oregon","postalCode":"97227","phone":"503-331-7270","website":"http://craftbrewers.com/","latitude":45.541038,"longitude":-122.6765558,"isPrimary":"Y","inPlanning":"N","isClosed":"N","openToPublic":"Y","locationType":"production","locationTypeDisplay":"Production Facility","countryIsoCode":"US","status":"verified","statusDisplay":"Verified","createDate":"2012-01-03 02:41:51","updateDate":"2014-07-23 19:11:34","country":{"isoCode":"US","name":"UNITED STATES","displayName":"United States","isoThree":"USA","numberCode":840,"createDate":"2012-01-03 02:41:33"}},{"id":"buuCTR","name":"Cataqua Public House","streetAddress":"35 Corporate Dr","locality":"Portsmouth","region":"New Hampshire","postalCode":"03801","phone":"(603) 430-8600","website":"http://redhook.com/","latitude":43.0861206,"longitude":-70.8044708,"isPrimary":"N","inPlanning":"N","isClosed":"N","openToPublic":"Y","locationType":"macro","locationTypeDisplay":"Macro Brewery","countryIsoCode":"US","status":"verified","statusDisplay":"Verified","createDate":"2013-12-20 18:42:45","updateDate":"2014-07-23 19:11:34","country":{"isoCode":"US","name":"UNITED STATES","displayName":"United States","isoThree":"USA","numberCode":840,"createDate":"2012-01-03 02:41:33"}},{"id":"bPegqO","name":"Redhook Brewery","streetAddress":"14300 NE 145th Street","locality":"Woodinville","region":"Washington","postalCode":"98072","phone":"(425) 483-3232","website":"http://www.redhook.com","latitude":47.7348275,"longitude":-122.1488713,"isPrimary":"N","inPlanning":"N","isClosed":"N","openToPublic":"Y","locationType":"micro","locationTypeDisplay":"Micro Brewery","countryIsoCode":"US","status":"verified","statusDisplay":"Verified","createDate":"2014-01-03 15:21:29","updateDate":"2014-07-23 19:11:34","country":{"isoCode":"US","name":"UNITED STATES","displayName":"United States","isoThree":"USA","numberCode":840,"createDate":"2012-01-03 02:41:33"}},{"id":"Gw62Ze","name":"Main Brewery","streetAddress":"1213 South Auburn Street","extendedAddress":"Suite 10","locality":"Colfax","region":"California","postalCode":"95713","phone":"530 346 9699","website":"http://www.crispincider.com/","latitude":39.0889913,"longitude":-120.9555526,"isPrimary":"Y","inPlanning":"N","isClosed":"N","openToPublic":"Y","locationType":"micro","locationTypeDisplay":"Micro Brewery","countryIsoCode":"US","yearOpened":"2008","status":"verified","statusDisplay":"Verified","createDate":"2012-01-03 02:41:52","updateDate":"2014-10-09 15:16:15","country":{"isoCode":"US","name":"UNITED STATES","displayName":"United States","isoThree":"USA","numberCode":840,"createDate":"2012-01-03 02:41:33"}},{"id":"DTsVn8","name":"Main Brewery","streetAddress":"211 S. East Street","locality":"Crown Point","region":"Indiana","postalCode":"46307","phone":"219-663-4545","hoursOfOperation":"Mon: 11:00 am - 11:00 pm\r\nWed: 11:00 am - 11:00 pm\r\nSun: 11:00 am - 11:00 pm","latitude":41.415835,"longitude":-87.363439,"isPrimary":"Y","inPlanning":"N","isClosed":"N","openToPublic":"Y","locationType":"micro","locationTypeDisplay":"Micro Brewery","countryIsoCode":"US","yearOpened":"2008","status":"verified","statusDisplay":"Verified","createDate":"2012-01-03 02:41:52","updateDate":"2014-07-23 19:11:34","country":{"isoCode":"US","name":"UNITED STATES","displayName":"United States","isoThree":"USA","numberCode":840,"createDate":"2012-01-03 02:41:33"}},{"id":"pnbJwZ","name":"Main Brewery","streetAddress":"13326 State Route F","locality":"Sainte Genevieve","region":"Missouri","postalCode":"63670","phone":"573-756-9700","website":"http://www.crownvalleybrewery.com/","latitude":37.9271845,"longitude":-90.1103994,"isPrimary":"Y","inPlanning":"N","isClosed":"N","openToPublic":"Y","locationType":"micro","locationTypeDisplay":"Micro Brewery","countryIsoCode":"US","status":"verified","statusDisplay":"Verified","createDate":"2012-01-03 02:41:52","updateDate":"2014-07-23 19:11:34","country":{"isoCode":"US","name":"UNITED STATES","displayName":"United States","isoThree":"USA","numberCode":840,"createDate":"2012-01-03 02:41:33"}},{"id":"9WPTNZ","name":"Main Brewery","streetAddress":"200 Mosbys Run","locality":"Roseland","region":"Virginia","postalCode":"22967","phone":"434-361-1001","website":"http://dbbrewingcompany.com/","latitude":37.8704968,"longitude":-78.9188874,"isPrimary":"N","inPlanning":"N","isClosed":"N","openToPublic":"Y","locationType":"brewpub","locationTypeDisplay":"Brewpub","countryIsoCode":"US","yearOpened":"2008","status":"verified","statusDisplay":"Verified","createDate":"2012-01-03 02:41:52","updateDate":"2014-07-23 19:11:34","country":{"isoCode":"US","name":"UNITED STATES","displayName":"United States","isoThree":"USA","numberCode":840,"createDate":"2012-01-03 02:41:33"}},{"id":"k1lnNr","name":"Devils Backbone Brewing Company - Outpost","streetAddress":"50 Northwind Lane","locality":"Lexington","region":"Virginia","postalCode":"24450","phone":"540.462.6200","hoursOfOperation":"Wednesday & Thursday open 1pm - 7pm.  Friday & Saturday open 1pm - 8pm.  Sunday open 1pm - 6pm","latitude":37.8220198,"longitude":-79.3922619,"isPrimary":"Y","inPlanning":"N","isClosed":"N","openToPublic":"Y","locationType":"micro","locationTypeDisplay":"Micro Brewery","countryIsoCode":"US","yearOpened":"2012","status":"verified","statusDisplay":"Verified","createDate":"2013-08-12 03:43:55","updateDate":"2014-07-23 19:11:34","country":{"isoCode":"US","name":"UNITED STATES","displayName":"United States","isoThree":"USA","numberCode":840,"createDate":"2012-01-03 02:41:33"}},{"id":"bTThBS","name":"Main Brewery","streetAddress":"600 Haines Drive","locality":"Liberty","region":"Missouri","postalCode":"64068","website":"http://www.doodlebrewing.com/","latitude":39.254543,"longitude":-94.455085,"isPrimary":"Y","inPlanning":"N","isClosed":"N","openToPublic":"Y","locationType":"micro","locationTypeDisplay":"Micro Brewery","countryIsoCode":"US","yearOpened":"2008","status":"verified","statusDisplay":"Verified","createDate":"2012-01-03 02:41:53","updateDate":"2014-07-23 19:11:34","country":{"isoCode":"US","name":"UNITED STATES","displayName":"United States","isoThree":"USA","numberCode":840,"createDate":"2012-01-03 02:41:33"}},{"id":"6slRlr","name":"Main Brewery","streetAddress":"450 Hillside Avenue","extendedAddress":"Unit 102","locality":"Victoria","region":"British Columbia","postalCode":"V8T 1Y7","website":"http://www.driftwoodbeer.com/","latitude":48.4370058,"longitude":-123.3738423,"isPrimary":"Y","inPlanning":"N","isClosed":"N","openToPublic":"Y","locationType":"micro","locationTypeDisplay":"Micro Brewery","countryIsoCode":"CA","yearOpened":"2008","status":"verified","statusDisplay":"Verified","createDate":"2012-01-03 02:41:53","updateDate":"2014-07-23 19:11:34","country":{"isoCode":"CA","name":"CANADA","displayName":"Canada","isoThree":"CAN","numberCode":124,"createDate":"2012-01-03 02:41:33"}},{"id":"wW6rQJ","name":"Main Brewery","streetAddress":"605 S. Talbot St.","locality":"St Michaels","region":"Maryland","postalCode":"21663","phone":"410.745.8010","website":"http://www.easternshorebrewing.com/","hoursOfOperation":"Monday - Friday 12 till 5 PM\r\nSaturday 12 till 7 PM\r\nSunday 12 till 5 PM","latitude":38.781363,"longitude":-76.2222026,"isPrimary":"Y","inPlanning":"N","isClosed":"N","openToPublic":"Y","locationType":"micro","locationTypeDisplay":"Micro Brewery","countryIsoCode":"US","yearOpened":"2008","status":"verified","statusDisplay":"Verified","createDate":"2012-01-03 02:41:53","updateDate":"2014-07-23 19:11:34","country":{"isoCode":"US","name":"UNITED STATES","displayName":"United States","isoThree":"USA","numberCode":840,"createDate":"2012-01-03 02:41:33"}},{"id":"w0rLnG","name":"Main Brewery","streetAddress":"825 S. State Street","locality":"Salt Lake City","region":"Utah","postalCode":"84111","phone":"801-906-0123","website":"http://www.epicbrewing.com/","hoursOfOperation":"Mon - Thu: 11:00 am - 9:00 pm\r\nFri - Sat: 10:00 am - 11:00 pm","latitude":40.7511051,"longitude":-111.8878836,"isPrimary":"Y","inPlanning":"N","isClosed":"N","openToPublic":"Y","locationType":"micro","locationTypeDisplay":"Micro Brewery","countryIsoCode":"US","yearOpened":"2008","status":"verified","statusDisplay":"Verified","createDate":"2012-01-03 02:41:54","updateDate":"2014-07-23 19:11:34","country":{"isoCode":"US","name":"UNITED STATES","displayName":"United States","isoThree":"USA","numberCode":840,"createDate":"2012-01-03 02:41:33"}},{"id":"D6jVuJ","name":"Taproom & Brewery","streetAddress":"3001 Walnut St","locality":"Denver","region":"Colorado","postalCode":"80205","website":"http://www.epicbrewing.com/","hoursOfOperation":"The taproom hours are Monday through Thursday, 12:00 pm – 9:00 pm, Friday and Saturday, 12:00 pm – 10:00 pm and Sunday from 11:00 am – 8:00 pm. Brewery tours are held Thursday and Friday at 3:30pm and Saturday and Sunday at 12:00, 2:00, 4:00 and 6:00.","latitude":39.7633439,"longitude":-104.981419,"isPrimary":"N","inPlanning":"N","isClosed":"N","openToPublic":"Y","locationType":"tasting","locationTypeDisplay":"Tasting Room","countryIsoCode":"US","yearOpened":"2013","status":"verified","statusDisplay":"Verified","createDate":"2013-10-20 16:58:54","updateDate":"2014-07-23 19:11:34","country":{"isoCode":"US","name":"UNITED STATES","displayName":"United States","isoThree":"USA","numberCode":840,"createDate":"2012-01-03 02:41:33"}},{"id":"BSsTGw","name":"Main Brewery","streetAddress":"1370 North Long Lake Rd.","locality":"Fenton","region":"Michigan","postalCode":"48430","phone":"810-373-4194","website":"http://fentonbrewery.com/","hoursOfOperation":"Mon:  3:00pm - 10:00pm\nTue:  3:00pm - 10:00pm\nWed:  3:00pm - 10:00pm\nThu:  3:00pm - 10:00pm\nFri:  3:00am - 12:00am\nSat:  1:00am - 12:00am\n\n","latitude":42.851823,"longitude":-83.703333,"isPrimary":"Y","inPlanning":"N","isClosed":"N","openToPublic":"Y","locationType":"micro","locationTypeDisplay":"Micro Brewery","countryIsoCode":"US","yearOpened":"2008","status":"verified","statusDisplay":"Verified","createDate":"2012-01-03 02:41:54","updateDate":"2014-08-04 10:51:37","country":{"isoCode":"US","name":"UNITED STATES","displayName":"United States","isoThree":"USA","numberCode":840,"createDate":"2012-01-03 02:41:33"}},{"id":"Kp22MO","name":"Main Brewery","streetAddress":"3409 Woodland Park Avenue North","locality":"Seattle","region":"Washington","postalCode":"98103","phone":"206-420-2407","website":"http://www.fremontbrewing.com/","hoursOfOperation":"Monday - Wednesday: 11:00 - 5:00pm\r\nThursday: 11:00 - 8:00pm\r\nFriday: 11:00 - 8:00pm\r\nSaturday:   Noon - 8:00pm\r\nSunday: Noon - 5:00pm","latitude":47.6487925,"longitude":-122.3440615,"isPrimary":"Y","inPlanning":"N","isClosed":"N","openToPublic":"Y","locationType":"micro","locationTypeDisplay":"Micro Brewery","countryIsoCode":"US","status":"verified","statusDisplay":"Verified","createDate":"2012-01-03 02:41:55","updateDate":"2014-07-23 19:11:34","country":{"isoCode":"US","name":"UNITED STATES","displayName":"United States","isoThree":"USA","numberCode":840,"createDate":"2012-01-03 02:41:33"}},{"id":"Wopd3Y","name":"Main Brewery","streetAddress":"827 S. Main Street","locality":"Memphis","region":"Tennessee","postalCode":"38106","phone":"901-278-0087","website":"http://www.ghostriverbrewing.com/","latitude":35.124958,"longitude":-90.059515,"isPrimary":"Y","inPlanning":"N","isClosed":"N","openToPublic":"Y","locationType":"micro","locationTypeDisplay":"Micro Brewery","countryIsoCode":"US","yearOpened":"2008","status":"verified","statusDisplay":"Verified","createDate":"2012-01-03 02:41:55","updateDate":"2014-07-23 19:11:34","country":{"isoCode":"US","name":"UNITED STATES","displayName":"United States","isoThree":"USA","numberCode":840,"createDate":"2012-01-03 02:41:33"}},{"id":"Hg8V7d","name":"Main Brewery","streetAddress":"315 Importing Street","locality":"Aurora","region":"Indiana","postalCode":"47001","phone":"812-655-9079","website":"http://www.gcbeer.com/","hoursOfOperation":"Friday 1PM to 6PM\r\nSaturday Noon to 6PM\r\nClosed Sunday through Thursday","latitude":39.057436,"longitude":-84.8996633,"isPrimary":"Y","inPlanning":"N","isClosed":"N","openToPublic":"Y","locationType":"micro","locationTypeDisplay":"Micro Brewery","countryIsoCode":"US","yearOpened":"2008","status":"verified","statusDisplay":"Verified","createDate":"2012-01-03 02:41:56","updateDate":"2014-07-23 19:11:34","country":{"isoCode":"US","name":"UNITED STATES","displayName":"United States","isoThree":"USA","numberCode":840,"createDate":"2012-01-03 02:41:33"}},{"id":"883Pwt","name":"Main Brewery","streetAddress":"1710 Sessums Drive","locality":"Redlands","region":"California","postalCode":"92374","phone":"909-389-1400","website":"http://www.hangar24brewery.com/","latitude":34.082555,"longitude":-117.13932,"isPrimary":"Y","inPlanning":"N","isClosed":"N","openToPublic":"Y","locationType":"micro","locationTypeDisplay":"Micro Brewery","countryIsoCode":"US","status":"verified","statusDisplay":"Verified","createDate":"2012-01-03 02:41:56","updateDate":"2014-07-23 19:11:34","country":{"isoCode":"US","name":"UNITED STATES","displayName":"United States","isoThree":"USA","numberCode":840,"createDate":"2012-01-03 02:41:33"}},{"id":"wkQ1aX","name":"Main Brewery","streetAddress":"Oesterreicher Strasse 67","locality":"Dresden","region":"Saxony","postalCode":"01279","latitude":51.022442,"longitude":13.839494,"isPrimary":"Y","inPlanning":"N","isClosed":"N","openToPublic":"Y","locationType":"micro","locationTypeDisplay":"Micro Brewery","countryIsoCode":"DE","status":"verified","statusDisplay":"Verified","createDate":"2012-08-13 00:04:20","updateDate":"2014-07-23 19:11:34","country":{"isoCode":"DE","name":"GERMANY","displayName":"Germany","isoThree":"DEU","numberCode":276,"createDate":"2012-01-03 02:41:33"}},{"id":"z4k3eU","name":"Main Brewery","streetAddress":"Gut Theensen","locality":"Bad Münder","region":"Niedersachsen","postalCode":"D-31848","latitude":52.195292,"longitude":9.464534,"isPrimary":"N","inPlanning":"N","isClosed":"N","openToPublic":"Y","locationType":"micro","locationTypeDisplay":"Micro Brewery","countryIsoCode":"DE","status":"verified","statusDisplay":"Verified","createDate":"2012-08-12 14:47:12","updateDate":"2014-07-23 19:11:34","country":{"isoCode":"DE","name":"GERMANY","displayName":"Germany","isoThree":"DEU","numberCode":276,"createDate":"2012-01-03 02:41:33"}},{"id":"wwLXfp","name":"Main Brewery","streetAddress":"Kreuzweg 9","locality":"Vechta","region":"Niedersachsen","postalCode":"D-49377","latitude":52.734303,"longitude":8.292115,"isPrimary":"N","inPlanning":"N","isClosed":"N","openToPublic":"Y","locationType":"micro","locationTypeDisplay":"Micro Brewery","countryIsoCode":"DE","status":"verified","statusDisplay":"Verified","createDate":"2012-08-12 14:47:04","updateDate":"2014-07-23 19:11:34","country":{"isoCode":"DE","name":"GERMANY","displayName":"Germany","isoThree":"DEU","numberCode":276,"createDate":"2012-01-03 02:41:33"}},{"id":"4UcPMq","name":"Main Brewery","extendedAddress":"PO Box 2037","locality":"Hawthorn","region":"Victoria","postalCode":"3122","website":"http://hawthornbrewing.com.au/","latitude":-37.8222114,"longitude":145.0328017,"isPrimary":"Y","inPlanning":"N","isClosed":"N","openToPublic":"N","locationType":"micro","locationTypeDisplay":"Micro Brewery","countryIsoCode":"AU","yearOpened":"2008","status":"verified","statusDisplay":"Verified","createDate":"2014-02-28 00:38:55","updateDate":"2014-07-23 19:11:34","country":{"isoCode":"AU","name":"AUSTRALIA","displayName":"Australia","isoThree":"AUS","numberCode":36,"createDate":"2012-01-03 02:41:33"}},{"id":"smwzAy","name":"Main Brewery","streetAddress":"Grüntenstraße 7","locality":"Sonthofen","region":"Bavaria","postalCode":"87527","latitude":47.496718,"longitude":10.236229,"isPrimary":"Y","inPlanning":"N","isClosed":"N","openToPublic":"Y","locationType":"micro","locationTypeDisplay":"Micro Brewery","countryIsoCode":"DE","status":"verified","statusDisplay":"Verified","createDate":"2012-08-15 14:29:38","updateDate":"2014-07-23 19:11:34","country":{"isoCode":"DE","name":"GERMANY","displayName":"Germany","isoThree":"DEU","numberCode":276,"createDate":"2012-01-03 02:41:33"}},{"id":"RDjnXf","name":"Main Brewery","streetAddress":"Florengasse 3-5","locality":"Fulda","region":"Hessen","postalCode":"D-36037","latitude":50.549933,"longitude":9.679048,"isPrimary":"N","inPlanning":"N","isClosed":"N","openToPublic":"Y","locationType":"micro","locationTypeDisplay":"Micro Brewery","countryIsoCode":"DE","status":"verified","statusDisplay":"Verified","createDate":"2012-08-12 14:45:57","updateDate":"2014-07-23 19:11:34","country":{"isoCode":"DE","name":"GERMANY","displayName":"Germany","isoThree":"DEU","numberCode":276,"createDate":"2012-01-03 02:41:33"}},{"id":"4z9si8","name":"Main Brewery","streetAddress":"18267 Glen Oak Way","locality":"Leesburg","region":"Virginia","postalCode":"20176","phone":"703-371-4161","website":"http://www.holybrew.com/","latitude":39.11016,"longitude":-77.494771,"isPrimary":"Y","inPlanning":"N","isClosed":"N","openToPublic":"Y","locationType":"micro","locationTypeDisplay":"Micro Brewery","countryIsoCode":"US","yearOpened":"2008","status":"verified","statusDisplay":"Verified","createDate":"2012-01-03 02:41:58","updateDate":"2014-07-23 19:11:34","country":{"isoCode":"US","name":"UNITED STATES","displayName":"United States","isoThree":"USA","numberCode":840,"createDate":"2012-01-03 02:41:33"}},{"id":"IUEDXj","name":"Main Brewery","streetAddress":"Wühlischstraße 22-23","locality":"Friedrichshain","region":"Berlin","postalCode":"D-10245","latitude":52.513466,"longitude":13.455862,"isPrimary":"N","inPlanning":"N","isClosed":"N","openToPublic":"Y","locationType":"micro","locationTypeDisplay":"Micro Brewery","countryIsoCode":"DE","status":"verified","statusDisplay":"Verified","createDate":"2012-08-12 14:46:55","updateDate":"2014-07-23 19:11:34","country":{"isoCode":"DE","name":"GERMANY","displayName":"Germany","isoThree":"DEU","numberCode":276,"createDate":"2012-01-03 02:41:33"}},{"id":"ODuLYY","name":"Golden","streetAddress":"14285 W. Colfax Ave.","locality":"Golden","region":"Colorado","postalCode":"80206","phone":"303-216-2469","hoursOfOperation":"11am to 11pm daily","latitude":39.733349,"longitude":-105.162077,"isPrimary":"Y","inPlanning":"N","isClosed":"Y","openToPublic":"Y","locationType":"brewpub","locationTypeDisplay":"Brewpub","countryIsoCode":"US","yearOpened":"2008","status":"verified","statusDisplay":"Verified","createDate":"2012-01-03 02:42:15","updateDate":"2014-07-23 19:11:34","country":{"isoCode":"US","name":"UNITED STATES","displayName":"United States","isoThree":"USA","numberCode":840,"createDate":"2012-01-03 02:41:33"}},{"id":"0Xd9hz","name":"Matthews","streetAddress":"9950 E Independence Blvd","locality":"Matthews","region":"North Carolina","postalCode":"28105","phone":"704-844-8300","website":"http://www.hopsrestaurants.com/","hoursOfOperation":"11am - 11pm daily","latitude":35.1315842,"longitude":-80.7113447,"isPrimary":"N","inPlanning":"N","isClosed":"Y","openToPublic":"Y","locationType":"brewpub","locationTypeDisplay":"Brewpub","countryIsoCode":"US","yearOpened":"2008","yearClosed":"2013","status":"verified","statusDisplay":"Verified","createDate":"2012-01-03 02:42:15","updateDate":"2014-07-23 19:11:34","country":{"isoCode":"US","name":"UNITED STATES","displayName":"United States","isoThree":"USA","numberCode":840,"createDate":"2012-01-03 02:41:33"}},{"id":"6RZC0v","name":"Littleton","streetAddress":"8026 W. Bowles Ave.","locality":"Littleton","region":"Colorado","postalCode":"80123","phone":"303-948-6540","hoursOfOperation":"11am to 11pm daily","latitude":39.6091987,"longitude":-105.085005,"isPrimary":"N","inPlanning":"N","isClosed":"Y","openToPublic":"N","locationType":"brewpub","locationTypeDisplay":"Brewpub","countryIsoCode":"US","yearOpened":"2008","yearClosed":"2013","status":"verified","statusDisplay":"Verified","createDate":"2012-01-10 16:47:36","updateDate":"2014-07-23 19:11:34","country":{"isoCode":"US","name":"UNITED STATES","displayName":"United States","isoThree":"USA","numberCode":840,"createDate":"2012-01-03 02:41:33"}},{"id":"ilI0AM","name":"Alexandria","streetAddress":"3625 Jefferson Davis Hwy.","locality":"Alexandria","region":"Virginia","postalCode":"22305","phone":"703-837-9107","website":"http://www.hopsonline.com/","hoursOfOperation":"11am to 11pm daily","latitude":38.837296,"longitude":-77.051787,"isPrimary":"N","inPlanning":"N","isClosed":"N","openToPublic":"Y","locationType":"brewpub","locationTypeDisplay":"Brewpub","countryIsoCode":"US","yearOpened":"2008","status":"verified","statusDisplay":"Verified","createDate":"2012-01-10 16:48:43","updateDate":"2014-07-23 19:11:34","country":{"isoCode":"US","name":"UNITED STATES","displayName":"United States","isoThree":"USA","numberCode":840,"createDate":"2012-01-03 02:41:33"}},{"id":"aORdIX","name":"Main Brewery","streetAddress":"2944 SE Powell Blvd","locality":"Portland","region":"Oregon","postalCode":"97202","phone":"(503) 201-8957","website":"http://hopworksbeer.com/","latitude":45.4969012,"longitude":-122.6348109,"isPrimary":"Y","inPlanning":"N","isClosed":"N","openToPublic":"Y","locationType":"micro","locationTypeDisplay":"Micro Brewery","countryIsoCode":"US","yearOpened":"2008","status":"verified","statusDisplay":"Verified","createDate":"2012-01-03 02:41:58","updateDate":"2014-07-23 19:11:34","country":{"isoCode":"US","name":"UNITED STATES","displayName":"United States","isoThree":"USA","numberCode":840,"createDate":"2012-01-03 02:41:33"}},{"id":"4TuN55","name":"Main Brewery","streetAddress":"3615 Superior Avenue","extendedAddress":"Suite 4201B","locality":"Cleveland","region":"Ohio","postalCode":"44114","phone":"216-881-0650","website":"http://www.indigoimpbrewery.com/","latitude":41.512868,"longitude":-81.665733,"isPrimary":"Y","inPlanning":"N","isClosed":"N","openToPublic":"Y","locationType":"micro","locationTypeDisplay":"Micro Brewery","countryIsoCode":"US","yearOpened":"2008","status":"verified","statusDisplay":"Verified","createDate":"2012-01-03 02:41:58","updateDate":"2014-07-23 19:11:34","country":{"isoCode":"US","name":"UNITED STATES","displayName":"United States","isoThree":"USA","numberCode":840,"createDate":"2012-01-03 02:41:33"}},{"id":"Ohy298","name":"Main Brewery","streetAddress":"PO Box 246","locality":"Creamery","region":"Pennsylvania","postalCode":"19430","phone":"610-812-9426","website":"http://intercoursebrewingco.com/","latitude":40.219696,"longitude":-75.415454,"isPrimary":"Y","inPlanning":"N","isClosed":"N","openToPublic":"N","locationType":"micro","locationTypeDisplay":"Micro Brewery","countryIsoCode":"US","yearOpened":"2008","status":"verified","statusDisplay":"Verified","createDate":"2012-01-03 02:41:58","updateDate":"2014-07-23 19:11:34","country":{"isoCode":"US","name":"UNITED STATES","displayName":"United States","isoThree":"USA","numberCode":840,"createDate":"2012-01-03 02:41:33"}},{"id":"JvvUYl","name":"Main Brewery","streetAddress":"8 Cherry Street","locality":"Hampton","region":"Georgia","postalCode":"30228","phone":"678-734-3202","hoursOfOperation":"Saturday's 2-6pm","latitude":33.386539,"longitude":-84.282384,"isPrimary":"Y","inPlanning":"N","isClosed":"N","openToPublic":"Y","locationType":"micro","locationTypeDisplay":"Micro Brewery","countryIsoCode":"US","yearOpened":"2008","status":"verified","statusDisplay":"Verified","createDate":"2012-01-03 02:41:58","updateDate":"2014-07-23 19:11:34","country":{"isoCode":"US","name":"UNITED STATES","displayName":"United States","isoThree":"USA","numberCode":840,"createDate":"2012-01-03 02:41:33"}},{"id":"lsziMe","name":"Main Brewery","streetAddress":"155 N. Gibson Rd.","locality":"Henderson","region":"Nevada","postalCode":"89014","phone":"702-454-2739","website":"http://www.foxbrews.com/","latitude":36.038381,"longitude":-115.03073,"isPrimary":"Y","inPlanning":"N","isClosed":"N","openToPublic":"Y","locationType":"micro","locationTypeDisplay":"Micro Brewery","countryIsoCode":"US","status":"verified","statusDisplay":"Verified","createDate":"2012-01-03 02:41:59","updateDate":"2014-07-23 19:11:34","country":{"isoCode":"US","name":"UNITED STATES","displayName":"United States","isoThree":"USA","numberCode":840,"createDate":"2012-01-03 02:41:33"}},{"id":"opxjW7","name":"Main Brewery","streetAddress":"6014 McDaniel Ln","extendedAddress":"Suite C","locality":"Charlotte","region":"North Carolina","postalCode":"28213","phone":"704-819-4913","website":"http://www.kindbeers.com/","latitude":35.265226,"longitude":-80.759962,"isPrimary":"Y","inPlanning":"N","isClosed":"N","openToPublic":"N","locationType":"office","locationTypeDisplay":"Office","countryIsoCode":"US","yearOpened":"2008","status":"verified","statusDisplay":"Verified","createDate":"2012-01-03 02:41:59","updateDate":"2014-07-23 19:11:34","country":{"isoCode":"US","name":"UNITED STATES","displayName":"United States","isoThree":"USA","numberCode":840,"createDate":"2012-01-03 02:41:33"}},{"id":"UJI7C4","name":"Main Brewery","streetAddress":"28 Culverlands Street","locality":"Heidelberg","region":"Victoria","postalCode":"3081","phone":"+61 3 9440 5426","website":"http://www.kooinda.com.au","latitude":-37.7309433,"longitude":145.0557889,"isPrimary":"Y","inPlanning":"N","isClosed":"N","openToPublic":"Y","locationType":"micro","locationTypeDisplay":"Micro Brewery","countryIsoCode":"AU","yearOpened":"2008","status":"verified","statusDisplay":"Verified","createDate":"2014-03-03 23:23:06","updateDate":"2014-07-23 19:11:34","country":{"isoCode":"AU","name":"AUSTRALIA","displayName":"Australia","isoThree":"AUS","numberCode":36,"createDate":"2012-01-03 02:41:33"}},{"id":"sbVFqO","name":"Main Brewery","locality":"Warren","region":"Vermont","postalCode":"05674","phone":"802-272-8436","website":"http://www.lawsonsfinest.com/","latitude":44.113535,"longitude":-72.85575,"isPrimary":"Y","inPlanning":"N","isClosed":"N","openToPublic":"Y","locationType":"micro","locationTypeDisplay":"Micro Brewery","countryIsoCode":"US","status":"verified","statusDisplay":"Verified","createDate":"2012-01-03 02:42:00","updateDate":"2014-07-23 19:11:34","country":{"isoCode":"US","name":"UNITED STATES","displayName":"United States","isoThree":"USA","numberCode":840,"createDate":"2012-01-03 02:41:33"}},{"id":"iEqfUq","name":"Main Brewery","streetAddress":"149 W. Liberty Street","locality":"Plymouth","region":"Michigan","postalCode":"48170","phone":"734-207-9600","website":"http://libertystreetbeer.com/","latitude":42.379127,"longitude":-83.4612197,"isPrimary":"Y","inPlanning":"N","isClosed":"N","openToPublic":"Y","locationType":"micro","locationTypeDisplay":"Micro Brewery","countryIsoCode":"US","yearOpened":"2008","status":"verified","statusDisplay":"Verified","createDate":"2012-01-03 02:42:00","updateDate":"2014-09-02 10:46:56","country":{"isoCode":"US","name":"UNITED STATES","displayName":"United States","isoThree":"USA","numberCode":840,"createDate":"2012-01-03 02:41:33"}},{"id":"npSiG1","name":"Main Brewery","streetAddress":"1900 Tower Drive","locality":"Stillwater","region":"Minnesota","postalCode":"55082","phone":"888-430-2337","website":"http://www.liftbridgebrewery.com/","latitude":45.039177,"longitude":-92.831797,"isPrimary":"Y","inPlanning":"N","isClosed":"N","openToPublic":"Y","locationType":"micro","locationTypeDisplay":"Micro Brewery","countryIsoCode":"US","status":"verified","statusDisplay":"Verified","createDate":"2012-01-03 02:42:00","updateDate":"2014-07-23 19:11:34","country":{"isoCode":"US","name":"UNITED STATES","displayName":"United States","isoThree":"USA","numberCode":840,"createDate":"2012-01-03 02:41:33"}},{"id":"eHNd5H","name":"Main Brewery","streetAddress":"11941 Centennial Road Ne","extendedAddress":"Suite 1","locality":"La Vista","region":"Nebraska","postalCode":"68128","phone":"402-763-8868","website":"http://www.luckybucketbrewing.com/","latitude":41.1702006,"longitude":-96.0996241,"isPrimary":"Y","inPlanning":"N","isClosed":"N","openToPublic":"Y","locationType":"micro","locationTypeDisplay":"Micro Brewery","countryIsoCode":"US","yearOpened":"2008","status":"verified","statusDisplay":"Verified","createDate":"2012-01-03 02:42:01","updateDate":"2014-07-23 19:11:34","country":{"isoCode":"US","name":"UNITED STATES","displayName":"United States","isoThree":"USA","numberCode":840,"createDate":"2012-01-03 02:41:33"}},{"id":"Sau1vs","name":"Main Brewery","streetAddress":"119 Old Turnpike Road #3G","locality":"Concord","region":"New Hampshire","postalCode":"03301","phone":"603-617-2409","website":"http://manchesterbrewing.com/","latitude":43.204461,"longitude":-71.51411,"isPrimary":"Y","inPlanning":"N","isClosed":"Y","openToPublic":"Y","locationType":"micro","locationTypeDisplay":"Micro Brewery","countryIsoCode":"US","yearOpened":"2007","yearClosed":"2010","status":"verified","statusDisplay":"Verified","createDate":"2012-01-03 02:42:01","updateDate":"2014-07-23 19:11:34","country":{"isoCode":"US","name":"UNITED STATES","displayName":"United States","isoThree":"USA","numberCode":840,"createDate":"2012-01-03 02:41:33"}},{"id":"AVEsqU","name":"Main Brewery","streetAddress":"111 Marble Ave NW","locality":"Albuquerque","region":"New Mexico","postalCode":"87102","phone":"505.243.2739","website":"http://marblebrewery.com/","latitude":35.092811,"longitude":-106.646727,"isPrimary":"Y","inPlanning":"N","isClosed":"N","openToPublic":"Y","locationType":"micro","locationTypeDisplay":"Micro Brewery","countryIsoCode":"US","status":"verified","statusDisplay":"Verified","createDate":"2012-01-03 02:42:01","updateDate":"2014-07-23 19:11:34","country":{"isoCode":"US","name":"UNITED STATES","displayName":"United States","isoThree":"USA","numberCode":840,"createDate":"2012-01-03 02:41:33"}},{"id":"4pc0hm","name":"Santa Fe Tap Room","streetAddress":"505 Cerrillos Rd.","extendedAddress":"Suite A105","locality":"Santa Fe","region":"New Mexico","postalCode":"87501","phone":"505 983-6259","website":"http://www.marblebrewery.com/santa-fe-tap-room/","latitude":35.6824377,"longitude":-105.9447552,"isPrimary":"N","inPlanning":"N","isClosed":"N","openToPublic":"Y","locationType":"tasting","locationTypeDisplay":"Tasting Room","countryIsoCode":"US","status":"verified","statusDisplay":"Verified","createDate":"2013-03-28 22:42:27","updateDate":"2014-09-25 20:12:48","country":{"isoCode":"US","name":"UNITED STATES","displayName":"United States","isoThree":"USA","numberCode":840,"createDate":"2012-01-03 02:41:33"}},{"id":"KIoxDv","name":"Marble Brewery Westside Taproom","streetAddress":"5740 Night Whisper Rd NW","locality":"Albuquerque","region":"New Mexico","postalCode":"87114","phone":"505.508.4368","website":"http://www.marblebrewery.com/westside-taproom/","hoursOfOperation":"Mon-Th 2:00 PM – 11:00 PM\r\nFri & Sat 12:00 PM – 11:00 PM\r\nSun 12:00 PM – 10:00 PM","latitude":35.2158074,"longitude":-106.6982121,"isPrimary":"N","inPlanning":"N","isClosed":"N","openToPublic":"Y","locationType":"tasting","locationTypeDisplay":"Tasting Room","countryIsoCode":"US","status":"verified","statusDisplay":"Verified","createDate":"2014-09-25 16:56:49","updateDate":"2014-09-25 20:13:20","country":{"isoCode":"US","name":"UNITED STATES","displayName":"United States","isoThree":"USA","numberCode":840,"createDate":"2012-01-03 02:41:33"}},{"id":"udDKeL","name":"Main Brewery","locality":"McLaren Vale","region":"South Australia","postalCode":"5172","phone":"+61 1300 682 337","website":"http://www.mvbeer.com","latitude":-35.211062,"longitude":138.532265,"isPrimary":"Y","inPlanning":"N","isClosed":"N","openToPublic":"Y","locationType":"micro","locationTypeDisplay":"Micro Brewery","countryIsoCode":"AU","yearOpened":"2008","status":"verified","statusDisplay":"Verified","createDate":"2014-02-15 12:27:13","updateDate":"2014-07-23 19:11:34","country":{"isoCode":"AU","name":"AUSTRALIA","displayName":"Australia","isoThree":"AUS","numberCode":36,"createDate":"2012-01-03 02:41:33"}},{"id":"qTom9U","name":"Main Brewery","streetAddress":"Mytishchi Volkovskoye Shosse, 12","region":"Moscow Region","postalCode":"141006","phone":"+7 (495) 788 54 33","website":"http://www.mosbrew.ru/","latitude":55.9300547,"longitude":37.7225856,"isPrimary":"Y","inPlanning":"N","isClosed":"N","openToPublic":"Y","locationType":"micro","locationTypeDisplay":"Micro Brewery","countryIsoCode":"RU","status":"verified","statusDisplay":"Verified","createDate":"2014-04-14 08:44:54","updateDate":"2014-07-23 19:11:34","country":{"isoCode":"RU","name":"RUSSIAN FEDERATION","displayName":"Russian Federation","isoThree":"RUS","numberCode":643,"createDate":"2012-01-03 02:41:33"}},{"id":"ZJPZPc","name":"Main Brewery","streetAddress":"2055 Thibodo Rd","extendedAddress":"Suite H.","locality":"Vista","region":"California","postalCode":"92081","phone":"760-599-4225","website":"http://www.motherearthbrewco.com/","hoursOfOperation":"Retail Store\t\r\nSun: 12pm to 5:30pm\r\nMon: Closed\r\nTues: Closed\r\nWed: 11am to 7pm\r\nThurs: 11am to 8pm\r\nFri: 11am to 8pm\r\nSat: 12pm to 5:30pm\r\n\r\nTasting Room\r\nSun: 12pm to 5pm\r\nMon: Closed\r\nTues: Closed\r\nWed: Closed\r\nThurs: 4pm to 8pm\r\nFri: 4pm to 8pm\r\nSat: 12pm to 5pm","latitude":33.1682803,"longitude":-117.2198359,"isPrimary":"Y","inPlanning":"N","isClosed":"N","openToPublic":"Y","locationType":"micro","locationTypeDisplay":"Micro Brewery","countryIsoCode":"US","yearOpened":"2008","status":"verified","statusDisplay":"Verified","createDate":"2012-01-03 02:42:02","updateDate":"2014-07-23 19:11:34","country":{"isoCode":"US","name":"UNITED STATES","displayName":"United States","isoThree":"USA","numberCode":840,"createDate":"2012-01-03 02:41:33"}},{"id":"R59V2j","name":"Main Brewery","streetAddress":"8564 Greenwood Ave N","locality":"Seattle","region":"Washington","postalCode":"98103","phone":"206-838-6299","website":"http://www.nakedcitybrewing.com/","latitude":47.691833,"longitude":-122.35509,"isPrimary":"Y","inPlanning":"N","isClosed":"N","openToPublic":"Y","locationType":"micro","locationTypeDisplay":"Micro Brewery","countryIsoCode":"US","status":"verified","statusDisplay":"Verified","createDate":"2012-01-03 02:42:03","updateDate":"2014-07-23 19:11:34","country":{"isoCode":"US","name":"UNITED STATES","displayName":"United States","isoThree":"USA","numberCode":840,"createDate":"2012-01-03 02:41:33"}},{"id":"WflXnu","name":"Main Brewery","streetAddress":"1 Executive Way","locality":"Napa","region":"California","postalCode":"94558","phone":"707-255-2912","website":"http://www.napasmithbrewery.com/","hoursOfOperation":"Mon - Sun: 11:00 am - 8:00 pm","latitude":38.224348,"longitude":-122.256794,"isPrimary":"Y","inPlanning":"N","isClosed":"N","openToPublic":"Y","locationType":"micro","locationTypeDisplay":"Micro Brewery","countryIsoCode":"US","yearOpened":"2008","status":"verified","statusDisplay":"Verified","createDate":"2012-01-03 02:42:03","updateDate":"2014-07-23 19:11:34","country":{"isoCode":"US","name":"UNITED STATES","displayName":"United States","isoThree":"USA","numberCode":840,"createDate":"2012-01-03 02:41:33"}},{"id":"4DRoMy","name":"Main Brewery","streetAddress":"3980 Broadway","extendedAddress":"Ste. 103 – PMB 116","locality":"Boulder","region":"Colorado","postalCode":"80304","phone":"303-842-5656","website":"http://newplanetbeer.com/","latitude":40.0476644,"longitude":-105.2820644,"isPrimary":"Y","inPlanning":"N","isClosed":"N","openToPublic":"Y","locationType":"micro","locationTypeDisplay":"Micro Brewery","countryIsoCode":"US","yearOpened":"2008","status":"verified","statusDisplay":"Verified","createDate":"2012-01-03 02:42:03","updateDate":"2014-07-23 19:11:34","country":{"isoCode":"US","name":"UNITED STATES","displayName":"United States","isoThree":"USA","numberCode":840,"createDate":"2012-01-03 02:41:33"}},{"id":"2tcnZ7","name":"Main Brewery","streetAddress":"3001 Tchoupitoulas Street","locality":"New Orleans","region":"Louisiana","postalCode":"70115","phone":"504-613-7727","website":"http://www.nolabrewing.com/","latitude":29.919979,"longitude":-90.08136,"isPrimary":"Y","inPlanning":"N","isClosed":"N","openToPublic":"Y","locationType":"micro","locationTypeDisplay":"Micro Brewery","countryIsoCode":"US","yearOpened":"2008","status":"verified","statusDisplay":"Verified","createDate":"2012-01-03 02:42:03","updateDate":"2014-10-22 20:42:08","country":{"isoCode":"US","name":"UNITED STATES","displayName":"United States","isoThree":"USA","numberCode":840,"createDate":"2012-01-03 02:41:33"}},{"id":"9s770G","name":"Main Brewery","streetAddress":"Michaelstraße 75-77","locality":"Neuss","region":"North Rhine-Westphalia","postalCode":"41460","latitude":51.196292,"longitude":6.694103,"isPrimary":"Y","inPlanning":"N","isClosed":"N","openToPublic":"Y","locationType":"micro","locationTypeDisplay":"Micro Brewery","countryIsoCode":"DE","status":"verified","statusDisplay":"Verified","createDate":"2012-08-16 14:19:14","updateDate":"2014-07-23 19:11:34","country":{"isoCode":"DE","name":"GERMANY","displayName":"Germany","isoThree":"DEU","numberCode":276,"createDate":"2012-01-03 02:41:33"}},{"id":"AjY30i","name":"Main Brewery","locality":"Chicago","region":"Illinois","postalCode":"60647","latitude":41.9215421,"longitude":-87.7024817,"isPrimary":"Y","inPlanning":"Y","isClosed":"N","openToPublic":"Y","locationType":"micro","locationTypeDisplay":"Micro Brewery","countryIsoCode":"US","status":"verified","statusDisplay":"Verified","createDate":"2013-05-11 01:05:58","updateDate":"2014-07-23 19:11:34","country":{"isoCode":"US","name":"UNITED STATES","displayName":"United States","isoThree":"USA","numberCode":840,"createDate":"2012-01-03 02:41:33"}},{"id":"A7Nqfu","name":"Main Brewery","streetAddress":"282 Mill Street","locality":"Danville","region":"Pennsylvania","postalCode":"17821","phone":"570-275-8151","website":"http://www.oldforgebrewingcompany.com/","latitude":40.962219,"longitude":-76.6175198,"isPrimary":"Y","inPlanning":"N","isClosed":"N","openToPublic":"Y","locationType":"brewpub","locationTypeDisplay":"Brewpub","countryIsoCode":"US","yearOpened":"2008","status":"verified","statusDisplay":"Verified","createDate":"2012-01-03 02:42:04","updateDate":"2014-07-23 19:11:34","country":{"isoCode":"US","name":"UNITED STATES","displayName":"United States","isoThree":"USA","numberCode":840,"createDate":"2012-01-03 02:41:33"}},{"id":"8bdJml","name":"Main Brewery","streetAddress":"P.O. Box 426037","locality":"Cambridge","region":"Massachusetts","postalCode":"02142","phone":"617-666-1650","website":"http://www.prettythingsbeertoday.com/","latitude":42.366235,"longitude":-71.080849,"isPrimary":"Y","inPlanning":"N","isClosed":"N","openToPublic":"N","locationType":"micro","locationTypeDisplay":"Micro Brewery","countryIsoCode":"US","status":"verified","statusDisplay":"Verified","createDate":"2012-01-03 02:42:06","updateDate":"2014-07-23 19:11:34","country":{"isoCode":"US","name":"UNITED STATES","displayName":"United States","isoThree":"USA","numberCode":840,"createDate":"2012-01-03 02:41:33"}},{"id":"zYnkF4","name":"Main Brewery","streetAddress":"305 Ash St.","locality":"Jefferson City","region":"Missouri","postalCode":"65101","phone":"573-635-0678","website":"http://www.prisonbrews.com/","latitude":38.568645,"longitude":-92.161533,"isPrimary":"Y","inPlanning":"N","isClosed":"N","openToPublic":"Y","locationType":"brewpub","locationTypeDisplay":"Brewpub","countryIsoCode":"US","yearOpened":"2008","status":"verified","statusDisplay":"Verified","createDate":"2012-01-03 02:42:06","updateDate":"2014-07-23 19:11:34","country":{"isoCode":"US","name":"UNITED STATES","displayName":"United States","isoThree":"USA","numberCode":840,"createDate":"2012-01-03 02:41:33"}},{"id":"bDjAl6","name":"Main Brewery","streetAddress":"95 Riviera Drive","locality":"Bellevue","region":"Kentucky","postalCode":"41073","website":"http://quaffbrosbeer.com","latitude":39.100314,"longitude":-84.487595,"isPrimary":"Y","inPlanning":"N","isClosed":"N","openToPublic":"Y","locationType":"micro","locationTypeDisplay":"Micro Brewery","countryIsoCode":"US","status":"verified","statusDisplay":"Verified","createDate":"2014-02-27 13:02:24","updateDate":"2014-07-23 19:11:34","country":{"isoCode":"US","name":"UNITED STATES","displayName":"United States","isoThree":"USA","numberCode":840,"createDate":"2012-01-03 02:41:33"}},{"id":"H9DNhP","name":"Main Brewery","streetAddress":"612 Washington Street","locality":"Wausau","region":"Washington","postalCode":"54403","phone":"715-843-7334","website":"http://www.redeyebrewing.com/","latitude":44.958679,"longitude":-89.623231,"isPrimary":"Y","inPlanning":"N","isClosed":"N","openToPublic":"Y","locationType":"micro","locationTypeDisplay":"Micro Brewery","countryIsoCode":"US","yearOpened":"2008","status":"verified","statusDisplay":"Verified","createDate":"2012-01-03 02:42:06","updateDate":"2014-07-23 19:11:34","country":{"isoCode":"US","name":"UNITED STATES","displayName":"United States","isoThree":"USA","numberCode":840,"createDate":"2012-01-03 02:41:33"}},{"id":"d2nhC0","name":"Dempsey","streetAddress":"Block 25A Dempsey Rd","extendedAddress":"01-01","locality":"Singapore","region":"Singapore","postalCode":"247691","phone":"+65-6475-0500","website":"http://www.reddotbrewhouse.com.sg/","latitude":1.306095,"longitude":103.811631,"isPrimary":"Y","inPlanning":"N","isClosed":"N","openToPublic":"Y","locationType":"micro","locationTypeDisplay":"Micro Brewery","countryIsoCode":"SG","yearOpened":"2008","status":"verified","statusDisplay":"Verified","createDate":"2014-02-02 00:37:08","updateDate":"2014-07-23 19:11:34","country":{"isoCode":"SG","name":"SINGAPORE","displayName":"Singapore","isoThree":"SGP","numberCode":702,"createDate":"2012-01-03 02:41:33"}},{"id":"JUjEnp","name":"Main Brewery","streetAddress":"Reiterweg 15","locality":"Mainz-Ebersheim","region":"Rheinland-Pfalz","postalCode":"D-55129","latitude":49.917307,"longitude":8.245108,"isPrimary":"N","inPlanning":"N","isClosed":"N","openToPublic":"Y","locationType":"micro","locationTypeDisplay":"Micro Brewery","countryIsoCode":"DE","status":"verified","statusDisplay":"Verified","createDate":"2012-08-12 14:45:46","updateDate":"2014-07-23 19:11:34","country":{"isoCode":"DE","name":"GERMANY","displayName":"Germany","isoThree":"DEU","numberCode":276,"createDate":"2012-01-03 02:41:33"}},{"id":"8uxJKW","name":"Main Brewery","streetAddress":"412 Park Avenue","locality":"Rifle","region":"Colorado","postalCode":"81650","phone":"970-625-2085","website":"http://www.riflebrew.com/","hoursOfOperation":"Monday thru Thursday: 5 PM - 9 PM\r\nFriday thru Saturday: 5 PM - 9:30 PM","latitude":39.5327569,"longitude":-107.786678,"isPrimary":"Y","inPlanning":"N","isClosed":"N","openToPublic":"Y","locationType":"micro","locationTypeDisplay":"Micro Brewery","countryIsoCode":"US","yearOpened":"2008","status":"verified","statusDisplay":"Verified","createDate":"2012-01-03 02:42:07","updateDate":"2014-07-23 19:11:34","country":{"isoCode":"US","name":"UNITED STATES","displayName":"United States","isoThree":"USA","numberCode":840,"createDate":"2012-01-03 02:41:33"}},{"id":"nN4dSc","name":"Main Brewery","streetAddress":"150 9th Street","locality":"Clarkston","region":"Washington","postalCode":"99403","phone":"509-758-8889","website":"http://www.riverportbrewing.com/","latitude":46.4249427,"longitude":-117.0495173,"isPrimary":"Y","inPlanning":"N","isClosed":"N","openToPublic":"Y","locationType":"brewpub","locationTypeDisplay":"Brewpub","countryIsoCode":"US","status":"verified","statusDisplay":"Verified","createDate":"2012-01-03 02:42:07","updateDate":"2014-07-23 19:11:34","country":{"isoCode":"US","name":"UNITED STATES","displayName":"United States","isoThree":"USA","numberCode":840,"createDate":"2012-01-03 02:41:33"}},{"id":"fBCDAf","name":"Main Brewery","streetAddress":"160 Bourke Rd","locality":"Alexandria","region":"Sydney","postalCode":"2015","phone":"+61 2 9669 3722","website":"http://www.rocksbrewing.com","latitude":-33.9186331,"longitude":151.1881408,"isPrimary":"Y","inPlanning":"N","isClosed":"N","openToPublic":"Y","locationType":"micro","locationTypeDisplay":"Micro Brewery","countryIsoCode":"AU","status":"verified","statusDisplay":"Verified","createDate":"2014-02-08 15:37:28","updateDate":"2014-07-23 19:11:34","country":{"isoCode":"AU","name":"AUSTRALIA","displayName":"Australia","isoThree":"AUS","numberCode":36,"createDate":"2012-01-03 02:41:33"}},{"id":"ImMO31","name":"Main Brewery","locality":"Rocky Point","region":"New York","postalCode":"11778","website":"http://rockypointartisanbeer.com/","latitude":40.949705,"longitude":-72.923959,"isPrimary":"Y","inPlanning":"N","isClosed":"N","openToPublic":"Y","locationType":"nano","locationTypeDisplay":"Nano Brewery","countryIsoCode":"US","yearOpened":"2008","status":"verified","statusDisplay":"Verified","createDate":"2012-01-03 02:42:07","updateDate":"2014-09-29 18:01:56","country":{"isoCode":"US","name":"UNITED STATES","displayName":"United States","isoThree":"USA","numberCode":840,"createDate":"2012-01-03 02:41:33"}},{"id":"SdlSlW","name":"Main Brewery","streetAddress":"100 Main St.","locality":"Saco","region":"Maine","postalCode":"04072","phone":"207-623-2739","hoursOfOperation":"Dining\r\nSun - Thurs: 11:30 - 9:00 pm\r\nFri - Sat:  11:30 - 10:00 pm  \r\n       \r\nBar\r\nMon - Sun: 11:30 - 1:00 am","latitude":43.4997813,"longitude":-70.4439944,"isPrimary":"Y","inPlanning":"N","isClosed":"N","openToPublic":"Y","locationType":"brewpub","locationTypeDisplay":"Brewpub","countryIsoCode":"US","yearOpened":"2008","status":"verified","statusDisplay":"Verified","createDate":"2012-01-03 02:42:07","updateDate":"2014-07-23 19:11:34","country":{"isoCode":"US","name":"UNITED STATES","displayName":"United States","isoThree":"USA","numberCode":840,"createDate":"2012-01-03 02:41:33"}},{"id":"YENVWh","name":"Main Brewery","streetAddress":"530 Mahoning Ave","extendedAddress":"Suite A","locality":"Youngstown","region":"Ohio","postalCode":"44502","phone":"330-423-3818","website":"http://rustybrew.com/","latitude":41.1023154,"longitude":-80.6570935,"isPrimary":"Y","inPlanning":"N","isClosed":"N","openToPublic":"Y","locationType":"micro","locationTypeDisplay":"Micro Brewery","countryIsoCode":"US","status":"verified","statusDisplay":"Verified","createDate":"2012-01-03 02:42:07","updateDate":"2014-07-23 19:11:34","country":{"isoCode":"US","name":"UNITED STATES","displayName":"United States","isoThree":"USA","numberCode":840,"createDate":"2012-01-03 02:41:33"}},{"id":"WuYUiq","name":"Main Brewery","streetAddress":"Unit 1 & 2 Yelverton Road","extendedAddress":"Battersea","locality":"London","region":"London","postalCode":"SW11 3QG","phone":"+44 (0) 207 228 0598","website":"http://www.sambrooksbrewery.co.uk","hoursOfOperation":"(book in advance)\r\nMonday – Thursday\r\n7pm – 8.30pm\r\n\r\nSaturdays\r\n1pm – 2.30pm\r\n3pm – 4.30pm","latitude":51.4708458,"longitude":-0.1757194,"isPrimary":"Y","inPlanning":"N","isClosed":"N","openToPublic":"Y","locationType":"micro","locationTypeDisplay":"Micro Brewery","countryIsoCode":"GB","yearOpened":"2008","status":"verified","statusDisplay":"Verified","createDate":"2012-01-03 02:42:07","updateDate":"2014-07-23 19:11:34","country":{"isoCode":"GB","name":"UNITED KINGDOM","displayName":"United Kingdom","isoThree":"GBR","numberCode":826,"createDate":"2012-01-03 02:41:33"}},{"id":"hbitec","name":"Main Brewery","streetAddress":"Schulstrasse 26","locality":"Aulendorf","region":"Baden-Württemberg","postalCode":"88326","latitude":47.950771,"longitude":9.638201,"isPrimary":"Y","inPlanning":"N","isClosed":"N","openToPublic":"Y","locationType":"micro","locationTypeDisplay":"Micro Brewery","countryIsoCode":"DE","status":"verified","statusDisplay":"Verified","createDate":"2012-08-13 11:28:19","updateDate":"2014-07-23 19:11:34","country":{"isoCode":"DE","name":"GERMANY","displayName":"Germany","isoThree":"DEU","numberCode":276,"createDate":"2012-01-03 02:41:33"}},{"id":"DWG9s4","name":"Main Brewery","streetAddress":"Bahnhofstraße 1","locality":"Selsingen","region":"Lower Saxony","postalCode":"27446","latitude":53.372404,"longitude":9.214097,"isPrimary":"Y","inPlanning":"N","isClosed":"N","openToPublic":"Y","locationType":"micro","locationTypeDisplay":"Micro Brewery","countryIsoCode":"DE","status":"verified","statusDisplay":"Verified","createDate":"2012-08-13 01:08:27","updateDate":"2014-07-23 19:11:34","country":{"isoCode":"DE","name":"GERMANY","displayName":"Germany","isoThree":"DEU","numberCode":276,"createDate":"2012-01-03 02:41:33"}},{"id":"NfnP5r","name":"Main Brewery","streetAddress":"104 Mill St.","locality":"Fawn Grove","region":"Pennsylvania","postalCode":"17321","phone":"717-382-4016","website":"http://www.southcountybrewing.com/","hoursOfOperation":"Tue - Fri:\t5:30 pm - 8:00 pm\r\nSat:\t11:00 am - 3:00 pm","latitude":39.732331,"longitude":-76.4496097,"isPrimary":"Y","inPlanning":"N","isClosed":"N","openToPublic":"Y","locationType":"micro","locationTypeDisplay":"Micro Brewery","countryIsoCode":"US","yearOpened":"2008","status":"verified","statusDisplay":"Verified","createDate":"2012-01-03 02:42:08","updateDate":"2014-07-23 19:11:34","country":{"isoCode":"US","name":"UNITED STATES","displayName":"United States","isoThree":"USA","numberCode":840,"createDate":"2012-01-03 02:41:33"}},{"id":"Yr1UcD","name":"Main Brewery","streetAddress":"1207 N FM 3083 Rd E","locality":"Conroe","region":"Texas","postalCode":"77303","phone":"936-441-2739","website":"http://www.southernstarbrewery.com/","hoursOfOperation":"We hold tours every Saturday at 1pm","latitude":30.3464,"longitude":-95.433773,"isPrimary":"Y","inPlanning":"N","isClosed":"N","openToPublic":"Y","locationType":"micro","locationTypeDisplay":"Micro Brewery","countryIsoCode":"US","yearOpened":"2008","status":"verified","statusDisplay":"Verified","createDate":"2012-01-03 02:42:08","updateDate":"2014-07-23 19:11:34","country":{"isoCode":"US","name":"UNITED STATES","displayName":"United States","isoThree":"USA","numberCode":840,"createDate":"2012-01-03 02:41:33"}},{"id":"kloFvq","name":"Main Brewery","streetAddress":"4 Boronia Place","locality":"Byron Bay","region":"New South Wales","postalCode":"2481","phone":"+61 2 6685 5173","website":"http://www.stoneandwood.com.au","latitude":-28.6344333,"longitude":153.585656,"isPrimary":"Y","inPlanning":"N","isClosed":"N","openToPublic":"Y","locationType":"micro","locationTypeDisplay":"Micro Brewery","countryIsoCode":"AU","yearOpened":"2008","status":"verified","statusDisplay":"Verified","createDate":"2014-02-08 16:03:09","updateDate":"2014-07-23 19:11:34","country":{"isoCode":"AU","name":"AUSTRALIA","displayName":"Australia","isoThree":"AUS","numberCode":36,"createDate":"2012-01-03 02:41:33"}},{"id":"KWtrr6","name":"Main Brewery","streetAddress":"135 N. College Ave","locality":"Indianapolis","region":"Indiana","postalCode":"46202","phone":"317-602-3702","website":"http://www.sunkingbrewing.com/","hoursOfOperation":"Retail Hours (Carry-out Only)\r\nTuesday - Noon - 6\r\nWednesday - Noon - 6\r\nThursday - Noon - 4\r\n\r\nTasting Hours  (Carry-out and Sampling)\r\nThursday - 4 - 7\r\nFriday - 12 - 7\r\nSaturday 1 - 4","latitude":39.7688735,"longitude":-86.1446464,"isPrimary":"Y","inPlanning":"N","isClosed":"N","openToPublic":"Y","locationType":"micro","locationTypeDisplay":"Micro Brewery","countryIsoCode":"US","yearOpened":"2008","status":"verified","statusDisplay":"Verified","createDate":"2012-01-03 02:42:09","updateDate":"2014-07-23 19:11:34","country":{"isoCode":"US","name":"UNITED STATES","displayName":"United States","isoThree":"USA","numberCode":840,"createDate":"2012-01-03 02:41:33"}},{"id":"tOP9E1","name":"Main Brewery","streetAddress":"3140 S.w. 42nd Way","locality":"Gainesville","region":"Florida","postalCode":"32608","phone":"352-505-3035","website":"http://www.swamphead.com/","hoursOfOperation":"Wednesday, Thursday, Friday: 4pm to 8pm","latitude":29.6242389,"longitude":-82.3884454,"isPrimary":"Y","inPlanning":"N","isClosed":"N","openToPublic":"Y","locationType":"micro","locationTypeDisplay":"Micro Brewery","countryIsoCode":"US","yearOpened":"2008","status":"verified","statusDisplay":"Verified","createDate":"2012-01-03 02:42:09","updateDate":"2014-07-23 19:11:34","country":{"isoCode":"US","name":"UNITED STATES","displayName":"United States","isoThree":"USA","numberCode":840,"createDate":"2012-01-03 02:41:33"}},{"id":"znahA0","name":"Main Brewery","streetAddress":"124 E Flint Street","locality":"Lake Orion","region":"Michigan","postalCode":"48362","phone":"248-459-1968","website":"http://www.thoseguysbeer.com","latitude":42.784678,"longitude":-83.238457,"isPrimary":"Y","inPlanning":"N","isClosed":"N","openToPublic":"Y","locationType":"micro","locationTypeDisplay":"Micro Brewery","countryIsoCode":"US","status":"verified","statusDisplay":"Verified","createDate":"2012-01-03 02:42:09","updateDate":"2014-07-23 19:11:34","country":{"isoCode":"US","name":"UNITED STATES","displayName":"United States","isoThree":"USA","numberCode":840,"createDate":"2012-01-03 02:41:33"}},{"id":"st9day","name":"Main Brewery","streetAddress":"715 Dunn Way","locality":"Placentia","region":"California","postalCode":"92870","phone":"714-996-6258","website":"http://www.thebruery.com/","hoursOfOperation":"Friday & Saturday: 4pm - 10pm\r\nSunday: 12pm - 6pm","latitude":33.8613833,"longitude":-117.8800107,"isPrimary":"Y","inPlanning":"N","isClosed":"N","openToPublic":"Y","locationType":"micro","locationTypeDisplay":"Micro Brewery","countryIsoCode":"US","status":"verified","statusDisplay":"Verified","createDate":"2012-01-03 02:42:10","updateDate":"2014-07-23 19:11:34","country":{"isoCode":"US","name":"UNITED STATES","displayName":"United States","isoThree":"USA","numberCode":840,"createDate":"2012-01-03 02:41:33"}},{"id":"Js6UDh","name":"Main Cidery","streetAddress":"The Cidershed","extendedAddress":"South Belton Farm","locality":"Dunbar","region":"East Lothian","postalCode":"EH42 1RG","phone":"07956655123","website":"http://www.thistlycrosscider.co.uk","latitude":55.9850363,"longitude":-2.5614933,"isPrimary":"Y","inPlanning":"N","isClosed":"N","openToPublic":"Y","locationType":"cidery","locationTypeDisplay":"Cidery","countryIsoCode":"GB","status":"verified","statusDisplay":"Verified","createDate":"2014-07-24 11:42:25","updateDate":"2014-07-24 11:42:25","country":{"isoCode":"GB","name":"UNITED KINGDOM","displayName":"United Kingdom","isoThree":"GBR","numberCode":826,"createDate":"2012-01-03 02:41:33"}},{"id":"89FEzM","name":"Lee Hill","streetAddress":"1501 Lee Hill Road No. 20","locality":"Boulder","region":"Colorado","postalCode":"80304","phone":"720-379-7528","website":"http://www.upslopebrewing.com/","hoursOfOperation":"Tue:  2:00pm - 8:00pm\nWed:  2:00pm - 8:00pm\nThu:  2:00pm - 8:00pm\nFri:  2:00pm - 9:00pm\nSat:  2:00pm - 9:00pm\n\n","latitude":40.0628561,"longitude":-105.2791958,"isPrimary":"N","inPlanning":"N","isClosed":"N","openToPublic":"Y","locationType":"tasting","locationTypeDisplay":"Tasting Room","countryIsoCode":"US","yearOpened":"2008","status":"verified","statusDisplay":"Verified","createDate":"2012-01-03 02:42:11","updateDate":"2014-08-06 11:18:03","country":{"isoCode":"US","name":"UNITED STATES","displayName":"United States","isoThree":"USA","numberCode":840,"createDate":"2012-01-03 02:41:33"}},{"id":"ha3HrR","name":"Flatiron Park","streetAddress":"1898 S. Flatiron Court","locality":"Boulder","region":"Colorado","postalCode":"80301","phone":"303-396-1898","website":"http://upslopebrewing.com/","hoursOfOperation":"MONDAY-SUNDAY: 11 AM-10 PM","latitude":40.02014,"longitude":-105.217991,"isPrimary":"Y","inPlanning":"N","isClosed":"N","openToPublic":"Y","locationType":"tasting","locationTypeDisplay":"Tasting Room","countryIsoCode":"US","status":"verified","statusDisplay":"Verified","createDate":"2013-07-30 19:47:21","updateDate":"2014-07-23 19:11:34","country":{"isoCode":"US","name":"UNITED STATES","displayName":"United States","isoThree":"USA","numberCode":840,"createDate":"2012-01-03 02:41:33"}},{"id":"JKTKVi","name":"Main Brewery","locality":"Pearland","region":"Texas","website":"http://www.vallensons.com/","latitude":29.550935,"longitude":-95.256869,"isPrimary":"Y","inPlanning":"N","isClosed":"N","openToPublic":"Y","locationType":"nano","locationTypeDisplay":"Nano Brewery","countryIsoCode":"US","yearOpened":"2008","status":"verified","statusDisplay":"Verified","createDate":"2012-01-03 02:42:11","updateDate":"2014-07-23 19:11:34","country":{"isoCode":"US","name":"UNITED STATES","displayName":"United States","isoThree":"USA","numberCode":840,"createDate":"2012-01-03 02:41:33"}},{"id":"UVhQ24","name":"Main Brewery","streetAddress":"21420 Northwest Nicholas Court","locality":"Hillsboro","region":"Oregon","postalCode":"97124","phone":"503-645-6644","website":"http://www.vertigobrew.com/","latitude":45.5316652,"longitude":-122.895556,"isPrimary":"Y","inPlanning":"N","isClosed":"N","openToPublic":"Y","locationType":"micro","locationTypeDisplay":"Micro Brewery","countryIsoCode":"US","yearOpened":"2008","status":"verified","statusDisplay":"Verified","createDate":"2012-01-03 02:42:11","updateDate":"2014-07-23 19:11:34","country":{"isoCode":"US","name":"UNITED STATES","displayName":"United States","isoThree":"USA","numberCode":840,"createDate":"2012-01-03 02:41:33"}},{"id":"K92pgW","name":"Main Brewery","streetAddress":"610 Bank St","locality":"Wallace","region":"Idaho","postalCode":"83873","phone":"208-660-3430","website":"http://www.wallacebrewing.com/","latitude":47.4715892,"longitude":-115.9235097,"isPrimary":"Y","inPlanning":"N","isClosed":"N","openToPublic":"Y","locationType":"micro","locationTypeDisplay":"Micro Brewery","countryIsoCode":"US","status":"verified","statusDisplay":"Verified","createDate":"2012-01-03 02:42:12","updateDate":"2014-07-23 19:11:34","country":{"isoCode":"US","name":"UNITED STATES","displayName":"United States","isoThree":"USA","numberCode":840,"createDate":"2012-01-03 02:41:33"}},{"id":"zxqbS7","name":"Main Brewery","streetAddress":"Waterway Drive","locality":"Pfafftown","region":"North Carolina","postalCode":"27040","phone":"336-656-6827","website":"http://waterwaybrewing.com","latitude":36.16011,"longitude":-80.357784,"isPrimary":"Y","inPlanning":"Y","isClosed":"N","openToPublic":"Y","locationType":"micro","locationTypeDisplay":"Micro Brewery","countryIsoCode":"US","yearOpened":"2008","status":"verified","statusDisplay":"Verified","createDate":"2012-06-15 20:34:25","updateDate":"2014-07-23 19:11:34","country":{"isoCode":"US","name":"UNITED STATES","displayName":"United States","isoThree":"USA","numberCode":840,"createDate":"2012-01-03 02:41:33"}},{"id":"cAAw95","name":"Main Office","streetAddress":"Højmosevej 42","locality":"2400 København NV","region":"København","phone":"+45 23 84 73 62","website":"http://www.xbeeriment.dk/","latitude":38.502045,"longitude":-117.022583,"isPrimary":"Y","inPlanning":"N","isClosed":"N","openToPublic":"N","locationType":"office","locationTypeDisplay":"Office","countryIsoCode":"DK","yearOpened":"2008","status":"verified","statusDisplay":"Verified","createDate":"2012-03-06 19:15:33","updateDate":"2014-07-23 19:11:34","country":{"isoCode":"DK","name":"DENMARK","displayName":"Denmark","isoThree":"DNK","numberCode":208,"createDate":"2012-01-03 02:41:33"}},{"id":"kH2X3V","name":"Main Brewery","streetAddress":"8665 N Sheridan Bvld","locality":"Westminster","region":"Colorado","postalCode":"80003","phone":"303-426-1976","website":"http://www.theyakandyeti.com/","latitude":39.8536985,"longitude":-105.0529843,"isPrimary":"N","inPlanning":"N","isClosed":"N","openToPublic":"Y","locationType":"restaurant","locationTypeDisplay":"Restaurant/Ale House","countryIsoCode":"US","yearOpened":"2001","status":"verified","statusDisplay":"Verified","createDate":"2012-01-03 02:42:13","updateDate":"2014-07-23 19:11:34","country":{"isoCode":"US","name":"UNITED STATES","displayName":"United States","isoThree":"USA","numberCode":840,"createDate":"2012-01-03 02:41:33"}},{"id":"RzRrsp","name":"Main Brewery","streetAddress":"7803 Ralston Road","locality":"Arvada","region":"Colorado","postalCode":"80002","phone":"303-431-9000","website":"http://www.theyakandyeti.com/","hoursOfOperation":"Mon - Sat: 11:00 am - 9:30 pm\r\nSun: 11:00 am - 9:00 pm","latitude":39.802325,"longitude":-105.084091,"isPrimary":"Y","inPlanning":"N","isClosed":"N","openToPublic":"Y","locationType":"brewpub","locationTypeDisplay":"Brewpub","countryIsoCode":"US","yearOpened":"2008","status":"verified","statusDisplay":"Verified","createDate":"2012-01-03 02:42:16","updateDate":"2014-07-23 19:11:34","country":{"isoCode":"US","name":"UNITED STATES","displayName":"United States","isoThree":"USA","numberCode":840,"createDate":"2012-01-03 02:41:33"}},{"id":"b80J5o","name":"Main Brewery","region":"Wellington","phone":"(27) 4186639","website":"http://www.yeastieboys.co.nz/","latitude":-41.280515,"longitude":174.767121,"isPrimary":"Y","inPlanning":"N","isClosed":"N","openToPublic":"Y","locationType":"micro","locationTypeDisplay":"Micro Brewery","countryIsoCode":"NZ","yearOpened":"2008","status":"verified","statusDisplay":"Verified","createDate":"2012-10-22 14:00:56","updateDate":"2014-07-23 19:11:34","country":{"isoCode":"NZ","name":"NEW ZEALAND","displayName":"New Zealand","isoThree":"NZL","numberCode":554,"createDate":"2012-01-03 02:41:33"}}]