[{"id":"huKquc","name":"Main Brewery","streetAddress":"413 S. Bedford St","locality":"Georgetown","region":"Delaware","postalCode":"19947","phone":"302-253-8816","website":"http://16milebrewery.com/","hoursOfOperation":"Tue:  12:00pm - 5:00pm\nWed:  12:00pm - 5:00pm\nThu:  12:00pm - 5:00pm\nFri:  11:00am - 7:00pm\nSat:  11:00am - 5:00pm\n\n","latitude":38.678286,"longitude":-75.378445,"isPrimary":"Y","inPlanning":"N","isClosed":"N","openToPublic":"Y","locationType":"micro","locationTypeDisplay":"Micro Brewery","countryIsoCode":"US","yearOpened":"2009","status":"verified","statusDisplay":"Verified","createDate":"2012-01-03 02:41:43","updateDate":"2014-07-23 19:38:18","country":{"isoCode":"US","name":"UNITED STATES","displayName":"United States","isoThree":"USA","numberCode":840,"createDate":"2012-01-03 02:41:33"}},{"id":"KE3f43","name":"Main Brewery","streetAddress":"7811 Ne 205th Street","locality":"Kenmore","region":"Washington","postalCode":"98028","phone":"253-232-0928","website":"http://www.192brewing.com/","hoursOfOperation":"Mon:  4:00pm - 10:00pm\nTue:  4:00pm - 10:00pm\nWed:  4:00pm - 10:00pm\nThu:  4:00pm - 10:00pm\nFri:  12:00pm - 10:00pm\nSat:  12:00pm - 10:00pm\nSun:  12:00pm - 7:00pm\n\n","latitude":47.776554,"longitude":-122.2351,"isPrimary":"Y","inPlanning":"N","isClosed":"N","openToPublic":"Y","locationType":"micro","locationTypeDisplay":"Micro Brewery","countryIsoCode":"US","yearOpened":"2009","status":"verified","statusDisplay":"Verified","createDate":"2012-01-03 02:41:43","updateDate":"2014-07-23 19:38:19","country":{"isoCode":"US","name":"UNITED STATES","displayName":"United States","isoThree":"USA","numberCode":840,"createDate":"2012-01-03 02:41:33"}},{"id":"IeU7pq","name":"The Lake Trail Taproom","streetAddress":"7324 NE 175th Street","locality":"Kenmore","region":"Washington","postalCode":"98028","phone":"(425) 424-2337","website":"http://www.192brewing.com/","hoursOfOperation":"Mon:  4:00pm - 10:00pm\nTue:  4:00pm - 10:00pm\nWed:  4:00pm - 10:00pm\nThu:  4:00pm - 10:00pm\nFri:  12:00pm - 12:00am\nSat:  12:00pm - 12:00am\nSun:  12:00pm - 8:00pm\n\n","latitude":47.7566065,"longitude":-122.2424505,"isPrimary":"N","inPlanning":"N","isClosed":"N","openToPublic":"Y","locationType":"tasting","locationTypeDisplay":"Tasting Room","countryIsoCode":"US","yearOpened":"2012","status":"verified","statusDisplay":"Verified","createDate":"2013-03-20 21:44:46","updateDate":"2014-07-23 19:38:20","country":{"isoCode":"US","name":"UNITED STATES","displayName":"United States","isoThree":"USA","numberCode":840,"createDate":"2012-01-03 02:41:33"}},{"id":"pdLPeS","name":"Main Brewery","extendedAddress":"PO Box 1184","locality":"Blenheim","postalCode":"7201","phone":"(21) 0329162","website":"http://www.8wired.co.nz/","latitude":-41.542801,"longitude":173.957169,"isPrimary":"Y","inPlanning":"N","isClosed":"N","openToPublic":"Y","locationType":"micro","locationTypeDisplay":"Micro Brewery","countryIsoCode":"NZ","yearOpened":"2009","status":"verified","statusDisplay":"Verified","createDate":"2012-01-03 02:41:43","updateDate":"2014-07-23 19:11:34","country":{"isoCode":"NZ","name":"NEW ZEALAND","displayName":"New Zealand","isoThree":"NZL","numberCode":554,"createDate":"2012-01-03 02:41:33"}},{"id":"UMdKmQ","name":"Main Brewery","streetAddress":"Bad Wilsnacker Straße 52","region":"Wittenberge","postalCode":"D-19322","phone":"+49 (0)3877","hoursOfOperation":"Open Wednesday-Sunday at 11:00am","isPrimary":"Y","inPlanning":"N","isClosed":"N","openToPublic":"Y","locationType":"brewpub","locationTypeDisplay":"Brewpub","countryIsoCode":"DE","yearOpened":"2009","status":"verified","statusDisplay":"Verified","createDate":"2012-08-10 13:14:34","updateDate":"2014-09-29 20:33:26","country":{"isoCode":"DE","name":"GERMANY","displayName":"Germany","isoThree":"DEU","numberCode":276,"createDate":"2012-01-03 02:41:33"}},{"id":"2DdatF","name":"Main Brewery","streetAddress":"Apothekerstraße 1","locality":"Jever","region":"Lower Saxony","postalCode":"26441","latitude":53.574005,"longitude":7.903278,"isPrimary":"N","inPlanning":"N","isClosed":"N","openToPublic":"Y","locationType":"micro","locationTypeDisplay":"Micro Brewery","countryIsoCode":"DE","status":"verified","statusDisplay":"Verified","createDate":"2012-08-12 14:46:11","updateDate":"2014-07-23 19:11:34","country":{"isoCode":"DE","name":"GERMANY","displayName":"Germany","isoThree":"DEU","numberCode":276,"createDate":"2012-01-03 02:41:33"}},{"id":"gtppeW","name":"Main Brewery","streetAddress":"4699 Nautilus Court","extendedAddress":"Suite 104","locality":"Boulder","region":"Colorado","postalCode":"80301","phone":"303-530-1381","website":"http://asherbrewing.com/","hoursOfOperation":"Sat:  2:00pm - 10:00pm\nSun:  2:00pm - 10:00pm\nThu:  2:00pm - 12:00am\nFri:  2:00pm - 12:00am\n\nTap Room Hours:\r\nSat-Wed  2pm-10pm\r\nThurs/Fri 2pm - 12am","latitude":40.059769,"longitude":-105.2059084,"isPrimary":"Y","inPlanning":"N","isClosed":"N","openToPublic":"Y","locationType":"micro","locationTypeDisplay":"Micro Brewery","countryIsoCode":"US","yearOpened":"2009","status":"verified","statusDisplay":"Verified","createDate":"2012-01-03 02:41:44","updateDate":"2014-09-29 20:33:31","country":{"isoCode":"US","name":"UNITED STATES","displayName":"United States","isoThree":"USA","numberCode":840,"createDate":"2012-01-03 02:41:33"}},{"id":"lAcrbq","name":"Main Brewery","streetAddress":"200 North 6th St.","locality":"Gadsden","region":"Alabama","postalCode":"35901","phone":"256-467-4912","website":"http://www.backfortybeer.com/","latitude":34.015484,"longitude":-86.005585,"isPrimary":"Y","inPlanning":"N","isClosed":"N","openToPublic":"Y","locationType":"micro","locationTypeDisplay":"Micro Brewery","countryIsoCode":"US","yearOpened":"2009","status":"verified","statusDisplay":"Verified","createDate":"2012-01-03 02:41:44","updateDate":"2014-07-23 19:11:34","country":{"isoCode":"US","name":"UNITED STATES","displayName":"United States","isoThree":"USA","numberCode":840,"createDate":"2012-01-03 02:41:33"}},{"id":"ERW6Da","name":"Main Brewery","locality":"Boston","region":"Massachusetts","website":"http://www.BacklashBeer.com/","latitude":42.3584308,"longitude":-71.0597732,"isPrimary":"Y","inPlanning":"N","isClosed":"N","openToPublic":"Y","locationType":"micro","locationTypeDisplay":"Micro Brewery","countryIsoCode":"US","yearOpened":"2009","status":"verified","statusDisplay":"Verified","createDate":"2012-01-03 02:41:44","updateDate":"2014-09-07 17:53:04","country":{"isoCode":"US","name":"UNITED STATES","displayName":"United States","isoThree":"USA","numberCode":840,"createDate":"2012-01-03 02:41:33"}},{"id":"Kqhe9Z","name":"Main Brewery","streetAddress":"3865 Lawson Blvd","locality":"Oceanside","region":"New York","postalCode":"11572","phone":"516-316-4429","website":"http://www.barrierbrewing.com/","latitude":40.6211618,"longitude":-73.6502941,"isPrimary":"Y","inPlanning":"N","isClosed":"N","openToPublic":"Y","locationType":"micro","locationTypeDisplay":"Micro Brewery","countryIsoCode":"US","yearOpened":"2009","status":"verified","statusDisplay":"Verified","createDate":"2012-01-03 02:41:45","updateDate":"2014-07-23 19:11:34","country":{"isoCode":"US","name":"UNITED STATES","displayName":"United States","isoThree":"USA","numberCode":840,"createDate":"2012-01-03 02:41:33"}},{"id":"W1vjfv","name":"Main Brewery","streetAddress":"14801 Metro Plz Blvd","locality":"Edmond","region":"Oklahoma","postalCode":"73013","phone":"405-254-5000","website":"http://www.batteredboar.com/","latitude":35.6205659,"longitude":-97.509827,"isPrimary":"Y","inPlanning":"N","isClosed":"N","openToPublic":"Y","locationType":"micro","locationTypeDisplay":"Micro Brewery","countryIsoCode":"US","status":"verified","statusDisplay":"Verified","createDate":"2012-01-03 02:41:45","updateDate":"2014-07-23 19:11:34","country":{"isoCode":"US","name":"UNITED STATES","displayName":"United States","isoThree":"USA","numberCode":840,"createDate":"2012-01-03 02:41:33"}},{"id":"8LeXpM","name":"Main Brewery","streetAddress":"108 Bridge St","locality":"Franklin","region":"Tennessee","postalCode":"37064","phone":"615-790-1108","website":"http://www.battlegroundbrewery.com/","latitude":35.92788,"longitude":-86.867668,"isPrimary":"Y","inPlanning":"N","isClosed":"Y","openToPublic":"N","locationType":"micro","locationTypeDisplay":"Micro Brewery","countryIsoCode":"US","yearOpened":"2009","status":"verified","statusDisplay":"Verified","createDate":"2012-01-03 02:41:45","updateDate":"2014-07-23 19:11:34","country":{"isoCode":"US","name":"UNITED STATES","displayName":"United States","isoThree":"USA","numberCode":840,"createDate":"2012-01-03 02:41:33"}},{"id":"vqbRV9","name":"Main Brewery","streetAddress":"1002 Noth Lane","locality":"Arnaudville","region":"Louisiana","postalCode":"70512","phone":"(337) 303-8000","website":"http://bayoutechebrewing.blogspot.com/","latitude":30.3691322,"longitude":-91.9883172,"isPrimary":"Y","inPlanning":"N","isClosed":"N","openToPublic":"Y","locationType":"micro","locationTypeDisplay":"Micro Brewery","countryIsoCode":"US","status":"verified","statusDisplay":"Verified","createDate":"2012-01-03 02:41:45","updateDate":"2014-07-23 19:11:34","country":{"isoCode":"US","name":"UNITED STATES","displayName":"United States","isoThree":"USA","numberCode":840,"createDate":"2012-01-03 02:41:33"}},{"id":"g36vvp","name":"Main Brewery","streetAddress":"3760 Quaker Road","locality":"Gasport","region":"New York","postalCode":"14067","phone":"716-772-2211","hoursOfOperation":"Open Daily Noon to 6 pm, Saturday 11am to 6pm","latitude":43.22406,"longitude":-78.560716,"isPrimary":"Y","inPlanning":"N","isClosed":"N","openToPublic":"Y","locationType":"micro","locationTypeDisplay":"Micro Brewery","countryIsoCode":"US","yearOpened":"2009","status":"verified","statusDisplay":"Verified","createDate":"2012-08-01 12:31:43","updateDate":"2014-07-23 19:11:34","country":{"isoCode":"US","name":"UNITED STATES","displayName":"United States","isoThree":"USA","numberCode":840,"createDate":"2012-01-03 02:41:33"}},{"id":"0vxydH","name":"Main Brewery","streetAddress":"4517 North Oakland Avenue","locality":"Milwaukee","region":"Wisconsin","postalCode":"53211","phone":"888-964-2869","website":"http://www.bigbaybrewing.com/","hoursOfOperation":"Tue - Wed: 4:00 pm - 7:00 pm\r\nThu:\t12:00 pm - 8:00 pm\r\nFri - Sat: 12:00 pm - 9:00 pm\r\nSun: 12:00 pm - 4:00 pm","latitude":43.0987742,"longitude":-87.8875605,"isPrimary":"Y","inPlanning":"N","isClosed":"N","openToPublic":"Y","locationType":"micro","locationTypeDisplay":"Micro Brewery","countryIsoCode":"US","yearOpened":"2009","status":"verified","statusDisplay":"Verified","createDate":"2012-01-03 02:41:46","updateDate":"2014-07-23 19:11:34","country":{"isoCode":"US","name":"UNITED STATES","displayName":"United States","isoThree":"USA","numberCode":840,"createDate":"2012-01-03 02:41:33"}},{"id":"QkdgSV","name":"Main Brewery","streetAddress":"1430 North 7th Street","locality":"Murphysboro","region":"Illinois","postalCode":"62966","phone":"(618) 684-8833","website":"http://www.bigmuddybrewing.com/","hoursOfOperation":"Sat: 11:00 am - 3:00 pm\r\n`","latitude":37.7823381,"longitude":-89.3321145,"isPrimary":"Y","inPlanning":"N","isClosed":"N","openToPublic":"Y","locationType":"micro","locationTypeDisplay":"Micro Brewery","countryIsoCode":"US","yearOpened":"2009","status":"verified","statusDisplay":"Verified","createDate":"2012-01-03 02:41:46","updateDate":"2014-07-23 19:11:34","country":{"isoCode":"US","name":"UNITED STATES","displayName":"United States","isoThree":"USA","numberCode":840,"createDate":"2012-01-03 02:41:33"}},{"id":"sw14Qc","name":"Main Brewery","locality":"Chicago","region":"Illinios","website":"http://www.bigshouldersbeer.com/","latitude":41.884151,"longitude":-87.632408,"isPrimary":"Y","inPlanning":"Y","isClosed":"N","openToPublic":"N","locationType":"micro","locationTypeDisplay":"Micro Brewery","countryIsoCode":"US","status":"verified","statusDisplay":"Verified","createDate":"2012-03-27 00:47:32","updateDate":"2014-07-23 19:11:34","country":{"isoCode":"US","name":"UNITED STATES","displayName":"United States","isoThree":"USA","numberCode":840,"createDate":"2012-01-03 02:41:33"}},{"id":"EFaa8I","name":"Main Brewery","streetAddress":"2222 4th St.","locality":"White Bear Lake","region":"Minnesota","postalCode":"55110","phone":"612-360-2986","latitude":45.0853875,"longitude":-93.006888,"isPrimary":"Y","inPlanning":"N","isClosed":"N","openToPublic":"Y","locationType":"micro","locationTypeDisplay":"Micro Brewery","countryIsoCode":"US","status":"verified","statusDisplay":"Verified","createDate":"2012-01-03 02:41:46","updateDate":"2014-07-23 19:11:34","country":{"isoCode":"US","name":"UNITED STATES","displayName":"United States","isoThree":"USA","numberCode":840,"createDate":"2012-01-03 02:41:33"}},{"id":"Iok27x","name":"Main Brewery","streetAddress":"Via del Commercio, 2","region":"Desio Monza e della Brianza","website":"http://www.birrificiorurale.it/","latitude":45.609266,"longitude":9.2214482,"isPrimary":"Y","inPlanning":"N","isClosed":"N","openToPublic":"Y","locationType":"micro","locationTypeDisplay":"Micro Brewery","countryIsoCode":"IT","status":"verified","statusDisplay":"Verified","createDate":"2014-01-26 23:49:15","updateDate":"2014-07-23 19:11:34","country":{"isoCode":"IT","name":"ITALY","displayName":"Italy","isoThree":"ITA","numberCode":380,"createDate":"2012-01-03 02:41:33"}},{"id":"xJin5h","name":"Main Brewery","streetAddress":"24 Oak Grove","locality":"Brighton","region":"Melbourne","postalCode":"3186","phone":"(3) 9596 7830","website":"http://www.blackheartbrewery.com.au/","latitude":-37.90141,"longitude":144.99986,"isPrimary":"Y","inPlanning":"N","isClosed":"N","openToPublic":"Y","locationType":"micro","locationTypeDisplay":"Micro Brewery","countryIsoCode":"AU","status":"verified","statusDisplay":"Verified","createDate":"2014-08-13 12:00:21","updateDate":"2014-08-13 12:00:21","country":{"isoCode":"AU","name":"AUSTRALIA","displayName":"Australia","isoThree":"AUS","numberCode":36,"createDate":"2012-01-03 02:41:33"}},{"id":"0QiT0E","name":"Main Brewery","streetAddress":"41740 Enterprise Circle N. #109","locality":"Temecula","postalCode":"92590","phone":"951-296-5039","website":"http://www.blackmarketbrew.com/","latitude":33.518599,"longitude":-117.169695,"isPrimary":"Y","inPlanning":"N","isClosed":"N","openToPublic":"Y","locationType":"micro","locationTypeDisplay":"Micro Brewery","countryIsoCode":"US","status":"verified","statusDisplay":"Verified","createDate":"2012-01-03 02:41:46","updateDate":"2014-07-23 19:11:34","country":{"isoCode":"US","name":"UNITED STATES","displayName":"United States","isoThree":"USA","numberCode":840,"createDate":"2012-01-03 02:41:33"}},{"id":"F4A5J6","name":"Main Brewery","streetAddress":"14679 Northeast 95th Street","locality":"Redmond","region":"Washington","postalCode":"98052","phone":"425-881-3020","website":"http://www.blackravenbrewing.com/","latitude":47.6858594,"longitude":-122.144557,"isPrimary":"Y","inPlanning":"N","isClosed":"N","openToPublic":"Y","locationType":"micro","locationTypeDisplay":"Micro Brewery","countryIsoCode":"US","yearOpened":"2009","status":"verified","statusDisplay":"Verified","createDate":"2012-01-03 02:41:46","updateDate":"2014-09-10 18:17:33","country":{"isoCode":"US","name":"UNITED STATES","displayName":"United States","isoThree":"USA","numberCode":840,"createDate":"2012-01-03 02:41:33"}},{"id":"Thbhby","name":"Main Brewery","streetAddress":"3719 Walnut Street","locality":"Denver","region":"Colorado","postalCode":"80205","phone":"720-935-1615","website":"http://www.blackshirtbrewingco.com/","hoursOfOperation":"Wed - Fri: 5:00 pm - 9:00 pm\r\nSat: 2:00 pm - 9:00 pm","latitude":39.769858,"longitude":-104.972962,"isPrimary":"Y","inPlanning":"N","isClosed":"N","openToPublic":"Y","locationType":"micro","locationTypeDisplay":"Micro Brewery","countryIsoCode":"US","status":"verified","statusDisplay":"Verified","createDate":"2012-01-03 02:41:46","updateDate":"2014-07-23 19:11:34","country":{"isoCode":"US","name":"UNITED STATES","displayName":"United States","isoThree":"USA","numberCode":840,"createDate":"2012-01-03 02:41:33"}},{"id":"j9cp5e","name":"Main Brewery","streetAddress":"2214  Highway 68","locality":"Embudo","region":"New Mexico","postalCode":"87531","phone":"505-579-9188","website":"http://www.blueheronbrews.com/","latitude":36.1770046,"longitude":-105.9713094,"isPrimary":"Y","inPlanning":"N","isClosed":"N","openToPublic":"Y","locationType":"micro","locationTypeDisplay":"Micro Brewery","countryIsoCode":"US","yearOpened":"2009","status":"verified","statusDisplay":"Verified","createDate":"2012-01-03 02:41:47","updateDate":"2014-07-23 19:11:34","country":{"isoCode":"US","name":"UNITED STATES","displayName":"United States","isoThree":"USA","numberCode":840,"createDate":"2012-01-03 02:41:33"}},{"id":"0T675A","name":"Main Brewery","streetAddress":"124 Post Road","extendedAddress":"Route #1","locality":"Wells","region":"Maine","postalCode":"04090","phone":"207-641-8489","website":"http://boonislandale.com/","hoursOfOperation":"Mon:  4:00pm - 11:00pm\nTue:  4:00pm - 11:00pm\nWed:  4:00pm - 11:00pm\nThu:  4:00pm - 11:00pm\nFri:  4:00pm - 11:00pm\nSat:  4:00pm - 11:00pm\nSun:  4:00pm - 11:00pm\n\n4pm - 11pm, Monday - Sunday","latitude":43.3222329,"longitude":-70.5805209,"isPrimary":"Y","inPlanning":"N","isClosed":"N","openToPublic":"Y","locationType":"restaurant","locationTypeDisplay":"Restaurant/Ale House","countryIsoCode":"US","status":"verified","statusDisplay":"Verified","createDate":"2012-04-19 01:36:26","updateDate":"2014-09-29 20:36:16","country":{"isoCode":"US","name":"UNITED STATES","displayName":"United States","isoThree":"USA","numberCode":840,"createDate":"2012-01-03 02:41:33"}},{"id":"d3lGhQ","name":"Main Brewery","streetAddress":"201 South Boylan Avenue","locality":"Raleigh","region":"North Carolina","postalCode":"27603","phone":"919-803-8927","website":"http://www.boylanbridge.com/","hoursOfOperation":"Monday-Thursday\r\n4:00pm - 11:00pm\r\nFriday-Sunday\r\n11:30am - Midnight","latitude":35.7784641,"longitude":-78.6490665,"isPrimary":"Y","inPlanning":"N","isClosed":"N","openToPublic":"Y","locationType":"brewpub","locationTypeDisplay":"Brewpub","countryIsoCode":"US","yearOpened":"2009","status":"verified","statusDisplay":"Verified","createDate":"2012-01-03 02:41:47","updateDate":"2014-09-29 20:36:23","country":{"isoCode":"US","name":"UNITED STATES","displayName":"United States","isoThree":"USA","numberCode":840,"createDate":"2012-01-03 02:41:33"}},{"id":"paiELr","name":"Main Brewery","streetAddress":"Bürgenstrasse 16","region":"Lucerne","postalCode":"6005","phone":"+41 41 252 00 52","website":"http://www.brauerei.lu","latitude":47.0419512,"longitude":8.3140814,"isPrimary":"Y","inPlanning":"N","isClosed":"N","openToPublic":"Y","locationType":"micro","locationTypeDisplay":"Micro Brewery","countryIsoCode":"CH","status":"verified","statusDisplay":"Verified","createDate":"2014-08-08 10:40:01","updateDate":"2014-08-08 10:40:01","country":{"isoCode":"CH","name":"SWITZERLAND","displayName":"Switzerland","isoThree":"CHE","numberCode":756,"createDate":"2012-01-03 02:41:33"}},{"id":"JzykQs","name":"Main Brewery","streetAddress":"Stiftweg 4","locality":"Heidelberg","region":"Baden-Württemberg","postalCode":"69118","latitude":49.420715,"longitude":8.742595,"isPrimary":"N","inPlanning":"N","isClosed":"N","openToPublic":"Y","locationType":"micro","locationTypeDisplay":"Micro Brewery","countryIsoCode":"DE","status":"verified","statusDisplay":"Verified","createDate":"2012-08-12 14:39:59","updateDate":"2014-07-23 19:11:34","country":{"isoCode":"DE","name":"GERMANY","displayName":"Germany","isoThree":"DEU","numberCode":276,"createDate":"2012-01-03 02:41:33"}},{"id":"kFMvGK","name":"Main Brewery","streetAddress":"Lothringerstrasse 112","locality":"Aachen","region":"North Rhine-Westphalia","postalCode":"52070","latitude":50.76939,"longitude":6.10054,"isPrimary":"Y","inPlanning":"N","isClosed":"N","openToPublic":"Y","locationType":"micro","locationTypeDisplay":"Micro Brewery","countryIsoCode":"DE","status":"verified","statusDisplay":"Verified","createDate":"2012-08-13 00:37:57","updateDate":"2014-07-23 19:11:34","country":{"isoCode":"DE","name":"GERMANY","displayName":"Germany","isoThree":"DEU","numberCode":276,"createDate":"2012-01-03 02:41:33"}},{"id":"9JWNmr","name":"Main Brewery","streetAddress":"706 S 5th St","locality":"Milwaukee","region":"Wisconsin","postalCode":"53204","phone":"(414) 465-8469","hoursOfOperation":"Fri:  5:00pm - 10:00pm\nSat:  12:00pm - 10:00pm\nSun:  12:00pm - 5:00pm\n\n","latitude":43.023945,"longitude":-87.916442,"isPrimary":"Y","inPlanning":"N","isClosed":"N","openToPublic":"Y","locationType":"micro","locationTypeDisplay":"Micro Brewery","countryIsoCode":"US","status":"verified","statusDisplay":"Verified","createDate":"2014-08-27 13:22:45","updateDate":"2014-08-27 13:22:45","country":{"isoCode":"US","name":"UNITED STATES","displayName":"United States","isoThree":"USA","numberCode":840,"createDate":"2012-01-03 02:41:33"}},{"id":"mrLL4r","name":"Main Brewery","streetAddress":"Tieltstraat 219","region":"Meulebeke","postalCode":"8760","website":"http://www.brouwerijmaenhout.be/","latitude":50.972645,"longitude":3.306413,"isPrimary":"Y","inPlanning":"N","isClosed":"N","openToPublic":"Y","locationType":"micro","locationTypeDisplay":"Micro Brewery","countryIsoCode":"BE","status":"verified","statusDisplay":"Verified","createDate":"2013-07-09 11:53:26","updateDate":"2014-07-23 19:11:34","country":{"isoCode":"BE","name":"BELGIUM","displayName":"Belgium","isoThree":"BEL","numberCode":56,"createDate":"2012-01-03 02:41:33"}},{"id":"ZDghkK","name":"Main Brewery","streetAddress":"3914 Lindell Blvd","locality":"St Louis","region":"Missouri","postalCode":"63108","website":"http://www.cathedralsquarebrewery.com/","latitude":38.63867,"longitude":-90.241772,"isPrimary":"Y","inPlanning":"N","isClosed":"N","openToPublic":"Y","locationType":"micro","locationTypeDisplay":"Micro Brewery","countryIsoCode":"US","yearOpened":"2009","status":"verified","statusDisplay":"Verified","createDate":"2012-01-03 02:41:50","updateDate":"2014-07-23 19:11:34","country":{"isoCode":"US","name":"UNITED STATES","displayName":"United States","isoThree":"USA","numberCode":840,"createDate":"2012-01-03 02:41:33"}},{"id":"Vd77zv","name":"Main Brewery","streetAddress":"Cerrada Hidalgo 8, col.","locality":"Puente de Vigas","region":"Tlalnepantla","postalCode":"54090","phone":"+52 55 5365 3685","website":"http://www.calaverabeer.com","latitude":19.5397,"longitude":-99.2219376,"isPrimary":"Y","inPlanning":"N","isClosed":"N","openToPublic":"Y","locationType":"micro","locationTypeDisplay":"Micro Brewery","countryIsoCode":"MX","yearOpened":"2009","status":"verified","statusDisplay":"Verified","createDate":"2014-02-25 12:01:28","updateDate":"2014-07-23 19:11:34","country":{"isoCode":"MX","name":"MEXICO","displayName":"Mexico","isoThree":"MEX","numberCode":484,"createDate":"2012-01-03 02:41:33"}},{"id":"lDUIRU","name":"Main Brewery","locality":"Chicago","region":"Illinois","phone":"773-244-8696","website":"http://www.chicagobeerco.com/","latitude":41.88415,"longitude":-87.632409,"isPrimary":"Y","inPlanning":"N","isClosed":"N","openToPublic":"Y","locationType":"micro","locationTypeDisplay":"Micro Brewery","countryIsoCode":"US","yearOpened":"2009","status":"verified","statusDisplay":"Verified","createDate":"2012-01-03 02:41:50","updateDate":"2014-07-23 19:11:34","country":{"isoCode":"US","name":"UNITED STATES","displayName":"United States","isoThree":"USA","numberCode":840,"createDate":"2012-01-03 02:41:33"}},{"id":"DAYWFN","name":"Main Brewery","streetAddress":"23 Hayward St.","locality":"Ipswich","region":"Massachusetts","postalCode":"01938","website":"http://www.clownshoesbeer.com/","latitude":42.672726,"longitude":-70.843912,"isPrimary":"Y","inPlanning":"N","isClosed":"N","openToPublic":"Y","locationType":"micro","locationTypeDisplay":"Micro Brewery","countryIsoCode":"US","yearOpened":"2010","status":"verified","statusDisplay":"Verified","createDate":"2012-01-03 02:41:51","updateDate":"2014-07-23 19:11:34","country":{"isoCode":"US","name":"UNITED STATES","displayName":"United States","isoThree":"USA","numberCode":840,"createDate":"2012-01-03 02:41:33"}},{"id":"KtZ4zD","name":"Main Brewery","streetAddress":"2027 13th Street","locality":"Boulder","region":"Colorado","postalCode":"80302","phone":"303-440-5858","website":"http://www.boulderdrafthouse.com/","latitude":40.0186335,"longitude":-105.2788284,"isPrimary":"Y","inPlanning":"N","isClosed":"Y","openToPublic":"Y","locationType":"micro","locationTypeDisplay":"Micro Brewery","countryIsoCode":"US","yearOpened":"2009","status":"verified","statusDisplay":"Verified","createDate":"2012-01-03 02:41:51","updateDate":"2014-07-23 19:11:34","country":{"isoCode":"US","name":"UNITED STATES","displayName":"United States","isoThree":"USA","numberCode":840,"createDate":"2012-01-03 02:41:33"}},{"id":"zLgP7J","name":"Main Brewery","streetAddress":"600A Frazier Drive","extendedAddress":"Ste 135","locality":"Franklin","region":"Tennessee","postalCode":"37067","phone":"615-503-9626","website":"http://www.coolspringsbrewery.com/","latitude":35.945358,"longitude":-86.821436,"isPrimary":"Y","inPlanning":"N","isClosed":"N","openToPublic":"Y","locationType":"micro","locationTypeDisplay":"Micro Brewery","countryIsoCode":"US","yearOpened":"2009","status":"verified","statusDisplay":"Verified","createDate":"2012-01-03 02:41:51","updateDate":"2014-07-23 19:11:34","country":{"isoCode":"US","name":"UNITED STATES","displayName":"United States","isoThree":"USA","numberCode":840,"createDate":"2012-01-03 02:41:33"}},{"id":"r7QKkQ","name":"Main Brewery","streetAddress":"197 Hilliard Avenue","locality":"Asheville","region":"North Carolina","postalCode":"28801","phone":"828-254-0360","website":"http://www.craggiebrewingco.com/","hoursOfOperation":"Hours: Wednesday-Thursday: 4-9p\r\nFriday-Saturday: 4-10p","latitude":35.5911984,"longitude":-82.5559403,"isPrimary":"Y","inPlanning":"N","isClosed":"Y","openToPublic":"Y","locationType":"micro","locationTypeDisplay":"Micro Brewery","countryIsoCode":"US","yearOpened":"2009","yearClosed":"2012","status":"verified","statusDisplay":"Verified","createDate":"2012-01-03 02:41:51","updateDate":"2014-07-23 19:11:34","country":{"isoCode":"US","name":"UNITED STATES","displayName":"United States","isoThree":"USA","numberCode":840,"createDate":"2012-01-03 02:41:33"}},{"id":"AFUMQ8","name":"Main Brewery","streetAddress":"Halmtorvet 29C","region":"Kobenhavn","postalCode":"1700","hoursOfOperation":"Tastings for a minimum of ten vary in price.","latitude":55.6678625,"longitude":12.5564938,"isPrimary":"Y","inPlanning":"N","isClosed":"N","openToPublic":"Y","locationType":"micro","locationTypeDisplay":"Micro Brewery","countryIsoCode":"DK","status":"verified","statusDisplay":"Verified","createDate":"2014-10-08 16:04:24","updateDate":"2014-10-08 16:04:24","country":{"isoCode":"DK","name":"DENMARK","displayName":"Denmark","isoThree":"DNK","numberCode":208,"createDate":"2012-01-03 02:41:33"}},{"id":"u4OLtt","name":"Main Brewery","streetAddress":"3178-B Bladensburg Rd. NE","locality":"Washington","region":"District of Columbia","postalCode":"20018","phone":"202-621-8890","website":"http://www.dcbrau.com/","hoursOfOperation":"*Hours are typically 1-4pm, Saturdays. Follow us on Facebook & Twitter for schedule changes.\r\nTours will be held at 1:30, 2:30, & 3:30.","latitude":38.929628,"longitude":-76.960438,"isPrimary":"Y","inPlanning":"N","isClosed":"N","openToPublic":"Y","locationType":"micro","locationTypeDisplay":"Micro Brewery","countryIsoCode":"US","yearOpened":"2009","status":"verified","statusDisplay":"Verified","createDate":"2012-01-03 02:41:52","updateDate":"2014-07-23 19:11:34","country":{"isoCode":"US","name":"UNITED STATES","displayName":"United States","isoThree":"USA","numberCode":840,"createDate":"2012-01-03 02:41:33"}},{"id":"h45jwd","name":"Main Brewery","streetAddress":"3018 N Oakley Ave","locality":"Chicago","region":"Illinois","postalCode":"60618","website":"http://www.doubleheartbrewing.com/","latitude":41.936447,"longitude":-87.685905,"isPrimary":"Y","inPlanning":"N","isClosed":"N","openToPublic":"Y","locationType":"micro","locationTypeDisplay":"Micro Brewery","countryIsoCode":"US","yearOpened":"2009","status":"verified","statusDisplay":"Verified","createDate":"2012-01-03 02:41:53","updateDate":"2014-07-23 19:11:34","country":{"isoCode":"US","name":"UNITED STATES","displayName":"United States","isoThree":"USA","numberCode":840,"createDate":"2012-01-03 02:41:33"}},{"id":"DXRyuX","name":"Main Brewery","streetAddress":"501 East Ohio Street","locality":"Millvale","region":"Pennsylvania","postalCode":"15209","website":"http://www.draailaag.com/","latitude":40.4785011,"longitude":-79.9685079,"isPrimary":"Y","inPlanning":"N","isClosed":"N","openToPublic":"Y","locationType":"micro","locationTypeDisplay":"Micro Brewery","countryIsoCode":"US","status":"verified","statusDisplay":"Verified","createDate":"2014-02-27 13:09:32","updateDate":"2014-07-23 19:11:34","country":{"isoCode":"US","name":"UNITED STATES","displayName":"United States","isoThree":"USA","numberCode":840,"createDate":"2012-01-03 02:41:33"}},{"id":"nTHHsc","name":"Main Brewery","streetAddress":"102 Linderman Ave","locality":"Buena Vista","region":"Colorado","postalCode":"81211","phone":"719-966-6018","website":"http://www.eddylinepub.com/","latitude":38.8405579,"longitude":-106.1326201,"isPrimary":"Y","inPlanning":"N","isClosed":"N","openToPublic":"Y","locationType":"brewpub","locationTypeDisplay":"Brewpub","countryIsoCode":"US","yearOpened":"1999","status":"verified","statusDisplay":"Verified","createDate":"2012-01-03 02:41:53","updateDate":"2014-10-06 15:32:53","country":{"isoCode":"US","name":"UNITED STATES","displayName":"United States","isoThree":"USA","numberCode":840,"createDate":"2012-01-03 02:41:33"}},{"id":"0DpNPW","name":"Main Brewery","streetAddress":"11/1 Marina Close","region":"Mt Kuringai","postalCode":"2080","phone":"0407224850","website":"http://www.ekimbrewing.com.au/","latitude":-33.642707,"longitude":151.134071,"isPrimary":"Y","inPlanning":"N","isClosed":"N","openToPublic":"Y","locationType":"micro","locationTypeDisplay":"Micro Brewery","countryIsoCode":"AU","yearOpened":"2009","status":"verified","statusDisplay":"Verified","createDate":"2014-02-18 11:39:08","updateDate":"2014-07-23 19:11:34","country":{"isoCode":"AU","name":"AUSTRALIA","displayName":"Australia","isoThree":"AUS","numberCode":36,"createDate":"2012-01-03 02:41:33"}},{"id":"6NVw8o","name":"Main Brewery","streetAddress":"18921 East Plaza Drive","locality":"Parker","region":"Colorado","postalCode":"80134","phone":"303-805-2739","website":"http://www.elkmountainbrewing.com/","latitude":39.5268513,"longitude":-104.7685122,"isPrimary":"Y","inPlanning":"N","isClosed":"N","openToPublic":"Y","locationType":"micro","locationTypeDisplay":"Micro Brewery","countryIsoCode":"US","yearOpened":"2009","status":"verified","statusDisplay":"Verified","createDate":"2012-01-03 02:41:53","updateDate":"2014-07-23 19:11:34","country":{"isoCode":"US","name":"UNITED STATES","displayName":"United States","isoThree":"USA","numberCode":840,"createDate":"2012-01-03 02:41:33"}},{"id":"jVoFT3","name":"Main Brewery","streetAddress":"501 N. Bi-state Blvd","locality":"Delmar","region":"Delaware","postalCode":"19940","phone":"302-907-0377","website":"http://www.evolutioncraftbrewing.com/","latitude":38.4622609,"longitude":-75.5741469,"isPrimary":"N","inPlanning":"N","isClosed":"Y","openToPublic":"N","locationType":"micro","locationTypeDisplay":"Micro Brewery","countryIsoCode":"US","yearOpened":"2009","yearClosed":"2012","status":"verified","statusDisplay":"Verified","createDate":"2012-01-03 02:41:54","updateDate":"2014-07-23 19:11:34","country":{"isoCode":"US","name":"UNITED STATES","displayName":"United States","isoThree":"USA","numberCode":840,"createDate":"2012-01-03 02:41:33"}},{"id":"ZcFmCf","name":"Main Brewery","streetAddress":"201 E Vine St","locality":"Salisbury","region":"Maryland","postalCode":"21804","phone":"(443) 260-2337","website":"http://evolutioncraftbrewing.com/home.aspx","hoursOfOperation":"Public House Hours\r\nMon-Thu:     4pm - 12am\r\nFri & Sat: 12pm - 12:30am\r\nSunday: 12pm - 12am\r\n\r\nTasting Room Hours\r\nMon - Thurs:     1pm-9pm \r\nFri & Sat:          12pm-10pm \r\nSunday:            1pm-7pm","latitude":38.3618491,"longitude":-75.5960119,"isPrimary":"Y","inPlanning":"N","isClosed":"N","openToPublic":"Y","locationType":"micro","locationTypeDisplay":"Micro Brewery","countryIsoCode":"US","yearOpened":"2012","status":"verified","statusDisplay":"Verified","createDate":"2013-01-07 13:32:49","updateDate":"2014-07-23 19:11:34","country":{"isoCode":"US","name":"UNITED STATES","displayName":"United States","isoThree":"USA","numberCode":840,"createDate":"2012-01-03 02:41:33"}},{"id":"lD0Vgm","name":"Main Brewery","streetAddress":"Srandvejen 5","region":"Nordby","postalCode":"DK-6720","phone":"+45 76 66 01 12","website":"http://www.fanoebryghus.dk/","latitude":55.438903,"longitude":8.395642,"isPrimary":"Y","inPlanning":"N","isClosed":"N","openToPublic":"Y","locationType":"micro","locationTypeDisplay":"Micro Brewery","countryIsoCode":"DK","yearOpened":"2009","status":"verified","statusDisplay":"Verified","createDate":"2012-03-06 19:04:32","updateDate":"2014-07-23 19:11:34","country":{"isoCode":"DK","name":"DENMARK","displayName":"Denmark","isoThree":"DNK","numberCode":208,"createDate":"2012-01-03 02:41:33"}},{"id":"0HeNka","name":"Main Brewery","streetAddress":"360 Grandview Dr","locality":"Sequim","region":"Washington","postalCode":"98382","phone":"360-286-0278","website":"http://www.fathomandleaguebrewery.com/","latitude":48.102948,"longitude":-123.156891,"isPrimary":"Y","inPlanning":"N","isClosed":"N","openToPublic":"Y","locationType":"micro","locationTypeDisplay":"Micro Brewery","countryIsoCode":"US","status":"verified","statusDisplay":"Verified","createDate":"2012-01-03 02:41:54","updateDate":"2014-07-23 19:11:34","country":{"isoCode":"US","name":"UNITED STATES","displayName":"United States","isoThree":"USA","numberCode":840,"createDate":"2012-01-03 02:41:33"}},{"id":"tNDKBY","name":"Main Brewery","streetAddress":"1555 W Lincolnway","extendedAddress":"#105","locality":"Valparaiso","region":"Indiana","postalCode":"46383","phone":"219-477-2000","hoursOfOperation":"Wed & Thr 5-8p \r\nFri 3-8p, Sat 12-6p \r\nSun 12-6p \r\nSunday Carryout","latitude":41.4735777,"longitude":-87.0797608,"isPrimary":"Y","inPlanning":"N","isClosed":"N","openToPublic":"Y","locationType":"micro","locationTypeDisplay":"Micro Brewery","countryIsoCode":"US","yearOpened":"2009","status":"verified","statusDisplay":"Verified","createDate":"2012-01-03 02:41:54","updateDate":"2014-07-23 19:11:34","country":{"isoCode":"US","name":"UNITED STATES","displayName":"United States","isoThree":"USA","numberCode":840,"createDate":"2012-01-03 02:41:33"}},{"id":"kKNkdr","name":"Main Brewery","streetAddress":"8462 St Rt 54","locality":"Hammondsport","region":"New York","postalCode":"14840","phone":"607-569-3311","website":"http://www.fingerlakesbeercompany.com/","hoursOfOperation":"Sunday 12:00 - 5:00                                         Monday 12:00-6:00                                    Tuesday       CLOSED                                  Wednesday 12:00-6:00                                       Thursday 12:00-6:00                                            Friday 12:00-6:00                                             Saturday 12:00-6:00","latitude":42.400165,"longitude":-77.224988,"isPrimary":"Y","inPlanning":"N","isClosed":"N","openToPublic":"Y","locationType":"micro","locationTypeDisplay":"Micro Brewery","countryIsoCode":"US","yearOpened":"2009","status":"verified","statusDisplay":"Verified","createDate":"2012-01-03 02:41:54","updateDate":"2014-07-23 19:11:34","country":{"isoCode":"US","name":"UNITED STATES","displayName":"United States","isoThree":"USA","numberCode":840,"createDate":"2012-01-03 02:41:33"}},{"id":"Me6YnI","name":"Main Brewery","extendedAddress":"P.O. Box 546","locality":"Ocean Beach","region":"New York","postalCode":"11770","phone":"631-482-3118","website":"http://www.fireislandbeer.com","latitude":40.649368,"longitude":-73.156892,"isPrimary":"Y","inPlanning":"N","isClosed":"N","openToPublic":"Y","locationType":"micro","locationTypeDisplay":"Micro Brewery","countryIsoCode":"US","yearOpened":"2009","status":"verified","statusDisplay":"Verified","createDate":"2012-01-03 02:41:54","updateDate":"2014-07-23 19:11:34","country":{"isoCode":"US","name":"UNITED STATES","displayName":"United States","isoThree":"USA","numberCode":840,"createDate":"2012-01-03 02:41:33"}},{"id":"6BaQ3W","name":"Main Brewery","streetAddress":"4035 N Loop 1604","extendedAddress":"W #105","locality":"San Antonio","region":"Texas","postalCode":"78257","phone":"210-395-4974","website":"http://www.freetailbrewing.com/","hoursOfOperation":"Sunday: Noon-Midnight\r\nMonday: 4pm - Midnight\r\nTuesday - Saturday: 11:30am to Midnight or Later","latitude":29.602782,"longitude":-98.561483,"isPrimary":"Y","inPlanning":"N","isClosed":"N","openToPublic":"Y","locationType":"micro","locationTypeDisplay":"Micro Brewery","countryIsoCode":"US","yearOpened":"2009","status":"verified","statusDisplay":"Verified","createDate":"2012-01-03 02:41:55","updateDate":"2014-07-23 19:11:34","country":{"isoCode":"US","name":"UNITED STATES","displayName":"United States","isoThree":"USA","numberCode":840,"createDate":"2012-01-03 02:41:33"}},{"id":"W0G7sk","name":"Main Brewery","streetAddress":"1963 Lincoln Hwy","locality":"North Versailles","region":"Pennsylvania","postalCode":"15137","phone":"724-396-9796","website":"http://www.fullpintbrewing.com/","latitude":40.3648191,"longitude":-79.7748442,"isPrimary":"Y","inPlanning":"N","isClosed":"N","openToPublic":"Y","locationType":"micro","locationTypeDisplay":"Micro Brewery","countryIsoCode":"US","status":"verified","statusDisplay":"Verified","createDate":"2012-01-03 02:41:55","updateDate":"2014-07-23 19:11:34","country":{"isoCode":"US","name":"UNITED STATES","displayName":"United States","isoThree":"USA","numberCode":840,"createDate":"2012-01-03 02:41:33"}},{"id":"zH9MUU","name":"Main Brewery","streetAddress":"414 6th Ave N","locality":"Minneapolis","region":"Minnesota","postalCode":"55401","phone":"612-333-3208","website":"http://www.fultonbeer.com/","hoursOfOperation":"Fridays 3 - 7\r\nSaturdays Noon - 4","latitude":44.9849423,"longitude":-93.2790206,"isPrimary":"Y","inPlanning":"N","isClosed":"N","openToPublic":"Y","locationType":"micro","locationTypeDisplay":"Micro Brewery","countryIsoCode":"US","yearOpened":"2009","status":"verified","statusDisplay":"Verified","createDate":"2012-01-03 02:41:55","updateDate":"2014-07-23 19:11:34","country":{"isoCode":"US","name":"UNITED STATES","displayName":"United States","isoThree":"USA","numberCode":840,"createDate":"2012-01-03 02:41:33"}},{"id":"basAdv","name":"Main Brewery","streetAddress":"1900 E Lincoln Ave","extendedAddress":"Unit B","locality":"Fort Collins","region":"Colorado","postalCode":"80524","phone":"970-482-3865","website":"http://www.thefunkwerks.com/","latitude":40.583417,"longitude":-105.042222,"isPrimary":"Y","inPlanning":"N","isClosed":"N","openToPublic":"Y","locationType":"micro","locationTypeDisplay":"Micro Brewery","countryIsoCode":"US","yearOpened":"2009","status":"verified","statusDisplay":"Verified","createDate":"2012-01-03 02:41:55","updateDate":"2014-07-23 19:11:34","country":{"isoCode":"US","name":"UNITED STATES","displayName":"United States","isoThree":"USA","numberCode":840,"createDate":"2012-01-03 02:41:33"}},{"id":"f6fAXq","name":"Main Brewery","streetAddress":"226 Upper Salthill","region":"Galway","website":"http://www.galwaybaybrewery.com","latitude":53.2598437,"longitude":-9.0764546,"isPrimary":"Y","inPlanning":"N","isClosed":"N","openToPublic":"Y","locationType":"micro","locationTypeDisplay":"Micro Brewery","countryIsoCode":"IE","yearOpened":"2009","status":"verified","statusDisplay":"Verified","createDate":"2014-06-23 12:01:20","updateDate":"2014-07-23 19:11:34","country":{"isoCode":"IE","name":"IRELAND","displayName":"Ireland","isoThree":"IRL","numberCode":372,"createDate":"2012-01-03 02:41:33"}},{"id":"Gi17wT","name":"Main Brewery","locality":"Christchurch","latitude":-43.5320544,"longitude":172.6362254,"isPrimary":"Y","inPlanning":"N","isClosed":"N","openToPublic":"Y","locationType":"micro","locationTypeDisplay":"Micro Brewery","countryIsoCode":"NZ","yearOpened":"2009","status":"verified","statusDisplay":"Verified","createDate":"2012-12-21 20:21:53","updateDate":"2014-07-23 19:11:34","country":{"isoCode":"NZ","name":"NEW ZEALAND","displayName":"New Zealand","isoThree":"NZL","numberCode":554,"createDate":"2012-01-03 02:41:33"}},{"id":"fMPgyC","name":"Main Brewery","streetAddress":"3323 Monroe Street","locality":"Toledo","region":"Ohio","postalCode":"43606","phone":"419-973-1256","website":"http://www.greatblackswampbrewing.com/","latitude":41.6675619,"longitude":-83.577478,"isPrimary":"Y","inPlanning":"N","isClosed":"N","openToPublic":"Y","locationType":"micro","locationTypeDisplay":"Micro Brewery","countryIsoCode":"US","yearOpened":"2009","status":"verified","statusDisplay":"Verified","createDate":"2012-01-03 02:41:56","updateDate":"2014-07-23 19:11:34","country":{"isoCode":"US","name":"UNITED STATES","displayName":"United States","isoThree":"USA","numberCode":840,"createDate":"2012-01-03 02:41:33"}},{"id":"qXdmUY","name":"Main Brewery","streetAddress":"25 Drexel Dr","locality":"Bay Shore","region":"New York","postalCode":"11706","phone":"631-392-8472","website":"http://greatsouthbaybrewery.com/","hoursOfOperation":"Thu - Fri:\t3:00 pm - 8:00 pm\r\nSat:\t12:00 pm - 5:00 pm","latitude":40.760611,"longitude":-73.264134,"isPrimary":"Y","inPlanning":"N","isClosed":"N","openToPublic":"Y","locationType":"micro","locationTypeDisplay":"Micro Brewery","countryIsoCode":"US","yearOpened":"2009","status":"verified","statusDisplay":"Verified","createDate":"2012-01-03 02:41:56","updateDate":"2014-07-23 19:11:34","country":{"isoCode":"US","name":"UNITED STATES","displayName":"United States","isoThree":"USA","numberCode":840,"createDate":"2012-01-03 02:41:33"}},{"id":"1irs0u","name":"Main Brewery","streetAddress":"234 Carpenter Street","locality":"Greenport","region":"New York","postalCode":"11944","phone":"631-477-6681","website":"http://www.harborbrewing.com/","hoursOfOperation":"Open for Tastings/Growlers/Retail:\r\nFri & Sat 12-7pm\r\nSun 12-6pm","latitude":41.1024718,"longitude":-72.3589459,"isPrimary":"Y","inPlanning":"N","isClosed":"N","openToPublic":"Y","locationType":"micro","locationTypeDisplay":"Micro Brewery","countryIsoCode":"US","yearOpened":"2008","status":"verified","statusDisplay":"Verified","createDate":"2012-01-03 02:41:56","updateDate":"2014-07-23 19:11:34","country":{"isoCode":"US","name":"UNITED STATES","displayName":"United States","isoThree":"USA","numberCode":840,"createDate":"2012-01-03 02:41:33"}},{"id":"CVl8by","name":"Main Brewery","streetAddress":"Poststraße 21","locality":"Grönwohld","postalCode":"22956","latitude":53.639496,"longitude":10.409945,"isPrimary":"Y","inPlanning":"N","isClosed":"N","openToPublic":"Y","locationType":"micro","locationTypeDisplay":"Micro Brewery","countryIsoCode":"DE","status":"verified","statusDisplay":"Verified","createDate":"2012-08-16 12:56:34","updateDate":"2014-07-23 19:11:34","country":{"isoCode":"DE","name":"GERMANY","displayName":"Germany","isoThree":"DEU","numberCode":276,"createDate":"2012-01-03 02:41:33"}},{"id":"0qx9Fk","name":"Main Brewery","streetAddress":"1627 South 7th Street","locality":"San Jose","region":"California","postalCode":"95112","phone":"408-291-0966","website":"http://hermitagebrewing.com/","latitude":37.315077,"longitude":-121.866247,"isPrimary":"Y","inPlanning":"N","isClosed":"N","openToPublic":"Y","locationType":"micro","locationTypeDisplay":"Micro Brewery","countryIsoCode":"US","status":"verified","statusDisplay":"Verified","createDate":"2012-01-10 00:21:47","updateDate":"2014-07-23 19:11:34","country":{"isoCode":"US","name":"UNITED STATES","displayName":"United States","isoThree":"USA","numberCode":840,"createDate":"2012-01-03 02:41:33"}},{"id":"RQr8fQ","name":"Main Brewery","streetAddress":"19 Howard Street","locality":"South River","region":"Ontario","postalCode":"L7L 7L6","phone":"(705) 792-0808","website":"http://www.highlanderbrewco.com/","latitude":45.843276,"longitude":-79.3640841,"isPrimary":"Y","inPlanning":"N","isClosed":"N","openToPublic":"Y","locationType":"micro","locationTypeDisplay":"Micro Brewery","countryIsoCode":"CA","status":"verified","statusDisplay":"Verified","createDate":"2013-09-01 14:46:47","updateDate":"2014-07-23 19:11:34","country":{"isoCode":"CA","name":"CANADA","displayName":"Canada","isoThree":"CAN","numberCode":124,"createDate":"2012-01-03 02:41:33"}},{"id":"JcbV10","name":"Main Brewery","extendedAddress":"PO Box 25204","locality":"Honolulu","region":"Hawaii","postalCode":"96825","phone":"808-396-8112","website":"http://www.hotbbc.com/","latitude":21.290538,"longitude":-157.693981,"isPrimary":"N","inPlanning":"N","isClosed":"N","openToPublic":"Y","locationType":"micro","locationTypeDisplay":"Micro Brewery","countryIsoCode":"US","status":"verified","statusDisplay":"Verified","createDate":"2012-01-03 02:41:58","updateDate":"2014-09-29 20:01:56","country":{"isoCode":"US","name":"UNITED STATES","displayName":"United States","isoThree":"USA","numberCode":840,"createDate":"2012-01-03 02:41:33"}},{"id":"wcXlNM","name":"The Brewseum","streetAddress":"909 Waimanu Street","locality":"Honolulu","region":"Hawaii","postalCode":"96814","phone":"(808) 396-8112","website":"http://www.brewseums.com","hoursOfOperation":"The Brewseum is a brewpub celebrating the history of beer in Hawaii. Enjoy some of the best beers in Honolulu at an incredible one-of-a-kind spot!","latitude":21.2987702,"longitude":-157.8536936,"isPrimary":"Y","inPlanning":"N","isClosed":"N","openToPublic":"Y","locationType":"brewpub","locationTypeDisplay":"Brewpub","countryIsoCode":"US","yearOpened":"2014","status":"verified","statusDisplay":"Verified","createDate":"2014-09-25 21:25:04","updateDate":"2014-09-29 20:02:51","country":{"isoCode":"US","name":"UNITED STATES","displayName":"United States","isoThree":"USA","numberCode":840,"createDate":"2012-01-03 02:41:33"}},{"id":"YG37Js","name":"Main Brewery","streetAddress":"P.O. Box 102","locality":"Oceanport","region":"New Jersey","postalCode":"07757","phone":"732-530-4704","website":"http://hometownbeverages.com/","latitude":40.321895,"longitude":-74.016374,"isPrimary":"Y","inPlanning":"N","isClosed":"N","openToPublic":"Y","locationType":"micro","locationTypeDisplay":"Micro Brewery","countryIsoCode":"US","yearOpened":"2009","status":"verified","statusDisplay":"Verified","createDate":"2012-01-03 02:41:58","updateDate":"2014-07-23 19:11:34","country":{"isoCode":"US","name":"UNITED STATES","displayName":"United States","isoThree":"USA","numberCode":840,"createDate":"2012-01-03 02:41:33"}},{"id":"MGxYuT","name":"Main Brewery","streetAddress":"54 Bramsteele Road","locality":"Brampton","region":"Ontario","postalCode":"L6W 3M6","phone":"(905) 855-7743","website":"http://www.hopcity.com/","latitude":43.686855,"longitude":-79.7151999,"isPrimary":"Y","inPlanning":"N","isClosed":"N","openToPublic":"Y","locationType":"micro","locationTypeDisplay":"Micro Brewery","countryIsoCode":"CA","yearOpened":"2009","status":"verified","statusDisplay":"Verified","createDate":"2014-01-22 14:12:51","updateDate":"2014-07-23 19:11:34","country":{"isoCode":"CA","name":"CANADA","displayName":"Canada","isoThree":"CAN","numberCode":124,"createDate":"2012-01-03 02:41:33"}},{"id":"dqfA53","name":"Main Brewery","streetAddress":"980 Kruse Way","locality":"Springfield","region":"Oregon","postalCode":"97477","phone":"(541) 744-3330","website":"http://www.hopvalleybrewing.com/","hoursOfOperation":"Mon - Thu: 11:00 am - 11:00 pm\r\nFri - Sat: 11:00 am - 1:00 am\r\nSun: 11:00 am - 11:00 pm","latitude":44.082956,"longitude":-123.039863,"isPrimary":"N","inPlanning":"N","isClosed":"N","openToPublic":"Y","locationType":"micro","locationTypeDisplay":"Micro Brewery","countryIsoCode":"US","yearOpened":"2009","status":"verified","statusDisplay":"Verified","createDate":"2012-01-03 02:41:58","updateDate":"2014-07-23 19:11:34","country":{"isoCode":"US","name":"UNITED STATES","displayName":"United States","isoThree":"USA","numberCode":840,"createDate":"2012-01-03 02:41:33"}},{"id":"OTt7Vx","name":"Hop Valley Brewing Co.","streetAddress":"990 W.1st Ave","locality":"Eugene","region":"Oregon","postalCode":"97402","phone":"541-485-2337","website":"http://www.hopvalleybrewing.com","hoursOfOperation":"11:30am-10:00pm Sunday-Wednesday\r\n11:30am-11:00pm Thursday-Saturday","latitude":44.05819,"longitude":-123.107531,"isPrimary":"Y","inPlanning":"N","isClosed":"N","openToPublic":"Y","locationType":"production","locationTypeDisplay":"Production Facility","countryIsoCode":"US","yearOpened":"2013","status":"verified","statusDisplay":"Verified","createDate":"2013-08-13 00:51:08","updateDate":"2014-07-23 19:11:34","country":{"isoCode":"US","name":"UNITED STATES","displayName":"United States","isoThree":"USA","numberCode":840,"createDate":"2012-01-03 02:41:33"}},{"id":"jRHCqE","name":"Main Brewery","streetAddress":"507 Calles","locality":"Austin","region":"Texas","postalCode":"78702","phone":"512-914-2467","website":"http://www.hopsandgrain.com/","latitude":30.258045,"longitude":-97.712765,"isPrimary":"Y","inPlanning":"N","isClosed":"N","openToPublic":"Y","locationType":"micro","locationTypeDisplay":"Micro Brewery","countryIsoCode":"US","status":"verified","statusDisplay":"Verified","createDate":"2012-01-03 02:41:58","updateDate":"2014-07-23 19:11:34","country":{"isoCode":"US","name":"UNITED STATES","displayName":"United States","isoThree":"USA","numberCode":840,"createDate":"2012-01-03 02:41:33"}},{"id":"3fKruH","name":"Main Brewery","streetAddress":"846 E. Main St","locality":"Montrose","region":"Colorado","postalCode":"81041","phone":"970-249-6889","website":"http://www.horseflybrewing.com/","latitude":38.482718,"longitude":-107.871374,"isPrimary":"Y","inPlanning":"N","isClosed":"N","openToPublic":"Y","locationType":"micro","locationTypeDisplay":"Micro Brewery","countryIsoCode":"US","status":"verified","statusDisplay":"Verified","createDate":"2012-01-03 02:41:58","updateDate":"2014-07-23 19:11:34","country":{"isoCode":"US","name":"UNITED STATES","displayName":"United States","isoThree":"USA","numberCode":840,"createDate":"2012-01-03 02:41:33"}},{"id":"Q1n2wz","name":"Main Brewery","streetAddress":"405 Hay Street","locality":"Fayetteville","region":"North Carolina","postalCode":"28301","phone":"910-437-9905","website":"http://www.huskehardware.com/","hoursOfOperation":"Mon - Tue:\t 11:00am - 10:00pm\r\nWed - Thu:  11:00am - 12:00pm\r\nFri - Sat:  11:00am - 2:00am\r\nSun:  11:00am - 9:00pm","latitude":35.053389,"longitude":-78.882968,"isPrimary":"Y","inPlanning":"N","isClosed":"N","openToPublic":"Y","locationType":"brewpub","locationTypeDisplay":"Brewpub","countryIsoCode":"US","yearOpened":"2009","status":"verified","statusDisplay":"Verified","createDate":"2012-01-03 02:41:58","updateDate":"2014-07-23 19:11:34","country":{"isoCode":"US","name":"UNITED STATES","displayName":"United States","isoThree":"USA","numberCode":840,"createDate":"2012-01-03 02:41:33"}},{"id":"A4WPqG","name":"Main Brewery","streetAddress":"1710 Palmyrita Ave","extendedAddress":"Suite 11","locality":"Riverside","region":"California","postalCode":"92507","phone":"951-643-7687","website":"http://www.iebrew.com/","latitude":34.003894,"longitude":-117.34863,"isPrimary":"Y","inPlanning":"N","isClosed":"N","openToPublic":"Y","locationType":"micro","locationTypeDisplay":"Micro Brewery","countryIsoCode":"US","status":"verified","statusDisplay":"Verified","createDate":"2012-01-03 02:41:58","updateDate":"2014-07-23 19:11:34","country":{"isoCode":"US","name":"UNITED STATES","displayName":"United States","isoThree":"USA","numberCode":840,"createDate":"2012-01-03 02:41:33"}},{"id":"tnS0R4","name":"Main Brewery","streetAddress":"Isendorf 49","locality":"Emsdetten","region":"North Rhine-Westphalia","postalCode":"D-48282","latitude":52.205278,"longitude":7.527079,"isPrimary":"N","inPlanning":"N","isClosed":"N","openToPublic":"Y","locationType":"micro","locationTypeDisplay":"Micro Brewery","countryIsoCode":"DE","status":"verified","statusDisplay":"Verified","createDate":"2012-08-12 14:48:03","updateDate":"2014-07-23 19:11:34","country":{"isoCode":"DE","name":"GERMANY","displayName":"Germany","isoThree":"DEU","numberCode":276,"createDate":"2012-01-03 02:41:33"}},{"id":"JqufBE","name":"Main Brewery","streetAddress":"2414 Chestnut St.","locality":"Everett","region":"Washington","postalCode":"98201","phone":"(425) 835-2337","website":"http://www.justicebrewing.com/","latitude":47.985383,"longitude":-122.18803,"isPrimary":"Y","inPlanning":"N","isClosed":"N","openToPublic":"Y","locationType":"nano","locationTypeDisplay":"Nano Brewery","countryIsoCode":"US","status":"verified","statusDisplay":"Verified","createDate":"2012-10-29 13:25:10","updateDate":"2014-07-23 19:11:34","country":{"isoCode":"US","name":"UNITED STATES","displayName":"United States","isoThree":"USA","numberCode":840,"createDate":"2012-01-03 02:41:33"}},{"id":"xsnJ3o","name":"Main Brewery","streetAddress":"866 Campbell Avenue","locality":"Ottawa","region":"Ontario","postalCode":"K2A 2C5","phone":"866-361-4477","website":"http://www.kbeer.ca/","hoursOfOperation":"Mon - Sat: 10:00 am - 6:00 pm","latitude":45.3764341,"longitude":-75.7498415,"isPrimary":"Y","inPlanning":"N","isClosed":"N","openToPublic":"Y","locationType":"micro","locationTypeDisplay":"Micro Brewery","countryIsoCode":"CA","yearOpened":"2009","status":"verified","statusDisplay":"Verified","createDate":"2012-01-03 02:41:59","updateDate":"2014-07-23 19:11:34","country":{"isoCode":"CA","name":"CANADA","displayName":"Canada","isoThree":"CAN","numberCode":124,"createDate":"2012-01-03 02:41:33"}},{"id":"WkIaQj","name":"Main Brewery","streetAddress":"1016 7 St NW","locality":"Rochester","region":"Minnesota","postalCode":"55901","phone":"507-282-2739","website":"http://www.kinneycreekbrewery.com/","latitude":44.031266,"longitude":-92.477734,"isPrimary":"Y","inPlanning":"N","isClosed":"N","openToPublic":"Y","locationType":"micro","locationTypeDisplay":"Micro Brewery","countryIsoCode":"US","yearOpened":"2009","status":"verified","statusDisplay":"Verified","createDate":"2012-01-03 02:41:59","updateDate":"2014-08-22 00:57:16","country":{"isoCode":"US","name":"UNITED STATES","displayName":"United States","isoThree":"USA","numberCode":840,"createDate":"2012-01-03 02:41:33"}},{"id":"OOe2bN","name":"Main Brewery","streetAddress":"105 East Jefferson Avenue","locality":"Kirkwood","region":"Missouri","postalCode":"63122","phone":"(314) 966-2739","website":"http://kirkwoodstationbrewing.com/","hoursOfOperation":"Mon - Sat:\t11:00 am - 1:30 am\r\nSun:\t11:00 am - 10:00 pm","latitude":38.582536,"longitude":-90.405675,"isPrimary":"Y","inPlanning":"N","isClosed":"N","openToPublic":"Y","locationType":"brewpub","locationTypeDisplay":"Brewpub","countryIsoCode":"US","yearOpened":"2009","status":"verified","statusDisplay":"Verified","createDate":"2012-01-03 02:41:57","updateDate":"2014-07-23 19:11:34","country":{"isoCode":"US","name":"UNITED STATES","displayName":"United States","isoThree":"USA","numberCode":840,"createDate":"2012-01-03 02:41:33"}},{"id":"U6eYp1","name":"Main Brewery","streetAddress":"29281 Agoura Road","locality":"Agoura Hills","region":"California","postalCode":"91301","phone":"818-477-4566","website":"http://ladyfaceale.com/","hoursOfOperation":"Mon - Sat: 11:30 am - 12:00 am\r\nSun: 11:30 am - 10:00 pm","latitude":34.14357,"longitude":-118.7629235,"isPrimary":"Y","inPlanning":"N","isClosed":"N","openToPublic":"Y","locationType":"micro","locationTypeDisplay":"Micro Brewery","countryIsoCode":"US","yearOpened":"2009","status":"verified","statusDisplay":"Verified","createDate":"2012-01-03 02:42:00","updateDate":"2014-07-23 19:11:34","country":{"isoCode":"US","name":"UNITED STATES","displayName":"United States","isoThree":"USA","numberCode":840,"createDate":"2012-01-03 02:41:33"}},{"id":"HbbSUo","name":"Main Brewery","streetAddress":"2681 Muskoka Road 117","locality":"Baysville","region":"Ontario","postalCode":"P0B 1A0","phone":"705-767-2313","website":"http://www.lakeofbaysbrewing.ca/","latitude":45.1500187,"longitude":-79.1139153,"isPrimary":"Y","inPlanning":"N","isClosed":"N","openToPublic":"Y","locationType":"micro","locationTypeDisplay":"Micro Brewery","countryIsoCode":"CA","status":"verified","statusDisplay":"Verified","createDate":"2012-01-03 02:42:00","updateDate":"2014-07-23 19:11:34","country":{"isoCode":"CA","name":"CANADA","displayName":"Canada","isoThree":"CAN","numberCode":124,"createDate":"2012-01-03 02:41:33"}},{"id":"GHmRgx","name":"Main Brewery","streetAddress":"128 W 12th St","extendedAddress":"Unit 101","locality":"Erie","region":"Pennsylvania","postalCode":"16501","phone":"814-454-0405","website":"http://www.LaveryBrewing.com/","hoursOfOperation":"Sat:\t12:00 pm - 3:00 pm","latitude":42.1227422,"longitude":-80.0837948,"isPrimary":"Y","inPlanning":"N","isClosed":"N","openToPublic":"Y","locationType":"micro","locationTypeDisplay":"Micro Brewery","countryIsoCode":"US","yearOpened":"2009","status":"verified","statusDisplay":"Verified","createDate":"2012-01-03 02:42:00","updateDate":"2014-07-23 19:11:34","country":{"isoCode":"US","name":"UNITED STATES","displayName":"United States","isoThree":"USA","numberCode":840,"createDate":"2012-01-03 02:41:33"}},{"id":"FJf4Vn","name":"Le Trèfle Noir","streetAddress":"145, avenue Principale","locality":"Rouyn-Noranda","region":"Québec","postalCode":"j9x4p3","phone":"1819-762-6611","website":"http://www.letreflenoir.com","hoursOfOperation":"Monday: 3:00 p.m. to 1:00 a.m.\r\nTuesday: 3:00 p.m. to 1:00 a.m.\r\nWednesday: 3:00 p.m. to 1:00 a.m.\r\nThursday: 3:00 p.m. to 1:00 a.m.\r\nFriday: 3:00 p.m. to 3:00 a.m.\r\nSaturday: 3:00 p.m. to 3:00 a.m.","latitude":48.239186,"longitude":-79.0200905,"isPrimary":"Y","inPlanning":"N","isClosed":"N","openToPublic":"Y","locationType":"micro","locationTypeDisplay":"Micro Brewery","countryIsoCode":"CA","yearOpened":"2009","status":"verified","statusDisplay":"Verified","createDate":"2013-07-03 14:43:12","updateDate":"2014-07-23 19:11:34","country":{"isoCode":"CA","name":"CANADA","displayName":"Canada","isoThree":"CAN","numberCode":124,"createDate":"2012-01-03 02:41:33"}},{"id":"bKPbvo","name":"Main Brewery","streetAddress":"Level 15, 20 Hunter Street","locality":"Sydney","region":"New South Wales","phone":"61-(02)-9320-2200","latitude":-33.865601,"longitude":151.207977,"isPrimary":"Y","inPlanning":"N","isClosed":"N","openToPublic":"Y","locationType":"micro","locationTypeDisplay":"Micro Brewery","countryIsoCode":"AU","status":"verified","statusDisplay":"Verified","createDate":"2012-01-03 02:42:00","updateDate":"2014-07-23 19:11:34","country":{"isoCode":"AU","name":"AUSTRALIA","displayName":"Australia","isoThree":"AUS","numberCode":36,"createDate":"2012-01-03 02:41:33"}},{"id":"xgrmyW","name":"Main Brewery","streetAddress":"Abu Cleb Recreational Park","locality":"Gush Etzion","postalCode":"90909","phone":"0505-306-036","website":"http://www.LoneTreeBrewery.com/","isPrimary":"Y","inPlanning":"N","isClosed":"N","openToPublic":"Y","locationType":"micro","locationTypeDisplay":"Micro Brewery","countryIsoCode":"IL","yearOpened":"2009","status":"verified","statusDisplay":"Verified","createDate":"2012-01-03 02:42:00","updateDate":"2014-07-23 19:11:34","country":{"isoCode":"IL","name":"ISRAEL","displayName":"Israel","isoThree":"ISR","numberCode":376,"createDate":"2012-01-03 02:41:33"}},{"id":"CKJPHO","name":"Main Brewery","streetAddress":"8816 Gulf Ct","extendedAddress":"Suite #100","locality":"Raleigh","region":"North Carolina","postalCode":"27617","phone":"919-442-8004","website":"http://www.loneriderbeer.com/","hoursOfOperation":"Mon:  2:00pm - 10:00pm\nTue:  2:00pm - 10:00pm\nWed:  2:00pm - 10:00pm\nThu:  2:00pm - 10:00pm\nFri:  2:00pm - 11:00pm\nSat:  2:00pm - 11:00pm\nSun:  2:00pm - 7:00pm\n\n","latitude":35.903672,"longitude":-78.762493,"isPrimary":"Y","inPlanning":"N","isClosed":"N","openToPublic":"Y","locationType":"micro","locationTypeDisplay":"Micro Brewery","countryIsoCode":"US","yearOpened":"2009","status":"verified","statusDisplay":"Verified","createDate":"2012-01-03 02:42:00","updateDate":"2014-08-31 13:50:20","country":{"isoCode":"US","name":"UNITED STATES","displayName":"United States","isoThree":"USA","numberCode":840,"createDate":"2012-01-03 02:41:33"}},{"id":"8MqMrp","name":"Main Brewery","streetAddress":"525 US Route 1","locality":"Freeport","region":"Maine","postalCode":"04032","phone":"207-221-5711","website":"http://mainebeercompany.com/","hoursOfOperation":"Noon to 8pm Tuesday-Saturday","latitude":43.839144,"longitude":-70.121407,"isPrimary":"Y","inPlanning":"N","isClosed":"N","openToPublic":"Y","locationType":"micro","locationTypeDisplay":"Micro Brewery","countryIsoCode":"US","yearOpened":"2009","status":"verified","statusDisplay":"Verified","createDate":"2012-01-03 02:42:01","updateDate":"2014-07-23 19:11:34","country":{"isoCode":"US","name":"UNITED STATES","displayName":"United States","isoThree":"USA","numberCode":840,"createDate":"2012-01-03 02:41:33"}},{"id":"JY4SOB","name":"Main Brewery","streetAddress":"204 Burnt Meadow Rd","locality":"Ringwood","region":"New Jersey","postalCode":"07456","phone":"973-907-7843","latitude":41.090704,"longitude":-74.318832,"isPrimary":"Y","inPlanning":"N","isClosed":"N","openToPublic":"Y","locationType":"micro","locationTypeDisplay":"Micro Brewery","countryIsoCode":"US","yearOpened":"2009","status":"verified","statusDisplay":"Verified","createDate":"2012-01-03 02:42:01","updateDate":"2014-07-23 19:11:34","country":{"isoCode":"US","name":"UNITED STATES","displayName":"United States","isoThree":"USA","numberCode":840,"createDate":"2012-01-03 02:41:33"}},{"id":"jAoe87","name":"Main Brewery","extendedAddress":"520 N. Meridian Avenue","locality":"Oklahoma City","region":"Oklahoma","postalCode":"73107","phone":"405-943-0100","website":"http://www.mustangbrewing.com/","latitude":35.472865,"longitude":-97.600469,"isPrimary":"Y","inPlanning":"N","isClosed":"N","openToPublic":"Y","locationType":"micro","locationTypeDisplay":"Micro Brewery","countryIsoCode":"US","yearOpened":"2009","status":"verified","statusDisplay":"Verified","createDate":"2012-01-03 02:42:03","updateDate":"2014-07-23 19:11:34","country":{"isoCode":"US","name":"UNITED STATES","displayName":"United States","isoThree":"USA","numberCode":840,"createDate":"2012-01-03 02:41:33"}},{"id":"Y0mNeE","name":"Mutiny Brewing Company","streetAddress":"600 N Main St","locality":"Joseph","region":"Oregon","postalCode":"97846","phone":"541-432-5274","website":"http://www.mutinybrewing.blogspot.com/","hoursOfOperation":"Wed:  11:00am - 9:00pm\nSun:  11:00am - 9:00pm\n\nWed:11:00 am - 9:00 pm\r\nSun:11:00 am - 9:00 pm","latitude":45.3574315,"longitude":-117.2294972,"isPrimary":"Y","inPlanning":"N","isClosed":"N","openToPublic":"Y","locationType":"brewpub","locationTypeDisplay":"Brewpub","countryIsoCode":"US","status":"verified","statusDisplay":"Verified","createDate":"2012-05-24 13:49:37","updateDate":"2014-08-07 11:02:24","country":{"isoCode":"US","name":"UNITED STATES","displayName":"United States","isoThree":"USA","numberCode":840,"createDate":"2012-01-03 02:41:33"}},{"id":"wURFd8","name":"Main Brewery","streetAddress":"372 Morrison Rd","extendedAddress":"Suite C, D, E","locality":"Columbus","region":"Ohio","postalCode":"43213","phone":"330-936-7467","website":"http://www.neilhousebrewery.com/","latitude":39.98506,"longitude":-82.8552,"isPrimary":"Y","inPlanning":"N","isClosed":"Y","openToPublic":"Y","locationType":"micro","locationTypeDisplay":"Micro Brewery","countryIsoCode":"US","yearOpened":"2009","status":"verified","statusDisplay":"Verified","createDate":"2012-01-03 02:42:03","updateDate":"2014-07-23 19:11:34","country":{"isoCode":"US","name":"UNITED STATES","displayName":"United States","isoThree":"USA","numberCode":840,"createDate":"2012-01-03 02:41:33"}},{"id":"DGHNuf","name":"Main Brewery","streetAddress":"4201 Tonnelle Ave.","locality":"North Bergen","region":"New Jersey","postalCode":"07047","website":"http://www.njbeerco.com","latitude":40.7826971,"longitude":-74.035202,"isPrimary":"Y","inPlanning":"N","isClosed":"N","openToPublic":"Y","locationType":"micro","locationTypeDisplay":"Micro Brewery","countryIsoCode":"US","yearOpened":"2009","status":"verified","statusDisplay":"Verified","createDate":"2012-01-03 02:42:03","updateDate":"2014-09-26 13:42:28","country":{"isoCode":"US","name":"UNITED STATES","displayName":"United States","isoThree":"USA","numberCode":840,"createDate":"2012-01-03 02:41:33"}},{"id":"ZcjYxN","name":"Main Brewery","streetAddress":"1621 S. Sinclair St.","extendedAddress":"Ste B","locality":"Anaheim","region":"California","postalCode":"92806","phone":"714-634-2739","website":"http://www.noblealeworks.com/","latitude":33.808471,"longitude":-117.8824638,"isPrimary":"Y","inPlanning":"N","isClosed":"N","openToPublic":"Y","locationType":"micro","locationTypeDisplay":"Micro Brewery","countryIsoCode":"US","yearOpened":"2009","status":"verified","statusDisplay":"Verified","createDate":"2012-01-03 02:42:03","updateDate":"2014-07-23 19:11:34","country":{"isoCode":"US","name":"UNITED STATES","displayName":"United States","isoThree":"USA","numberCode":840,"createDate":"2012-01-03 02:41:33"}},{"id":"SiIVOL","name":"The Brewpub","streetAddress":"400 West Front Street","locality":"Traverse City","region":"Michigan","postalCode":"49684","phone":"231-941-7325","website":"http://www.northpeak.net/","hoursOfOperation":"Monday - Thursday: 11a - 11p\r\nFriday - Saturday: 11a - 12a\r\nSunday: 12p-11p","latitude":44.7640742,"longitude":-85.6285023,"isPrimary":"N","inPlanning":"N","isClosed":"N","openToPublic":"Y","locationType":"brewpub","locationTypeDisplay":"Brewpub","countryIsoCode":"US","yearOpened":"2009","status":"verified","statusDisplay":"Verified","createDate":"2012-01-03 02:42:03","updateDate":"2014-07-23 19:11:34","country":{"isoCode":"US","name":"UNITED STATES","displayName":"United States","isoThree":"USA","numberCode":840,"createDate":"2012-01-03 02:41:33"}},{"id":"aX1vnT","name":"Main Brewery","streetAddress":"13512 Peninsula Drive","locality":"Traverse City","region":"Michigan","postalCode":"49686","phone":"231-346-6067","website":"http://www.northpeakbeer.com/","latitude":44.884122,"longitude":-85.528957,"isPrimary":"N","inPlanning":"N","isClosed":"N","openToPublic":"N","locationType":"micro","locationTypeDisplay":"Micro Brewery","countryIsoCode":"US","yearOpened":"2009","status":"verified","statusDisplay":"Verified","createDate":"2012-02-10 00:54:48","updateDate":"2014-07-23 19:11:34","country":{"isoCode":"US","name":"UNITED STATES","displayName":"United States","isoThree":"USA","numberCode":840,"createDate":"2012-01-03 02:41:33"}},{"id":"Rw6eIT","name":"Northern United Brewing Company","streetAddress":"2319 Bishop Cir East","locality":"Dexter","region":"Michigan","postalCode":"48130","phone":"(734) 424-9540","website":"http://www.northpeakbeer.com/","latitude":42.323727,"longitude":-83.879212,"isPrimary":"Y","inPlanning":"N","isClosed":"N","openToPublic":"N","locationType":"production","locationTypeDisplay":"Production Facility","countryIsoCode":"US","status":"verified","statusDisplay":"Verified","createDate":"2013-08-12 20:25:38","updateDate":"2014-07-23 19:11:34","country":{"isoCode":"US","name":"UNITED STATES","displayName":"United States","isoThree":"USA","numberCode":840,"createDate":"2012-01-03 02:41:33"}},{"id":"AcdMIx","name":"Main Brewery","streetAddress":"108 County Street","locality":"Bennington","region":"Vermont","postalCode":"05201","phone":"802-681-0201","website":"http://northshirebrewery.com/","hoursOfOperation":"Tour Schedule\r\nTuesday & Thursday from 3 – 6PM\r\nSaturday from 10AM – 1PM","latitude":42.8844959,"longitude":-73.2011993,"isPrimary":"Y","inPlanning":"N","isClosed":"N","openToPublic":"Y","locationType":"micro","locationTypeDisplay":"Micro Brewery","countryIsoCode":"US","status":"verified","statusDisplay":"Verified","createDate":"2012-01-03 02:42:04","updateDate":"2014-07-23 19:11:34","country":{"isoCode":"US","name":"UNITED STATES","displayName":"United States","isoThree":"USA","numberCode":840,"createDate":"2012-01-03 02:41:33"}},{"id":"jU8dfs","name":"Main Brewery","locality":"Atlanta","region":"Georgia","postalCode":"30328","phone":"404-845-0059","website":"http://odempseys.com/","latitude":33.934574,"longitude":-84.395672,"isPrimary":"Y","inPlanning":"N","isClosed":"N","openToPublic":"Y","locationType":"micro","locationTypeDisplay":"Micro Brewery","countryIsoCode":"US","yearOpened":"2009","status":"verified","statusDisplay":"Verified","createDate":"2012-01-03 02:42:04","updateDate":"2014-07-23 19:11:34","country":{"isoCode":"US","name":"UNITED STATES","displayName":"United States","isoThree":"USA","numberCode":840,"createDate":"2012-01-03 02:41:33"}},{"id":"2ONHw4","name":"Main Brewery","streetAddress":"9130 15th Pl S","extendedAddress":"Suite F","locality":"Seattle","region":"Washington","postalCode":"98108","phone":"206-762-3909","website":"http://www.odinbrewing.com/","latitude":47.5215611,"longitude":-122.3133644,"isPrimary":"Y","inPlanning":"N","isClosed":"N","openToPublic":"Y","locationType":"micro","locationTypeDisplay":"Micro Brewery","countryIsoCode":"US","status":"verified","statusDisplay":"Verified","createDate":"2012-01-03 02:42:04","updateDate":"2014-07-23 19:11:34","country":{"isoCode":"US","name":"UNITED STATES","displayName":"United States","isoThree":"USA","numberCode":840,"createDate":"2012-01-03 02:41:33"}},{"id":"DUaY4t","name":"Tasting Room","streetAddress":"1300 N. Northlake Way","locality":"Seattle","region":"Washington","postalCode":"98103","phone":"(206) 404-4704","website":"http://odinbrewing.wordpress.com/","hoursOfOperation":"Wednesday - Friday: 3:00 pm – 10:00 pm\r\n(From 1 August 2013: Monday – Friday: 3:00 pm – 10:00 pm)\r\nSaturday & Sunday: 12:00 pm – 10:00 pm","latitude":47.6481395,"longitude":-122.3422421,"isPrimary":"N","inPlanning":"N","isClosed":"N","openToPublic":"Y","locationType":"tasting","locationTypeDisplay":"Tasting Room","countryIsoCode":"US","status":"verified","statusDisplay":"Verified","createDate":"2013-07-27 14:55:21","updateDate":"2014-07-23 19:11:34","country":{"isoCode":"US","name":"UNITED STATES","displayName":"United States","isoThree":"USA","numberCode":840,"createDate":"2012-01-03 02:41:33"}},{"id":"xcKkLh","name":"Main Brewery","streetAddress":"334 N 25th Ave","locality":"Phoenix","region":"Arizona","postalCode":"85009","phone":"623-581-3359","website":"http://www.oldworldbrewery.com/","hoursOfOperation":"Mon - Sat:\t11:00 am\t-\t7:00 pm","latitude":33.452443,"longitude":-112.113127,"isPrimary":"Y","inPlanning":"N","isClosed":"N","openToPublic":"Y","locationType":"micro","locationTypeDisplay":"Micro Brewery","countryIsoCode":"US","yearOpened":"2009","status":"verified","statusDisplay":"Verified","createDate":"2012-01-03 02:42:04","updateDate":"2014-07-23 19:11:34","country":{"isoCode":"US","name":"UNITED STATES","displayName":"United States","isoThree":"USA","numberCode":840,"createDate":"2012-01-03 02:41:33"}},{"id":"eCqaSS","name":"Main Brewery","streetAddress":"440 County St.","locality":"Milan","region":"Michigan","postalCode":"48160","phone":"734-439-7490","website":"http://www.ogbrewing.com/","latitude":42.084271,"longitude":-83.6741071,"isPrimary":"Y","inPlanning":"N","isClosed":"N","openToPublic":"Y","locationType":"brewpub","locationTypeDisplay":"Brewpub","countryIsoCode":"US","yearOpened":"2009","status":"verified","statusDisplay":"Verified","createDate":"2012-01-03 02:42:04","updateDate":"2014-07-23 19:11:34","country":{"isoCode":"US","name":"UNITED STATES","displayName":"United States","isoThree":"USA","numberCode":840,"createDate":"2012-01-03 02:41:33"}},{"id":"OFZxLj","name":"Main Brewery","streetAddress":"35 Patton Ave","locality":"Asheville","region":"North Carolina","postalCode":"28801","phone":"828-350-0505","website":"http://www.oysterhousebeers.com/","latitude":35.594816,"longitude":-82.553198,"isPrimary":"Y","inPlanning":"N","isClosed":"N","openToPublic":"Y","locationType":"brewpub","locationTypeDisplay":"Brewpub","countryIsoCode":"US","yearOpened":"2009","status":"verified","statusDisplay":"Verified","createDate":"2012-01-03 02:42:05","updateDate":"2014-07-23 19:11:34","country":{"isoCode":"US","name":"UNITED STATES","displayName":"United States","isoThree":"USA","numberCode":840,"createDate":"2012-01-03 02:41:33"}},{"id":"8IJKF0","name":"Main Brewery","streetAddress":"613 E 2nd St","locality":"Broussard","region":"Louisiana","postalCode":"70518","phone":"337-315-3351","website":"http://www.parishbeer.com/","latitude":30.146351,"longitude":-91.956306,"isPrimary":"Y","inPlanning":"N","isClosed":"N","openToPublic":"Y","locationType":"micro","locationTypeDisplay":"Micro Brewery","countryIsoCode":"US","yearOpened":"2009","status":"verified","statusDisplay":"Verified","createDate":"2012-01-03 02:42:05","updateDate":"2014-07-23 19:11:34","country":{"isoCode":"US","name":"UNITED STATES","displayName":"United States","isoThree":"USA","numberCode":840,"createDate":"2012-01-03 02:41:33"}},{"id":"4q5nSU","name":"Main Brewery","streetAddress":"111 W 33rd St","locality":"Garden City","region":"Idaho","postalCode":"83714","phone":"(208) 344-0011","website":"http://www.payettebrewing.com/","hoursOfOperation":"Monday: 3-10pm\r\nTues, Wed, Thurs: 3-8pm\r\nFriday: 3-10pm\r\nSaturday: 12-10pm\r\nSunday: Closed","latitude":43.6211362,"longitude":-116.2389942,"isPrimary":"Y","inPlanning":"N","isClosed":"N","openToPublic":"Y","locationType":"micro","locationTypeDisplay":"Micro Brewery","countryIsoCode":"US","yearOpened":"2009","status":"verified","statusDisplay":"Verified","createDate":"2012-01-03 02:42:05","updateDate":"2014-07-23 19:11:34","country":{"isoCode":"US","name":"UNITED STATES","displayName":"United States","isoThree":"USA","numberCode":840,"createDate":"2012-01-03 02:41:33"}},{"id":"Lbvvk1","name":"Main Brewery","streetAddress":"2006 North 9th Street","locality":"Lafayette","region":"Indiana","postalCode":"47904","phone":"317-714-2777","website":"http://www.peoplesbrew.com/","hoursOfOperation":"Tasting Room Hours of Operation:\r\nWednesday - Friday             2pm - 8pm\r\nSaturday / Sunday              12pm - 8pm\r\n\r\nBrewery Tours:\r\nWednesday - Friday by Appt.\r\nSaturday / Sunday 12pm - 5pm\r\n\r\nEvery half hour • Free of charge","latitude":40.437682,"longitude":-86.886616,"isPrimary":"Y","inPlanning":"N","isClosed":"N","openToPublic":"Y","locationType":"micro","locationTypeDisplay":"Micro Brewery","countryIsoCode":"US","yearOpened":"2009","status":"verified","statusDisplay":"Verified","createDate":"2012-01-03 02:42:05","updateDate":"2014-07-23 19:11:34","country":{"isoCode":"US","name":"UNITED STATES","displayName":"United States","isoThree":"USA","numberCode":840,"createDate":"2012-01-03 02:41:33"}},{"id":"wbpj5b","name":"Main Brewery","streetAddress":"1675 N Western Ave","locality":"Chicago","region":"Illinois","postalCode":"60647","phone":"773-725-9428","website":"http://www.pipeworksbrewing.com/","latitude":41.912447,"longitude":-87.686905,"isPrimary":"Y","inPlanning":"N","isClosed":"N","openToPublic":"Y","locationType":"micro","locationTypeDisplay":"Micro Brewery","countryIsoCode":"US","yearOpened":"2009","status":"verified","statusDisplay":"Verified","createDate":"2012-01-03 02:42:05","updateDate":"2014-07-23 19:11:34","country":{"isoCode":"US","name":"UNITED STATES","displayName":"United States","isoThree":"USA","numberCode":840,"createDate":"2012-01-03 02:41:33"}},{"id":"NF4w5d","name":"Main Brewery","streetAddress":"810-b2 Dickerson Rd","locality":"North Wales","region":"Pennsylvania","postalCode":"19454","phone":"888-424-9681","website":"http://www.prismbeer.com/","latitude":40.2195242,"longitude":-75.2799549,"isPrimary":"Y","inPlanning":"N","isClosed":"N","openToPublic":"Y","locationType":"micro","locationTypeDisplay":"Micro Brewery","countryIsoCode":"US","yearOpened":"2009","status":"verified","statusDisplay":"Verified","createDate":"2012-01-03 02:42:06","updateDate":"2014-07-23 19:11:34","country":{"isoCode":"US","name":"UNITED STATES","displayName":"United States","isoThree":"USA","numberCode":840,"createDate":"2012-01-03 02:41:33"}},{"id":"bOSrnv","name":"Main Brewery","streetAddress":"Werbellinstraße 50","locality":"Berlin","region":"Berlin","postalCode":"12053","latitude":52.477489,"longitude":13.43303,"isPrimary":"N","inPlanning":"N","isClosed":"N","openToPublic":"Y","locationType":"micro","locationTypeDisplay":"Micro Brewery","countryIsoCode":"DE","status":"verified","statusDisplay":"Verified","createDate":"2012-08-12 14:47:13","updateDate":"2014-07-23 19:11:34","country":{"isoCode":"DE","name":"GERMANY","displayName":"Germany","isoThree":"DEU","numberCode":276,"createDate":"2012-01-03 02:41:33"}},{"id":"qZJOHj","name":"Main Brewery","streetAddress":"60 Molly Ln","locality":"Nashville","region":"Indiana","postalCode":"47448","phone":"813-988-6000","website":"http://www.bigwoodsbeer.com/","hoursOfOperation":"Mon - Thur: 11:30am - 9pm\r\nFri - Sat: 11:30am - 10pm\r\nSun: 11:30am - 9pm","latitude":39.2079575,"longitude":-86.2484171,"isPrimary":"Y","inPlanning":"N","isClosed":"N","openToPublic":"Y","locationType":"brewpub","locationTypeDisplay":"Brewpub","countryIsoCode":"US","status":"verified","statusDisplay":"Verified","createDate":"2012-01-03 02:41:46","updateDate":"2014-07-23 19:11:34","country":{"isoCode":"US","name":"UNITED STATES","displayName":"United States","isoThree":"USA","numberCode":840,"createDate":"2012-01-03 02:41:33"}},{"id":"eKF3uv","name":"Main Brewery","streetAddress":"607 Shepherd Drive #6","locality":"Cincinnati","region":"Ohio","postalCode":"45215","phone":"513-827-9280","website":"http://rivertownbrewery.com/","hoursOfOperation":"Wed:        4:00 pm - 8:00 pm\r\nThu:         5:00 pm - 10:00 pm\r\nFri:\t5:00 pm -10:00 pm\r\nSat:\t2:00 pm - 10:00 pm","latitude":39.236015,"longitude":-84.462885,"isPrimary":"Y","inPlanning":"N","isClosed":"N","openToPublic":"Y","locationType":"micro","locationTypeDisplay":"Micro Brewery","countryIsoCode":"US","status":"verified","statusDisplay":"Verified","createDate":"2012-01-03 02:42:07","updateDate":"2014-07-23 19:11:34","country":{"isoCode":"US","name":"UNITED STATES","displayName":"United States","isoThree":"USA","numberCode":840,"createDate":"2012-01-03 02:41:33"}},{"id":"E0JqSe","name":"Main Brewery","streetAddress":"253 W 35th St","locality":"New York","region":"New York","postalCode":"10001","phone":"646-710-5007","website":"http://www.ruckusmarketing.com/","latitude":40.752698,"longitude":-73.992003,"isPrimary":"Y","inPlanning":"N","isClosed":"N","openToPublic":"Y","locationType":"micro","locationTypeDisplay":"Micro Brewery","countryIsoCode":"US","status":"verified","statusDisplay":"Verified","createDate":"2012-01-03 02:42:07","updateDate":"2014-07-23 19:11:34","country":{"isoCode":"US","name":"UNITED STATES","displayName":"United States","isoThree":"USA","numberCode":840,"createDate":"2012-01-03 02:41:33"}},{"id":"ks0uLq","name":"Main Brewery","streetAddress":"Bachstrasse 14","locality":"Friedrichroda","region":"Thuringia","postalCode":"99894","latitude":50.856241,"longitude":10.639634,"isPrimary":"Y","inPlanning":"N","isClosed":"N","openToPublic":"Y","locationType":"micro","locationTypeDisplay":"Micro Brewery","countryIsoCode":"DE","status":"verified","statusDisplay":"Verified","createDate":"2012-08-16 15:01:58","updateDate":"2014-07-23 19:11:34","country":{"isoCode":"DE","name":"GERMANY","displayName":"Germany","isoThree":"DEU","numberCode":276,"createDate":"2012-01-03 02:41:33"}},{"id":"5Abc2i","name":"Main Brewery","streetAddress":"Bänschstraße 91","region":"Berlin","postalCode":"10247","latitude":52.515696,"longitude":13.46485,"isPrimary":"N","inPlanning":"N","isClosed":"N","openToPublic":"Y","locationType":"micro","locationTypeDisplay":"Micro Brewery","countryIsoCode":"DE","status":"verified","statusDisplay":"Verified","createDate":"2012-08-12 14:46:41","updateDate":"2014-07-23 19:11:34","country":{"isoCode":"DE","name":"GERMANY","displayName":"Germany","isoThree":"DEU","numberCode":276,"createDate":"2012-01-03 02:41:33"}},{"id":"frBPqX","name":"Main Brewery","streetAddress":"Karl-Schmidt-Straße 19","locality":"Magdeburg","region":"Sachsen-Anhalt","postalCode":"D-39104","website":"http://www.xn--schtte-bru-y5a5z.de/","latitude":52.131868,"longitude":11.627789,"isPrimary":"N","inPlanning":"N","isClosed":"N","openToPublic":"Y","locationType":"micro","locationTypeDisplay":"Micro Brewery","countryIsoCode":"DE","status":"verified","statusDisplay":"Verified","createDate":"2012-08-12 14:45:59","updateDate":"2014-07-23 19:11:34","country":{"isoCode":"DE","name":"GERMANY","displayName":"Germany","isoThree":"DEU","numberCode":276,"createDate":"2012-01-03 02:41:33"}},{"id":"haX4c9","name":"Gem & Keystone","streetAddress":"1 River Road","locality":"Shawnee On Delaware","region":"Pennsylvania","postalCode":"18356","phone":"(570) 424-0990","website":"http://www.shawneecraftbrewingcompany.com/","hoursOfOperation":"Mon - Thu: 11:30 am - 10:00 pm\r\nFri - Sat: 11:30 am - 12:00 am\r\nSun: 11:30 am - 10:00 pm","latitude":41.008177,"longitude":-75.108645,"isPrimary":"N","inPlanning":"N","isClosed":"N","openToPublic":"Y","locationType":"brewpub","locationTypeDisplay":"Brewpub","countryIsoCode":"US","yearOpened":"2009","status":"verified","statusDisplay":"Verified","createDate":"2012-01-03 02:42:08","updateDate":"2014-07-23 19:11:34","country":{"isoCode":"US","name":"UNITED STATES","displayName":"United States","isoThree":"USA","numberCode":840,"createDate":"2012-01-03 02:41:33"}},{"id":"0nbvfO","name":"ShawneeCraft Brewery","streetAddress":"1 River Road","locality":"Shawnee On Delaware","region":"Pennsylvania","postalCode":"18356","phone":"(570) 213-5151","website":"http://www.shawneecraftbrewingcompany.com/","hoursOfOperation":"Tasting Room Hours:\r\nWednesday - Sunday: 12:00 - 5:00 and Thursdays until 10:00\r\n\r\nTours:\r\nWednesday - Sunday: 12:00","latitude":41.008177,"longitude":-75.108645,"isPrimary":"Y","inPlanning":"N","isClosed":"N","openToPublic":"Y","locationType":"tasting","locationTypeDisplay":"Tasting Room","countryIsoCode":"US","yearOpened":"2009","status":"verified","statusDisplay":"Verified","createDate":"2013-08-13 17:01:56","updateDate":"2014-07-23 19:11:34","country":{"isoCode":"US","name":"UNITED STATES","displayName":"United States","isoThree":"USA","numberCode":840,"createDate":"2012-01-03 02:41:33"}},{"id":"nzicY8","name":"Old Plant No. 1 Pub","streetAddress":"3690 Forest Park Avenue","locality":"St. Louis","region":"Missouri","postalCode":"63108","phone":"314-531-5600","website":"http://www.sixrowbrewco.com/","hoursOfOperation":"Mon-Wed:11:30 to 9:30\r\nThu:11:30 to 10:30\r\nFri:11:30 to Midnight\r\nSat:Noon to Midnight\r\nSun:Closed","latitude":38.6335485,"longitude":-90.237621,"isPrimary":"Y","inPlanning":"N","isClosed":"N","openToPublic":"Y","locationType":"brewpub","locationTypeDisplay":"Brewpub","countryIsoCode":"US","yearOpened":"2009","status":"verified","statusDisplay":"Verified","createDate":"2012-01-03 02:42:08","updateDate":"2014-09-26 13:53:16","country":{"isoCode":"US","name":"UNITED STATES","displayName":"United States","isoThree":"USA","numberCode":840,"createDate":"2012-01-03 02:41:33"}},{"id":"4lYkpf","name":"Main Brewery","streetAddress":"1920 E University Dr","locality":"Tempe","region":"Arizona","postalCode":"85281","phone":"480-967-5476","website":"http://www.sleepydogbrewing.com/","latitude":33.4225411,"longitude":-111.9041782,"isPrimary":"Y","inPlanning":"N","isClosed":"N","openToPublic":"Y","locationType":"brewpub","locationTypeDisplay":"Brewpub","countryIsoCode":"US","status":"verified","statusDisplay":"Verified","createDate":"2012-01-03 02:42:08","updateDate":"2014-07-23 19:11:34","country":{"isoCode":"US","name":"UNITED STATES","displayName":"United States","isoThree":"USA","numberCode":840,"createDate":"2012-01-03 02:41:33"}},{"id":"E8u8xa","name":"Main Brewery","streetAddress":"Klein Sommerbeck 4","region":"Dahlenburg","postalCode":"21368","latitude":53.201076,"longitude":10.678317,"isPrimary":"Y","inPlanning":"N","isClosed":"N","openToPublic":"Y","locationType":"micro","locationTypeDisplay":"Micro Brewery","countryIsoCode":"DE","status":"verified","statusDisplay":"Verified","createDate":"2012-08-16 15:10:56","updateDate":"2014-07-23 19:11:34","country":{"isoCode":"DE","name":"GERMANY","displayName":"Germany","isoThree":"DEU","numberCode":276,"createDate":"2012-01-03 02:41:33"}},{"id":"rlG8sP","name":"Main Brewery","streetAddress":"3825 South Kinnickinnic Avenue","locality":"Francis","region":"Wisconsin","postalCode":"53235","phone":"414-744-4448","website":"http://www.stfrancisbrewery.com/","latitude":42.9741209,"longitude":-87.8755229,"isPrimary":"Y","inPlanning":"N","isClosed":"N","openToPublic":"Y","locationType":"micro","locationTypeDisplay":"Micro Brewery","countryIsoCode":"US","yearOpened":"2009","status":"verified","statusDisplay":"Verified","createDate":"2012-01-03 02:42:09","updateDate":"2014-07-23 19:11:34","country":{"isoCode":"US","name":"UNITED STATES","displayName":"United States","isoThree":"USA","numberCode":840,"createDate":"2012-01-03 02:41:33"}},{"id":"XPKDbB","name":"Main Brewery","streetAddress":"480 Hillsboro Street","extendedAddress":"Suite 1000","locality":"Pittsboro","region":"North Carolina","postalCode":"27312","phone":"919-533-6314","website":"http://starrlightmead.com","hoursOfOperation":"Regular Hours\r\nThursdays and Fridays from noon til 6 pm\r\n\r\nSaturdays from noon til 6 pm\r\nMeadery tours at 1 pm, 3 pm & 5 pm.\r\n\r\nSundays from 1 pm til 5 pm\r\nMeadery tours at 2 pm & 4 pm.","latitude":35.7269418,"longitude":-79.1752021,"isPrimary":"Y","inPlanning":"N","isClosed":"N","openToPublic":"Y","locationType":"micro","locationTypeDisplay":"Micro Brewery","countryIsoCode":"US","status":"verified","statusDisplay":"Verified","createDate":"2013-06-27 15:32:51","updateDate":"2014-07-23 19:11:34","country":{"isoCode":"US","name":"UNITED STATES","displayName":"United States","isoThree":"USA","numberCode":840,"createDate":"2012-01-03 02:41:33"}},{"id":"ESE8VL","name":"Main Brewery","locality":"Albany","region":"New York","postalCode":"12207","website":"http://www.steadfastbeer.com/","latitude":42.651445,"longitude":-73.755254,"isPrimary":"Y","inPlanning":"N","isClosed":"N","openToPublic":"N","locationType":"micro","locationTypeDisplay":"Micro Brewery","countryIsoCode":"US","status":"verified","statusDisplay":"Verified","createDate":"2012-09-21 16:53:56","updateDate":"2014-07-23 19:11:34","country":{"isoCode":"US","name":"UNITED STATES","displayName":"United States","isoThree":"USA","numberCode":840,"createDate":"2012-01-03 02:41:33"}},{"id":"p7c7Gh","name":"Main Brewery","streetAddress":"3200 Leeman Ferry Road","locality":"Huntsville","region":"Alabama","postalCode":"35801","website":"http://www.straighttoale.com/","hoursOfOperation":"The Tap Room is open Wednesday through Saturday from 3pm until 8pm.\r\n\r\nFREE brewery tours are given on Saturdays at 2PM.  Weekly tour is limited to 20 people and you must be 21 or over. Reservations are required.","latitude":34.693672,"longitude":-86.591995,"isPrimary":"Y","inPlanning":"N","isClosed":"N","openToPublic":"Y","locationType":"micro","locationTypeDisplay":"Micro Brewery","countryIsoCode":"US","yearOpened":"2009","status":"verified","statusDisplay":"Verified","createDate":"2012-01-03 02:42:09","updateDate":"2014-07-23 19:11:34","country":{"isoCode":"US","name":"UNITED STATES","displayName":"United States","isoThree":"USA","numberCode":840,"createDate":"2012-01-03 02:41:33"}},{"id":"6i1kj2","name":"Main Brewery","streetAddress":"500 Redwood Blvd.","extendedAddress":"Suite 200","locality":"Novato","region":"California","postalCode":"94947","phone":"415-382-6754","website":"http://www.taproom21.com/","latitude":38.074584,"longitude":-122.542871,"isPrimary":"Y","inPlanning":"N","isClosed":"N","openToPublic":"Y","locationType":"micro","locationTypeDisplay":"Micro Brewery","countryIsoCode":"US","status":"verified","statusDisplay":"Verified","createDate":"2012-01-03 02:42:09","updateDate":"2014-07-23 19:11:34","country":{"isoCode":"US","name":"UNITED STATES","displayName":"United States","isoThree":"USA","numberCode":840,"createDate":"2012-01-03 02:41:33"}},{"id":"AyomgM","name":"Main Brewery","streetAddress":"120 N. Neil Street","locality":"Champaign","region":"Illinois","postalCode":"61820","phone":"217-398-5133","website":"http://blindpigbrewery.com/","latitude":40.1171629,"longitude":-88.2434059,"isPrimary":"Y","inPlanning":"N","isClosed":"N","openToPublic":"Y","locationType":"brewpub","locationTypeDisplay":"Brewpub","countryIsoCode":"US","yearOpened":"2009","status":"verified","statusDisplay":"Verified","createDate":"2012-01-03 02:42:10","updateDate":"2014-07-23 19:11:34","country":{"isoCode":"US","name":"UNITED STATES","displayName":"United States","isoThree":"USA","numberCode":840,"createDate":"2012-01-03 02:41:33"}},{"id":"fpVo3M","name":"Main Brewery","streetAddress":"40 Ashlands Road","locality":"Ilkley","region":"West Yorkshire","postalCode":"LS29 8JT","phone":"+44 1943 604604","website":"http://www.ilkleybrewery.co.uk/","latitude":53.9296698,"longitude":-1.8130207,"isPrimary":"Y","inPlanning":"N","isClosed":"N","openToPublic":"Y","locationType":"micro","locationTypeDisplay":"Micro Brewery","countryIsoCode":"GB","status":"verified","statusDisplay":"Verified","createDate":"2013-04-15 00:48:11","updateDate":"2014-07-23 19:11:34","country":{"isoCode":"GB","name":"UNITED KINGDOM","displayName":"United Kingdom","isoThree":"GBR","numberCode":826,"createDate":"2012-01-03 02:41:33"}},{"id":"x9wfYI","name":"The Olde Mecklenburg Brewery","streetAddress":"4150 Yancey Road","locality":"Charlotte","region":"North Carolina","postalCode":"28217","phone":"704-525-5644","website":"http://oldemeckbrew.com/","hoursOfOperation":"Sun:  12:00pm - 8:00pm\nMon:  12:00pm - 9:00pm\nTue:  12:00pm - 10:00pm\nWed:  12:00pm - 10:00pm\nThu:  12:00pm - 10:00pm\nFri:  12:00pm - 10:00pm\nSat:  12:00pm - 10:00pm\n\n","latitude":35.187442,"longitude":-80.881973,"isPrimary":"Y","inPlanning":"N","isClosed":"N","openToPublic":"Y","locationType":"micro","locationTypeDisplay":"Micro Brewery","countryIsoCode":"US","yearOpened":"2009","status":"verified","statusDisplay":"Verified","createDate":"2012-01-03 02:42:10","updateDate":"2014-09-11 10:34:07","country":{"isoCode":"US","name":"UNITED STATES","displayName":"United States","isoThree":"USA","numberCode":840,"createDate":"2012-01-03 02:41:33"}},{"id":"LbS8zJ","name":"Main Brewery","streetAddress":"1703 Woodfield Dr","locality":"Savoy","region":"Illinois","postalCode":"61874","website":"http://triptychbrewing.com/","hoursOfOperation":"Mon - Thu: 3:00 pm - 10:00 pm\r\nFri: 3:00 pm - 11:00 pm\r\nSat: 12:00 pm - 11:00 pm","latitude":40.076844,"longitude":-88.249369,"isPrimary":"Y","inPlanning":"N","isClosed":"N","openToPublic":"Y","locationType":"micro","locationTypeDisplay":"Micro Brewery","countryIsoCode":"US","yearOpened":"2012","status":"verified","statusDisplay":"Verified","createDate":"2013-04-09 19:34:31","updateDate":"2014-07-23 19:11:34","country":{"isoCode":"US","name":"UNITED STATES","displayName":"United States","isoThree":"USA","numberCode":840,"createDate":"2012-01-03 02:41:33"}},{"id":"xTGf63","name":"Main Brewery","streetAddress":"5764 Wheeler Road","locality":"Indianapolis","region":"Indiana","postalCode":"46216","phone":"317-735-2706","website":"http://tritonbrewing.com/","latitude":39.860189,"longitude":-86.007047,"isPrimary":"Y","inPlanning":"N","isClosed":"N","openToPublic":"Y","locationType":"micro","locationTypeDisplay":"Micro Brewery","countryIsoCode":"US","yearOpened":"2009","status":"verified","statusDisplay":"Verified","createDate":"2012-01-03 02:42:11","updateDate":"2014-09-11 20:08:28","country":{"isoCode":"US","name":"UNITED STATES","displayName":"United States","isoThree":"USA","numberCode":840,"createDate":"2012-01-03 02:41:33"}},{"id":"ZdRbF8","name":"Main Brewery","streetAddress":"298 Beach Road","region":"Black Rock","postalCode":"3193","phone":"+61 1300 878 360","website":"http://www.truesouth.com.au/","hoursOfOperation":"Tue:  12:00pm - 11:00pm\nWed:  12:00pm - 11:00pm\nThu:  12:00pm - 11:00pm\nFri:  12:00pm - 11:00pm\nSat:  12:00pm - 11:00pm\nSun:  12:00pm - 11:00pm\n\n","latitude":-37.9757345,"longitude":145.0163962,"isPrimary":"Y","inPlanning":"N","isClosed":"N","openToPublic":"N","locationType":"micro","locationTypeDisplay":"Micro Brewery","countryIsoCode":"AU","yearOpened":"2009","status":"verified","statusDisplay":"Verified","createDate":"2014-08-13 12:03:02","updateDate":"2014-08-13 12:03:02","country":{"isoCode":"AU","name":"AUSTRALIA","displayName":"Australia","isoThree":"AUS","numberCode":36,"createDate":"2012-01-03 02:41:33"}},{"id":"LSO3jf","name":"Main Brewery","streetAddress":"14841 SW Tualatin Sherwood Road","locality":"Sherwood","region":"Oregon","postalCode":"97140","phone":"(503) 625-1700","website":"http://twokiltsbrewing.com","latitude":45.3684029,"longitude":-122.8296813,"isPrimary":"Y","inPlanning":"N","isClosed":"N","openToPublic":"Y","locationType":"micro","locationTypeDisplay":"Micro Brewery","countryIsoCode":"US","status":"verified","statusDisplay":"Verified","createDate":"2014-01-16 18:43:13","updateDate":"2014-07-23 19:11:34","country":{"isoCode":"US","name":"UNITED STATES","displayName":"United States","isoThree":"USA","numberCode":840,"createDate":"2012-01-03 02:41:33"}},{"id":"KeILJZ","name":"Main Brewery","streetAddress":"214 State Street","extendedAddress":"#214","locality":"Santa Barbara","region":"California","postalCode":"93101","phone":"(805) 845-8243","website":"http://www.unionale.com/","hoursOfOperation":"Mon - Wed: 11:00 am - 10:00 pm\r\nThu: 11:00 am - 12:00 am\r\nFri - Sat: 11:00 am - 12:30 am","latitude":34.414427,"longitude":-119.691952,"isPrimary":"Y","inPlanning":"N","isClosed":"N","openToPublic":"Y","locationType":"brewpub","locationTypeDisplay":"Brewpub","countryIsoCode":"US","yearOpened":"2009","status":"verified","statusDisplay":"Verified","createDate":"2012-01-03 02:42:11","updateDate":"2014-07-23 19:11:34","country":{"isoCode":"US","name":"UNITED STATES","displayName":"United States","isoThree":"USA","numberCode":840,"createDate":"2012-01-03 02:41:33"}},{"id":"3E8c9L","name":"Main Brewery","streetAddress":"214 Oak St","locality":"Ypsilanti","region":"Michigan","postalCode":"48198","phone":"734-277-4063","website":"http://unityvibrationkombucha.com/","latitude":42.248063,"longitude":-83.606714,"isPrimary":"Y","inPlanning":"N","isClosed":"N","openToPublic":"Y","locationType":"nano","locationTypeDisplay":"Nano Brewery","countryIsoCode":"US","status":"verified","statusDisplay":"Verified","createDate":"2012-08-11 19:49:37","updateDate":"2014-07-23 19:11:34","country":{"isoCode":"US","name":"UNITED STATES","displayName":"United States","isoThree":"USA","numberCode":840,"createDate":"2012-01-03 02:41:33"}},{"id":"We5w0j","name":"Main Brewery","streetAddress":"157 2nd Ave W.","locality":"Twin Falls","region":"Idaho","postalCode":"83301","phone":"208-733-2131","website":"http://www.facebook.com/pages/Von-Scheidt-Brewing-Company-LLC/","latitude":42.5556935,"longitude":-114.4717272,"isPrimary":"Y","inPlanning":"N","isClosed":"N","openToPublic":"Y","locationType":"brewpub","locationTypeDisplay":"Brewpub","countryIsoCode":"US","yearOpened":"2009","status":"verified","statusDisplay":"Verified","createDate":"2012-01-03 02:42:12","updateDate":"2014-07-23 19:11:34","country":{"isoCode":"US","name":"UNITED STATES","displayName":"United States","isoThree":"USA","numberCode":840,"createDate":"2012-01-03 02:41:33"}},{"id":"KoYFbg","name":"Main Brewery","streetAddress":"Kussebode 10","locality":"Clenze","region":"Niedersachsen","postalCode":"D-29459","latitude":52.921962,"longitude":10.997834,"isPrimary":"N","inPlanning":"N","isClosed":"N","openToPublic":"Y","locationType":"micro","locationTypeDisplay":"Micro Brewery","countryIsoCode":"DE","status":"verified","statusDisplay":"Verified","createDate":"2012-08-12 14:45:34","updateDate":"2014-07-23 19:11:34","country":{"isoCode":"DE","name":"GERMANY","displayName":"Germany","isoThree":"DEU","numberCode":276,"createDate":"2012-01-03 02:41:33"}},{"id":"fBfzvN","name":"Main Brewery","streetAddress":"1339 Hooksett Road","locality":"Hooksett","region":"New Hampshire","postalCode":"03106","phone":"(603) 206-5260","website":"http://www.whitebirchbrewing.com/","hoursOfOperation":"Winter 2014 Hours:\r\nFriday: 12 noon to 6 p.m.\r\nSaturday: 12 noon to 4 p.m.\r\nSunday – Thursday: CLOSED","latitude":43.0584526,"longitude":-71.4418986,"isPrimary":"Y","inPlanning":"N","isClosed":"N","openToPublic":"Y","locationType":"micro","locationTypeDisplay":"Micro Brewery","countryIsoCode":"US","yearOpened":"2009","status":"verified","statusDisplay":"Verified","createDate":"2012-01-03 02:42:13","updateDate":"2014-07-23 19:11:34","country":{"isoCode":"US","name":"UNITED STATES","displayName":"United States","isoThree":"USA","numberCode":840,"createDate":"2012-01-03 02:41:33"}},{"id":"qMu5Rj","name":"Main Brewery","extendedAddress":"PO Box 942","locality":"Wolfforth","region":"Texas","phone":"806-833-6969","website":"http://www.wickedbeaverbrewing.com/","latitude":33.508643,"longitude":-102.008987,"isPrimary":"Y","inPlanning":"N","isClosed":"N","openToPublic":"Y","locationType":"micro","locationTypeDisplay":"Micro Brewery","countryIsoCode":"US","yearOpened":"2009","status":"verified","statusDisplay":"Verified","createDate":"2012-01-03 02:42:13","updateDate":"2014-07-23 19:11:34","country":{"isoCode":"US","name":"UNITED STATES","displayName":"United States","isoThree":"USA","numberCode":840,"createDate":"2012-01-03 02:41:33"}},{"id":"KAEeiz","name":"Main Brewery","locality":"Thornton","region":"Colorado","phone":"(970) 691-1641","website":"http://www.wileybrewing.com/","latitude":39.8680412,"longitude":-104.9719243,"isPrimary":"Y","inPlanning":"Y","isClosed":"N","openToPublic":"Y","locationType":"micro","locationTypeDisplay":"Micro Brewery","countryIsoCode":"US","status":"verified","statusDisplay":"Verified","createDate":"2012-12-19 12:27:13","updateDate":"2014-07-23 19:11:34","country":{"isoCode":"US","name":"UNITED STATES","displayName":"United States","isoThree":"USA","numberCode":840,"createDate":"2012-01-03 02:41:33"}},{"id":"F7jYQV","name":"Main Brewery","streetAddress":"625 3rd Street","extendedAddress":"Unit D","locality":"Greeley","region":"Colorado","postalCode":"80631","phone":"(970) 691-1641","website":"http://www.wileyrootsbrewing.com/","hoursOfOperation":"Wed - Fri: 3:00 pm - 11:00 pm\r\nSat: 2:00 pm - 11:00 pm\r\nSun: 2:00 pm - 8:00 pm","latitude":40.4315603,"longitude":-104.6879537,"isPrimary":"Y","inPlanning":"N","isClosed":"N","openToPublic":"Y","locationType":"micro","locationTypeDisplay":"Micro Brewery","countryIsoCode":"US","status":"verified","statusDisplay":"Verified","createDate":"2013-08-04 13:51:56","updateDate":"2014-07-23 19:11:34","country":{"isoCode":"US","name":"UNITED STATES","displayName":"United States","isoThree":"USA","numberCode":840,"createDate":"2012-01-03 02:41:33"}},{"id":"42i7K9","name":"Main Brewery","streetAddress":"Carl-Kossow-Straße 35-37","locality":"Marlow","region":"Mecklenburg-Vorpommern","postalCode":"D-18337","latitude":54.150387,"longitude":12.570028,"isPrimary":"N","inPlanning":"N","isClosed":"N","openToPublic":"Y","locationType":"micro","locationTypeDisplay":"Micro Brewery","countryIsoCode":"DE","status":"verified","statusDisplay":"Verified","createDate":"2012-08-12 14:45:25","updateDate":"2014-07-23 19:11:34","country":{"isoCode":"DE","name":"GERMANY","displayName":"Germany","isoThree":"DEU","numberCode":276,"createDate":"2012-01-03 02:41:33"}}]