[{"id":"1sdzYJ","name":"Main Brewery","streetAddress":"5725 Miller Ave","locality":"Gary","region":"Indiana","postalCode":"46403","phone":"(219) 939-8802","website":"http://18thstreetbrewery.com/","hoursOfOperation":"Tue:  3:00pm - 10:00pm, 3:00pm - 10:00pm\nWed:  3:00pm - 10:00pm, 3:00pm - 10:00pm\nThu:  12:00pm - 10:00pm, 12:00pm - 10:00pm\nFri:  12:00pm - 12:00am, 12:00pm - 12:00am\nSat:  12:00pm - 12:00am, 12:00pm - 12:00am\nSun:  12:00pm - 10:00pm, 12:00pm - 10:00pm\n\n","latitude":41.5991143,"longitude":-87.2671887,"isPrimary":"Y","inPlanning":"N","isClosed":"N","openToPublic":"Y","locationType":"micro","locationTypeDisplay":"Micro Brewery","countryIsoCode":"US","yearOpened":"2014","status":"verified","statusDisplay":"Verified","createDate":"2013-03-02 18:42:33","updateDate":"2014-11-20 13:46:29","country":{"isoCode":"US","name":"UNITED STATES","displayName":"United States","isoThree":"USA","numberCode":840,"createDate":"2012-01-03 02:41:33"}},{"id":"w4Qouf","name":"Main Brewery","streetAddress":"189 W Main St","locality":"Holyoke","region":"Massachusetts","postalCode":"01532","website":"http://www.3BeardsBeer.com","latitude":42.202294,"longitude":-72.6046854,"isPrimary":"Y","inPlanning":"N","isClosed":"N","openToPublic":"Y","locationType":"micro","locationTypeDisplay":"Micro Brewery","countryIsoCode":"US","status":"verified","statusDisplay":"Verified","createDate":"2014-04-17 12:07:23","updateDate":"2014-07-23 19:11:34","country":{"isoCode":"US","name":"UNITED STATES","displayName":"United States","isoThree":"USA","numberCode":840,"createDate":"2012-01-03 02:41:33"}},{"id":"PofhpE","name":"Main Brewery","streetAddress":"6400 Chillum Place, NW","locality":"Washington","region":"District of Columbia","postalCode":"20011","phone":"202-670-0333","website":"http://3starsbrewing.com/","latitude":38.9626852,"longitude":-77.0149188,"isPrimary":"Y","inPlanning":"N","isClosed":"N","openToPublic":"Y","locationType":"micro","locationTypeDisplay":"Micro Brewery","countryIsoCode":"US","yearOpened":"2010","status":"verified","statusDisplay":"Verified","createDate":"2012-01-03 02:41:43","updateDate":"2014-07-23 19:11:34","country":{"isoCode":"US","name":"UNITED STATES","displayName":"United States","isoThree":"USA","numberCode":840,"createDate":"2012-01-03 02:41:33"}},{"id":"VPHkaP","name":"Main Brewery","locality":"Berkeley","region":"California","phone":"510-730-2739","website":"http://www.4thwaybrewingco.com/","latitude":37.869885,"longitude":-122.270539,"isPrimary":"Y","inPlanning":"Y","isClosed":"N","openToPublic":"Y","locationType":"micro","locationTypeDisplay":"Micro Brewery","countryIsoCode":"US","yearOpened":"2010","status":"verified","statusDisplay":"Verified","createDate":"2012-01-03 02:41:43","updateDate":"2014-07-23 19:11:34","country":{"isoCode":"US","name":"UNITED STATES","displayName":"United States","isoThree":"USA","numberCode":840,"createDate":"2012-01-03 02:41:33"}},{"id":"k2jMtH","name":"Main Location","streetAddress":"5 Village Rd","locality":"Pepperell","region":"Massachusetts","postalCode":"01463-1182","phone":"978-265-1610","website":"http://www.50back.com/","latitude":42.6738423,"longitude":-71.5984083,"isPrimary":"Y","inPlanning":"N","isClosed":"N","openToPublic":"Y","locationType":"micro","locationTypeDisplay":"Micro Brewery","countryIsoCode":"US","yearOpened":"2010","status":"verified","statusDisplay":"Verified","createDate":"2012-01-03 02:41:43","updateDate":"2014-11-18 19:31:29","country":{"isoCode":"US","name":"UNITED STATES","displayName":"United States","isoThree":"USA","numberCode":840,"createDate":"2012-01-03 02:41:33"}},{"id":"B7P5BI","name":"Main Brewery","streetAddress":"Unit 4 Javelin Enterprise Park","extendedAddress":"Javelin Way","locality":"Ashford","region":"Kent","postalCode":"TN24 8DE","phone":"+44 7734 342278","latitude":51.1506338,"longitude":0.8887332,"isPrimary":"Y","inPlanning":"N","isClosed":"N","openToPublic":"Y","locationType":"micro","locationTypeDisplay":"Micro Brewery","countryIsoCode":"GB","yearOpened":"2010","status":"verified","statusDisplay":"Verified","createDate":"2012-12-21 16:55:24","updateDate":"2014-07-23 19:11:34","country":{"isoCode":"GB","name":"UNITED KINGDOM","displayName":"United Kingdom","isoThree":"GBR","numberCode":826,"createDate":"2012-01-03 02:41:33"}},{"id":"2wy19T","name":"Main Brewery","streetAddress":"6644 S 196th St","extendedAddress":"#T-100","locality":"Kent","region":"Washington","postalCode":"98032","phone":"253-200-1707","website":"http://airwaysbrewing.com/","hoursOfOperation":"Wed:  3:00pm - 8:00pm\nThu:  3:00pm - 8:00pm\nFri:  3:00pm - 8:00pm\nSat:  3:00pm - 8:00pm\n\n-Wednesday: 3-8pm\r\n-Thursday: 3-8pm\r\n-Friday: 3-8pm\r\n-Saturday: 3-7pm","latitude":47.4267159,"longitude":-122.2523104,"isPrimary":"Y","inPlanning":"N","isClosed":"N","openToPublic":"Y","locationType":"micro","locationTypeDisplay":"Micro Brewery","countryIsoCode":"US","status":"verified","statusDisplay":"Verified","createDate":"2012-01-03 02:41:43","updateDate":"2014-08-25 19:12:24","country":{"isoCode":"US","name":"UNITED STATES","displayName":"United States","isoThree":"USA","numberCode":840,"createDate":"2012-01-03 02:41:33"}},{"id":"o9yWqF","name":"Beer & Bistro","streetAddress":"320 W Harrison","locality":"Kent","region":"Washington","postalCode":"98032","phone":"253-236-8632","website":"http://airwaysbrewing.com","hoursOfOperation":"Tue:  12:00pm - 9:00pm\nWed:  12:00pm - 9:00pm\nThu:  12:00pm - 9:00pm\nFri:  12:00pm - 9:00pm\nSat:  12:00pm - 9:00pm\n\n-Tuesday: 12pm-9pm\r\n-Wednesday: 12pm-9pm\r\n-Thursday: 12pm-9pm\r\n-Friday: 12pm-10pm\r\n-Saturday: 12pm-10pm\r\n\r\n* This location is 21+","latitude":47.3822052,"longitude":-122.2355339,"isPrimary":"N","inPlanning":"N","isClosed":"N","openToPublic":"Y","locationType":"restaurant","locationTypeDisplay":"Restaurant/Ale House","countryIsoCode":"US","status":"verified","statusDisplay":"Verified","createDate":"2012-04-13 15:17:46","updateDate":"2014-08-25 19:12:25","country":{"isoCode":"US","name":"UNITED STATES","displayName":"United States","isoThree":"USA","numberCode":840,"createDate":"2012-01-03 02:41:33"}},{"id":"LrCfPf","name":"Main Brewery","streetAddress":"700 N Pennsylvania Avenue","locality":"Wilkes-Barre","region":"Pennsylvania","postalCode":"18705","phone":"800-961-8176","website":"http://www.boondogglebeer.com/","latitude":41.2556575,"longitude":-75.858261,"isPrimary":"Y","inPlanning":"N","isClosed":"N","openToPublic":"Y","locationType":"micro","locationTypeDisplay":"Micro Brewery","countryIsoCode":"US","status":"verified","statusDisplay":"Verified","createDate":"2012-01-03 02:41:44","updateDate":"2014-07-23 19:11:34","country":{"isoCode":"US","name":"UNITED STATES","displayName":"United States","isoThree":"USA","numberCode":840,"createDate":"2012-01-03 02:41:33"}},{"id":"aUeHiX","name":"Main Brewery","streetAddress":"11151 Trade Center Drive ,","locality":"Rancho Cordova","region":"California","postalCode":"95670","phone":"(916) 635-2537","website":"http://americanriverbrewingcompany.com/","hoursOfOperation":"Wed:  4:00pm - 8:00pm\nThu:  4:00pm - 8:00pm\nFri:  4:00pm - 8:00pm\n\nWednesday-Friday 4:00pm - 8:00pm","latitude":38.602932,"longitude":-121.270972,"isPrimary":"Y","inPlanning":"N","isClosed":"N","openToPublic":"Y","locationType":"micro","locationTypeDisplay":"Micro Brewery","countryIsoCode":"US","yearOpened":"2010","status":"verified","statusDisplay":"Verified","createDate":"2012-01-03 02:41:44","updateDate":"2014-08-25 19:12:42","country":{"isoCode":"US","name":"UNITED STATES","displayName":"United States","isoThree":"USA","numberCode":840,"createDate":"2012-01-03 02:41:33"}},{"id":"Suw3lO","name":"Main Office","locality":"Seattle","region":"Washington","postalCode":"98101","website":"http://americanvintagebeverage.com/","latitude":47.6084921,"longitude":-122.336407,"isPrimary":"Y","inPlanning":"N","isClosed":"N","openToPublic":"N","locationType":"office","locationTypeDisplay":"Office","countryIsoCode":"US","yearOpened":"2010","status":"verified","statusDisplay":"Verified","createDate":"2014-07-23 11:46:05","updateDate":"2014-07-23 19:11:34","country":{"isoCode":"US","name":"UNITED STATES","displayName":"United States","isoThree":"USA","numberCode":840,"createDate":"2012-01-03 02:41:33"}},{"id":"cd2nhC","name":"Main Brewery","streetAddress":"21547 Road 11.2 NW","locality":"Quincy","region":"Washington","postalCode":"98848","phone":"888-270-2760","website":"http://www.ancientlakesbrewing.com/","latitude":47.2529548,"longitude":-119.9551015,"isPrimary":"Y","inPlanning":"N","isClosed":"N","openToPublic":"Y","locationType":"micro","locationTypeDisplay":"Micro Brewery","countryIsoCode":"US","yearOpened":"2010","status":"verified","statusDisplay":"Verified","createDate":"2012-01-03 02:41:44","updateDate":"2014-07-23 19:11:34","country":{"isoCode":"US","name":"UNITED STATES","displayName":"United States","isoThree":"USA","numberCode":840,"createDate":"2012-01-03 02:41:33"}},{"id":"5oRQAh","name":"Andean Brewing Company, Inc.","streetAddress":"300 Corporate Drive","locality":"Blauvelt","region":"New York","postalCode":"10913","phone":"(646) 450-5852","website":"http://kukabeer.com","hoursOfOperation":"Fri:  4:00pm - 7:00pm\n\nFridays: 4:00 - 7:00 pm","latitude":41.079567,"longitude":-73.954171,"isPrimary":"Y","inPlanning":"N","isClosed":"N","openToPublic":"Y","locationType":"micro","locationTypeDisplay":"Micro Brewery","countryIsoCode":"US","yearOpened":"2010","status":"verified","statusDisplay":"Verified","createDate":"2014-02-20 19:04:35","updateDate":"2014-08-25 19:12:45","country":{"isoCode":"US","name":"UNITED STATES","displayName":"United States","isoThree":"USA","numberCode":840,"createDate":"2012-01-03 02:41:33"}},{"id":"yzUyju","name":"Main Brewery","extendedAddress":"PO Box 3","locality":"Denton","region":"Texas","postalCode":"76202","phone":"713-448-0268","website":"http://armadilloaleworks.com/","latitude":33.216565,"longitude":-97.130984,"isPrimary":"Y","inPlanning":"N","isClosed":"N","openToPublic":"Y","locationType":"micro","locationTypeDisplay":"Micro Brewery","countryIsoCode":"US","yearOpened":"2010","status":"verified","statusDisplay":"Verified","createDate":"2012-01-03 02:41:44","updateDate":"2014-07-23 19:11:34","country":{"isoCode":"US","name":"UNITED STATES","displayName":"United States","isoThree":"USA","numberCode":840,"createDate":"2012-01-03 02:41:33"}},{"id":"pwfPCD","name":"Main Brewery","streetAddress":"11255 Dobbins Run","locality":"Lafayette","region":"Colorado","postalCode":"80026","phone":"1.303.641.3435","latitude":40.050198,"longitude":-105.09055,"isPrimary":"Y","inPlanning":"Y","isClosed":"N","openToPublic":"N","locationType":"micro","locationTypeDisplay":"Micro Brewery","countryIsoCode":"US","status":"verified","statusDisplay":"Verified","createDate":"2012-01-03 02:41:44","updateDate":"2014-07-23 19:11:34","country":{"isoCode":"US","name":"UNITED STATES","displayName":"United States","isoThree":"USA","numberCode":840,"createDate":"2012-01-03 02:41:33"}},{"id":"SGODLe","name":"Main Brewery","streetAddress":"5600 Olde Wadsworth Blvd","locality":"Arvada","region":"Colorado","postalCode":"80002","latitude":39.7997703,"longitude":-105.0814367,"isPrimary":"Y","inPlanning":"N","isClosed":"N","openToPublic":"Y","locationType":"micro","locationTypeDisplay":"Micro Brewery","countryIsoCode":"US","status":"verified","statusDisplay":"Verified","createDate":"2012-01-03 02:41:44","updateDate":"2014-07-23 19:11:34","country":{"isoCode":"US","name":"UNITED STATES","displayName":"United States","isoThree":"USA","numberCode":840,"createDate":"2012-01-03 02:41:33"}},{"id":"o9Uk5X","name":"Main Brewery","streetAddress":"1175 Hudson St","locality":"Longview","region":"Washington","postalCode":"98632","phone":"(360) 353-5286","website":"http://www.ashtownbrewing.com","hoursOfOperation":"Wed:  3:00pm - 10:00pm\nFri:  3:00pm - 10:00pm\nSat:  12:00pm - 10:00pm\n\nWED/TH/FRI 3-10pm\r\nSAT 12-10pm\r\nSUN 1-6","latitude":46.1367144,"longitude":-122.9328484,"isPrimary":"Y","inPlanning":"N","isClosed":"N","openToPublic":"Y","locationType":"micro","locationTypeDisplay":"Micro Brewery","countryIsoCode":"US","yearOpened":"2013","status":"verified","statusDisplay":"Verified","createDate":"2014-06-23 11:43:37","updateDate":"2014-09-29 20:33:33","country":{"isoCode":"US","name":"UNITED STATES","displayName":"United States","isoThree":"USA","numberCode":840,"createDate":"2012-01-03 02:41:33"}},{"id":"AAj4GG","name":"Main Brewery","streetAddress":"6040 Camp Bowie Blvd","extendedAddress":"#64","locality":"Fort Worth","region":"Texas","postalCode":"76116","phone":"619-694-8633","website":"http://www.asskisserales.com/","latitude":32.729223,"longitude":-97.415003,"isPrimary":"Y","inPlanning":"N","isClosed":"N","openToPublic":"Y","locationType":"micro","locationTypeDisplay":"Micro Brewery","countryIsoCode":"US","yearOpened":"2010","status":"verified","statusDisplay":"Verified","createDate":"2012-01-03 02:41:44","updateDate":"2014-07-23 19:11:34","country":{"isoCode":"US","name":"UNITED STATES","displayName":"United States","isoThree":"USA","numberCode":840,"createDate":"2012-01-03 02:41:33"}},{"id":"HUv1K6","name":"Main Brewery","streetAddress":"350 Annangrove Rd","locality":"Rouse Hill","region":"New South Wales","postalCode":"2155","phone":"+61 2 9679 4555","website":"http://www.australianbrewery.com.au","latitude":-33.674124,"longitude":150.912377,"isPrimary":"Y","inPlanning":"N","isClosed":"N","openToPublic":"Y","locationType":"micro","locationTypeDisplay":"Micro Brewery","countryIsoCode":"AU","status":"verified","statusDisplay":"Verified","createDate":"2014-02-08 15:44:24","updateDate":"2014-07-23 19:11:34","country":{"isoCode":"AU","name":"AUSTRALIA","displayName":"Australia","isoThree":"AUS","numberCode":36,"createDate":"2012-01-03 02:41:33"}},{"id":"5OgWft","name":"Main Brewery","streetAddress":"9800 Montgomery Blvd NE","extendedAddress":"Ste 7","locality":"Albuquerque","region":"New Mexico","postalCode":"87111","phone":"505-918-2337","website":"http://www.babbrewery.com/","hoursOfOperation":"Mon:  4:00pm - 10:30pm\nTue:  4:00pm - 10:30pm\nWed:  4:00pm - 10:30pm\nThu:  4:00pm - 10:30pm\nSat:  3:00pm - 12:00am\nSun:  12:00pm - 8:00pm\n\nMonday - Thursday  4pm - 10:30pm\r\nFriday and Saturday 3pm - 12am\r\nSunday 12pm - 8pm Fill Growlers for Football\r\nThursday Football Nights $3 Regular Pints\r\n(Closing Hours Subject to Change According to Flow of Business)","latitude":35.1293487,"longitude":-106.532331,"isPrimary":"Y","inPlanning":"N","isClosed":"Y","openToPublic":"Y","locationType":"micro","locationTypeDisplay":"Micro Brewery","countryIsoCode":"US","yearOpened":"2010","status":"verified","statusDisplay":"Verified","createDate":"2012-01-03 02:41:44","updateDate":"2014-09-29 20:33:45","country":{"isoCode":"US","name":"UNITED STATES","displayName":"United States","isoThree":"USA","numberCode":840,"createDate":"2012-01-03 02:41:33"}},{"id":"6m50b9","name":"Main Brewery","streetAddress":"Via Vite 5","region":"Stabio","postalCode":"6855","phone":"+41 91 695 41 90","website":"http://www.badattitude.ch/","latitude":45.8418123,"longitude":8.9227138,"isPrimary":"Y","inPlanning":"N","isClosed":"N","openToPublic":"Y","locationType":"micro","locationTypeDisplay":"Micro Brewery","countryIsoCode":"CH","yearOpened":"2010","status":"verified","statusDisplay":"Verified","createDate":"2013-06-11 12:30:10","updateDate":"2014-07-23 19:11:34","country":{"isoCode":"CH","name":"SWITZERLAND","displayName":"Switzerland","isoThree":"CHE","numberCode":756,"createDate":"2012-01-03 02:41:33"}},{"id":"fWBoVb","name":"Main Brewery","streetAddress":"4720 Eastern Ave","locality":"Cincinnati","region":"Ohio","postalCode":"45226","phone":"(513) 871-4677","website":"http://badtombrewing.com","hoursOfOperation":"Wed: 5:00 pm - 10:00 pm\r\nThu: 5:00 pm - 11:00 pm\r\nFri: 4:00 pm - 11:00 pm\r\nSat: 1:00 pm - 11:00 pm\r\nSun: 1:00 pm - 6:00 pm","latitude":39.119749,"longitude":-84.418378,"isPrimary":"Y","inPlanning":"N","isClosed":"N","openToPublic":"Y","locationType":"micro","locationTypeDisplay":"Micro Brewery","countryIsoCode":"US","status":"verified","statusDisplay":"Verified","createDate":"2013-02-23 14:26:23","updateDate":"2014-11-14 19:01:46","country":{"isoCode":"US","name":"UNITED STATES","displayName":"United States","isoThree":"USA","numberCode":840,"createDate":"2012-01-03 02:41:33"}},{"id":"aP9faI","name":"Main Brewpub","streetAddress":"426 Mitchell Highway","locality":"Orange","region":"New South Wales","postalCode":"2800","phone":"+61 411 025 437","website":"http://www.badlandsbrewery.com.au/","hoursOfOperation":"Wed:  9:00am - 5:30pm\nThu:  9:00am - 5:30pm\nFri:  9:00am - 5:30pm\nSat:  9:00am - 4:00pm\nSun:  9:00am - 4:00pm\n\nWed - Fri: 9:00 am - 5:30 pm\r\nSat - Sun: 9:00 am - 4:00 pm","latitude":-33.256943,"longitude":149.074088,"isPrimary":"Y","inPlanning":"N","isClosed":"N","openToPublic":"Y","locationType":"brewpub","locationTypeDisplay":"Brewpub","countryIsoCode":"AU","status":"verified","statusDisplay":"Verified","createDate":"2014-02-13 13:19:39","updateDate":"2014-09-29 20:33:48","country":{"isoCode":"AU","name":"AUSTRALIA","displayName":"Australia","isoThree":"AUS","numberCode":36,"createDate":"2012-01-03 02:41:33"}},{"id":"qq0CWt","name":"Main Brewery","locality":"York","region":"Pennsylvania","latitude":39.9625984,"longitude":-76.727745,"isPrimary":"Y","inPlanning":"Y","isClosed":"N","openToPublic":"N","locationType":"nano","locationTypeDisplay":"Nano Brewery","countryIsoCode":"US","status":"verified","statusDisplay":"Verified","createDate":"2014-10-15 19:49:19","updateDate":"2014-10-15 19:49:19","country":{"isoCode":"US","name":"UNITED STATES","displayName":"United States","isoThree":"USA","numberCode":840,"createDate":"2012-01-03 02:41:33"}},{"id":"todpTX","name":"Main Brewery","extendedAddress":"PO Box 604","locality":"Balmain","region":"New South Wales","postalCode":"2041","phone":"+61 418 244 658","website":"http://www.balmainbrewingcompany.com.au/","latitude":-33.8575499,"longitude":151.1810431,"isPrimary":"Y","inPlanning":"N","isClosed":"N","openToPublic":"N","locationType":"micro","locationTypeDisplay":"Micro Brewery","countryIsoCode":"AU","yearOpened":"2010","status":"verified","statusDisplay":"Verified","createDate":"2014-02-08 15:47:16","updateDate":"2014-07-23 19:11:34","country":{"isoCode":"AU","name":"AUSTRALIA","displayName":"Australia","isoThree":"AUS","numberCode":36,"createDate":"2012-01-03 02:41:33"}},{"id":"5ue4ah","name":"Main Brewery","streetAddress":"110 Banff Ave","locality":"Banff","region":"Alberta","postalCode":"T1L 1A9","phone":"403-762-1003","website":"http://www.banffavebrewingco.ca/","hoursOfOperation":"Mon - Sun: 12:00 pm - 2:00 am","latitude":51.174752,"longitude":-115.570967,"isPrimary":"N","inPlanning":"N","isClosed":"N","openToPublic":"Y","locationType":"brewpub","locationTypeDisplay":"Brewpub","countryIsoCode":"CA","status":"verified","statusDisplay":"Verified","createDate":"2012-09-03 07:55:33","updateDate":"2014-07-23 19:11:34","country":{"isoCode":"CA","name":"CANADA","displayName":"Canada","isoThree":"CAN","numberCode":124,"createDate":"2012-01-03 02:41:33"}},{"id":"D7h5Pj","name":"Main Brewery","streetAddress":"215  Smith Street","extendedAddress":"Unit A & B","locality":"Sitka","region":"Alaska","postalCode":"99835","phone":"907-747-2739","website":"http://www.baranofislandbrewing.com/","hoursOfOperation":"Mon - Sun: 12:00 pm - 8:00 pm","latitude":57.050343,"longitude":-135.307776,"isPrimary":"Y","inPlanning":"N","isClosed":"N","openToPublic":"Y","locationType":"micro","locationTypeDisplay":"Micro Brewery","countryIsoCode":"US","yearOpened":"2010","status":"verified","statusDisplay":"Verified","createDate":"2012-01-03 02:41:45","updateDate":"2014-07-23 19:11:34","country":{"isoCode":"US","name":"UNITED STATES","displayName":"United States","isoThree":"USA","numberCode":840,"createDate":"2012-01-03 02:41:33"}},{"id":"gOaK1T","name":"Main Brewery","streetAddress":"110 N. Laurel St.","locality":"Port Angeles","region":"Washington","postalCode":"98362","phone":"360-460-5155","website":"http://www.barhopbrewing.com/","latitude":48.1192936,"longitude":-123.4332795,"isPrimary":"Y","inPlanning":"N","isClosed":"N","openToPublic":"Y","locationType":"micro","locationTypeDisplay":"Micro Brewery","countryIsoCode":"US","yearOpened":"2010","status":"verified","statusDisplay":"Verified","createDate":"2012-01-03 02:41:45","updateDate":"2014-07-23 19:11:34","country":{"isoCode":"US","name":"UNITED STATES","displayName":"United States","isoThree":"USA","numberCode":840,"createDate":"2012-01-03 02:41:33"}},{"id":"v21wKL","name":"Main Brewery","locality":"Franklin","region":"Wisconsin","postalCode":"53132","phone":"260-388-1898","website":"http://www.barleyandvinebrewery.com/","latitude":42.897482,"longitude":-88.031191,"isPrimary":"Y","inPlanning":"N","isClosed":"N","openToPublic":"N","locationType":"micro","locationTypeDisplay":"Micro Brewery","countryIsoCode":"US","yearOpened":"2010","status":"verified","statusDisplay":"Verified","createDate":"2012-01-03 02:41:45","updateDate":"2014-07-23 19:11:34","country":{"isoCode":"US","name":"UNITED STATES","displayName":"United States","isoThree":"USA","numberCode":840,"createDate":"2012-01-03 02:41:33"}},{"id":"vyhxFN","name":"Main Brewery","streetAddress":"32 Allen Blvd Unit E","locality":"Farmingdale","region":"New York","postalCode":"11735","phone":"631-335-7941","website":"http://www.barragebrewing.com/","latitude":40.716112,"longitude":-73.424747,"isPrimary":"Y","inPlanning":"N","isClosed":"N","openToPublic":"Y","locationType":"nano","locationTypeDisplay":"Nano Brewery","countryIsoCode":"US","yearOpened":"2012","status":"verified","statusDisplay":"Verified","createDate":"2013-01-16 20:17:12","updateDate":"2014-07-23 19:11:34","country":{"isoCode":"US","name":"UNITED STATES","displayName":"United States","isoThree":"USA","numberCode":840,"createDate":"2012-01-03 02:41:33"}},{"id":"DwGaaX","name":"Main Brewery","streetAddress":"130 Mill St","locality":"Lewiston","region":"Maine","postalCode":"04240","phone":"207-333-6769","website":"http://www.baxterbrewing.com/","latitude":44.0943359,"longitude":-70.2188736,"isPrimary":"Y","inPlanning":"N","isClosed":"N","openToPublic":"Y","locationType":"micro","locationTypeDisplay":"Micro Brewery","countryIsoCode":"US","yearOpened":"2010","status":"verified","statusDisplay":"Verified","createDate":"2012-01-03 02:41:45","updateDate":"2014-07-23 19:11:34","country":{"isoCode":"US","name":"UNITED STATES","displayName":"United States","isoThree":"USA","numberCode":840,"createDate":"2012-01-03 02:41:33"}},{"id":"JWsdLi","name":"Main Brewery","streetAddress":"1108 Taft St","locality":"Rockville","region":"Maryland","phone":"301-637-9322","website":"http://www.baying-hound.com/","hoursOfOperation":"Tours/Tastings are $5.00, this entitles you to free samples, and you can buy up to 288oz per person for take out only.\r\n\r\nMonday – Wednesday – Tastings are available by appointment only and is subject to the brewing schedule.\r\n\r\nThursday – 5:00 PM – 8:00 PM\r\nFriday – 5:00 PM – 9:00 PM\r\nSaturday – 12:00 PM – 6:00 PM","latitude":39.093563,"longitude":-77.1349277,"isPrimary":"Y","inPlanning":"N","isClosed":"N","openToPublic":"Y","locationType":"micro","locationTypeDisplay":"Micro Brewery","countryIsoCode":"US","status":"verified","statusDisplay":"Verified","createDate":"2012-01-03 02:41:45","updateDate":"2014-07-23 19:11:34","country":{"isoCode":"US","name":"UNITED STATES","displayName":"United States","isoThree":"USA","numberCode":840,"createDate":"2012-01-03 02:41:33"}},{"id":"mnlrxS","name":"Main Brewery","streetAddress":"2585 Horse Pasture Rd.","extendedAddress":"#204","locality":"Virginia Beach","region":"Virginia","postalCode":"23453","phone":"757-563-2337","website":"http://www.beachbrewingcompany.com/","hoursOfOperation":"Tue - Thu:\t3:00 pm - 7:00 pm\r\nFri:\t3:00 pm - 8:00 pm\r\nSat:\t11:00 am - 8:00 pm\r\nSun:\t1:00 pm - 6:00 pm","latitude":36.786964,"longitude":-76.058954,"isPrimary":"Y","inPlanning":"N","isClosed":"N","openToPublic":"Y","locationType":"micro","locationTypeDisplay":"Micro Brewery","countryIsoCode":"US","yearOpened":"2010","status":"verified","statusDisplay":"Verified","createDate":"2012-01-03 02:41:45","updateDate":"2014-07-23 19:11:34","country":{"isoCode":"US","name":"UNITED STATES","displayName":"United States","isoThree":"USA","numberCode":840,"createDate":"2012-01-03 02:41:33"}},{"id":"7Oizgf","name":"Main Brewery","streetAddress":"2558 Salebarn Road","locality":"Albion","region":"Nebraska","postalCode":"68620","website":"http://beaverviewbrew.com/","latitude":41.6960336,"longitude":-98.0024514,"isPrimary":"Y","inPlanning":"N","isClosed":"N","openToPublic":"Y","locationType":"micro","locationTypeDisplay":"Micro Brewery","countryIsoCode":"US","status":"verified","statusDisplay":"Verified","createDate":"2013-08-01 18:26:05","updateDate":"2014-07-23 19:11:34","country":{"isoCode":"US","name":"UNITED STATES","displayName":"United States","isoThree":"USA","numberCode":840,"createDate":"2012-01-03 02:41:33"}},{"id":"cR7Hbu","name":"Main Brewery","streetAddress":"1820 130th Avenue NE","locality":"Bellevue","region":"Washington","postalCode":"98005","phone":"425-785-0171","website":"http://www.bellevuebrewing.com/","latitude":47.626505,"longitude":-122.167065,"isPrimary":"Y","inPlanning":"N","isClosed":"N","openToPublic":"Y","locationType":"micro","locationTypeDisplay":"Micro Brewery","countryIsoCode":"US","yearOpened":"2010","status":"verified","statusDisplay":"Verified","createDate":"2012-01-03 02:41:45","updateDate":"2014-07-23 19:11:34","country":{"isoCode":"US","name":"UNITED STATES","displayName":"United States","isoThree":"USA","numberCode":840,"createDate":"2012-01-03 02:41:33"}},{"id":"JhqZva","name":"Main Brewery","streetAddress":"100 Old Newport St.","locality":"Nanticoke","region":"Pennsylvania","postalCode":"18634","phone":"(570) 735-4395","website":"http://martysblueroom.com/bennybrewcompanymain.htm","hoursOfOperation":"Tue - Sat: 5:00 pm - 10:00 pm","latitude":41.193243,"longitude":-76.015874,"isPrimary":"Y","inPlanning":"N","isClosed":"N","openToPublic":"Y","locationType":"nano","locationTypeDisplay":"Nano Brewery","countryIsoCode":"US","yearOpened":"2010","status":"verified","statusDisplay":"Verified","createDate":"2013-08-22 12:01:10","updateDate":"2014-07-23 19:11:34","country":{"isoCode":"US","name":"UNITED STATES","displayName":"United States","isoThree":"USA","numberCode":840,"createDate":"2012-01-03 02:41:33"}},{"id":"I9EcCn","name":"Main Brewery","streetAddress":"1912 West Michigan Street","locality":"Duluth","region":"Minnesota","postalCode":"55806","website":"http://www.bentpaddlebrewing.com/","latitude":46.7679949,"longitude":-92.1218101,"isPrimary":"Y","inPlanning":"N","isClosed":"N","openToPublic":"Y","locationType":"micro","locationTypeDisplay":"Micro Brewery","countryIsoCode":"US","status":"verified","statusDisplay":"Verified","createDate":"2013-04-15 00:51:59","updateDate":"2014-07-23 19:11:34","country":{"isoCode":"US","name":"UNITED STATES","displayName":"United States","isoThree":"USA","numberCode":840,"createDate":"2012-01-03 02:41:33"}},{"id":"Jo3ELa","name":"Main Brewery","streetAddress":"Schäferstraße 33a","locality":"Dortmund","region":"Nordrhein-Westfalen","postalCode":"D-44147","latitude":51.524235,"longitude":7.452585,"isPrimary":"N","inPlanning":"N","isClosed":"N","openToPublic":"Y","locationType":"micro","locationTypeDisplay":"Micro Brewery","countryIsoCode":"DE","status":"verified","statusDisplay":"Verified","createDate":"2012-08-12 14:46:42","updateDate":"2014-07-23 19:11:34","country":{"isoCode":"DE","name":"GERMANY","displayName":"Germany","isoThree":"DEU","numberCode":276,"createDate":"2012-01-03 02:41:33"}},{"id":"S4ShGM","name":"Main Brewery","streetAddress":"5133 East 65th Street","locality":"Indianapolis","region":"Indiana","postalCode":"46220","phone":"317-253-2437","website":"http://www.bierbrewery.com/","hoursOfOperation":"Monday-Tuesday  Closed\r\nWednesday:  3:00 PM-  7:00 PM   \r\nThursday: 3:00 PM - 7:00 PM\r\nFriday: 3:00 PM - 7:00 PM\r\nSaturday: 1:00 PM - 7:00 PM      \r\nSunday: 12:00 PM - 4:00 PM","latitude":39.8759533,"longitude":-86.082757,"isPrimary":"Y","inPlanning":"N","isClosed":"N","openToPublic":"Y","locationType":"micro","locationTypeDisplay":"Micro Brewery","countryIsoCode":"US","yearOpened":"2010","status":"verified","statusDisplay":"Verified","createDate":"2012-01-03 02:41:46","updateDate":"2014-07-23 19:11:34","country":{"isoCode":"US","name":"UNITED STATES","displayName":"United States","isoThree":"USA","numberCode":840,"createDate":"2012-01-03 02:41:33"}},{"id":"9ynYAy","name":"Main Brewery","streetAddress":"121 E. Midland Ave","locality":"Woodland Park","region":"Colorado","postalCode":"80863","phone":"719-686-8100","website":"http://bierwerks.com/","latitude":38.9945307,"longitude":-105.0524524,"isPrimary":"Y","inPlanning":"N","isClosed":"N","openToPublic":"Y","locationType":"brewpub","locationTypeDisplay":"Brewpub","countryIsoCode":"US","yearOpened":"2010","status":"verified","statusDisplay":"Verified","createDate":"2012-01-03 02:41:46","updateDate":"2014-07-23 19:11:34","country":{"isoCode":"US","name":"UNITED STATES","displayName":"United States","isoThree":"USA","numberCode":840,"createDate":"2012-01-03 02:41:33"}},{"id":"rt8P5a","name":"Main Brewery","streetAddress":"2707 Unit 9 West Eisenhower Boulevard","locality":"Loveland","region":"Colorado","postalCode":"80537","phone":"(970) 818-6064","website":"http://www.bigbeaverbrew.com/","hoursOfOperation":"Mon - Thu: 2:00 pm - 9:00 pm\r\nFri: 2:00 pm - 10:00 pm\r\nSat: 12:00 pm - 10:00 pm\r\nSun: 2:00 pm - 8:00 pm","latitude":40.407879,"longitude":-105.114465,"isPrimary":"Y","inPlanning":"N","isClosed":"N","openToPublic":"Y","locationType":"micro","locationTypeDisplay":"Micro Brewery","countryIsoCode":"US","yearOpened":"2010","status":"verified","statusDisplay":"Verified","createDate":"2012-01-03 02:41:46","updateDate":"2014-07-23 19:11:34","country":{"isoCode":"US","name":"UNITED STATES","displayName":"United States","isoThree":"USA","numberCode":840,"createDate":"2012-01-03 02:41:33"}},{"id":"5Cl0ab","name":"Main Brewery","streetAddress":"1 Antler Hill Road","locality":"Asheville","region":"North Carolina","postalCode":"28803","phone":"828-225-1333","website":"http://www.biltmore.com/our_wine/Biltmore_Brewing/Cedrics_Beer/","latitude":35.557734,"longitude":-82.580672,"isPrimary":"Y","inPlanning":"N","isClosed":"N","openToPublic":"Y","locationType":"office","locationTypeDisplay":"Office","countryIsoCode":"US","yearOpened":"2010","status":"verified","statusDisplay":"Verified","createDate":"2012-01-03 02:41:46","updateDate":"2014-07-23 19:11:34","country":{"isoCode":"US","name":"UNITED STATES","displayName":"United States","isoThree":"USA","numberCode":840,"createDate":"2012-01-03 02:41:33"}},{"id":"TdmhGu","name":"Main Brewery","streetAddress":"Dueffe SRL","extendedAddress":"Via della Breccia Violetta, 5 / A","region":"Pietrasanta","postalCode":"55045","phone":"+39 0584 793384","website":"http://www.birrificiodelforte.it/","latitude":43.9595513,"longitude":10.2286323,"isPrimary":"Y","inPlanning":"N","isClosed":"N","openToPublic":"Y","locationType":"micro","locationTypeDisplay":"Micro Brewery","countryIsoCode":"IT","status":"verified","statusDisplay":"Verified","createDate":"2013-05-28 12:30:22","updateDate":"2014-07-23 19:11:34","country":{"isoCode":"IT","name":"ITALY","displayName":"Italy","isoThree":"ITA","numberCode":380,"createDate":"2012-01-03 02:41:33"}},{"id":"yIJx1Z","name":"Main Brewery","streetAddress":"5632 E Washington St.","locality":"Indianapolis","region":"Indiana","postalCode":"46219","phone":"317-797-3316","website":"http://blackacrebrewing.com/","hoursOfOperation":"Mon:\t4:00 pm - 10:00 pm\r\nWed - Thu: 4:00 pm - 11:00 pm\r\nFri:\t4:00 pm - 12:00 am\r\nSat:\t12:00 pm - 12:00 am\r\nSun:\t11:00 am - 3:00 pm","latitude":39.770758,"longitude":-86.071493,"isPrimary":"Y","inPlanning":"N","isClosed":"N","openToPublic":"Y","locationType":"micro","locationTypeDisplay":"Micro Brewery","countryIsoCode":"US","yearOpened":"2010","status":"verified","statusDisplay":"Verified","createDate":"2012-01-03 02:41:46","updateDate":"2014-07-23 19:11:34","country":{"isoCode":"US","name":"UNITED STATES","displayName":"United States","isoThree":"USA","numberCode":840,"createDate":"2012-01-03 02:41:33"}},{"id":"3svzmk","name":"Main Brewery","streetAddress":"249 Burgess Ave","locality":"Alexandria","region":"Virginia","postalCode":"22305","phone":"202-460-8541","website":"http://www.blackcouchbrewery.com/","latitude":38.836252,"longitude":-77.063694,"isPrimary":"Y","inPlanning":"Y","isClosed":"N","openToPublic":"N","locationType":"micro","locationTypeDisplay":"Micro Brewery","countryIsoCode":"US","yearOpened":"2010","status":"verified","statusDisplay":"Verified","createDate":"2012-01-03 02:41:46","updateDate":"2014-07-23 19:11:34","country":{"isoCode":"US","name":"UNITED STATES","displayName":"United States","isoThree":"USA","numberCode":840,"createDate":"2012-01-03 02:41:33"}},{"id":"Kem84H","name":"Main Brewery","extendedAddress":"PO Box 501","locality":"Kent","region":"Ohio","postalCode":"44240","phone":"330-474-3737","website":"http://www.blacksquirrelbrewingcompany.com/","latitude":41.109008,"longitude":-81.377839,"isPrimary":"Y","inPlanning":"N","isClosed":"N","openToPublic":"Y","locationType":"micro","locationTypeDisplay":"Micro Brewery","countryIsoCode":"US","yearOpened":"2010","status":"verified","statusDisplay":"Verified","createDate":"2012-01-03 02:41:46","updateDate":"2014-07-23 19:11:34","country":{"isoCode":"US","name":"UNITED STATES","displayName":"United States","isoThree":"USA","numberCode":840,"createDate":"2012-01-03 02:41:33"}},{"id":"3jO7mO","name":"Tap Room","streetAddress":"312 Broadway St.","locality":"Sheridan","region":"Wyoming","postalCode":"82801","phone":"307-675-2337","website":"http://www.blacktoothbrewingcompany.com/","hoursOfOperation":"Monday - Thursday 12:00pm to 10:00pm\r\nFriday – Saturday 12:00pm to 11:00pm\r\nSunday - 2pm to 7pm","latitude":44.801034,"longitude":-106.953425,"isPrimary":"Y","inPlanning":"N","isClosed":"N","openToPublic":"Y","locationType":"micro","locationTypeDisplay":"Micro Brewery","countryIsoCode":"US","status":"verified","statusDisplay":"Verified","createDate":"2012-08-01 12:14:21","updateDate":"2014-07-23 19:11:34","country":{"isoCode":"US","name":"UNITED STATES","displayName":"United States","isoThree":"USA","numberCode":840,"createDate":"2012-01-03 02:41:33"}},{"id":"bQcGLo","name":"Main Brewery","locality":"Bondsville","region":"Massachusetts","website":"http://blatantbrewery.com/","latitude":42.212132,"longitude":-72.345238,"isPrimary":"Y","inPlanning":"N","isClosed":"N","openToPublic":"Y","locationType":"micro","locationTypeDisplay":"Micro Brewery","countryIsoCode":"US","yearOpened":"2010","status":"verified","statusDisplay":"Verified","createDate":"2012-01-03 02:41:46","updateDate":"2014-07-23 19:11:34","country":{"isoCode":"US","name":"UNITED STATES","displayName":"United States","isoThree":"USA","numberCode":840,"createDate":"2012-01-03 02:41:33"}},{"id":"R3xg0G","name":"Main Brewery","streetAddress":"500 Lanier Rd","extendedAddress":"Bldg 1 Suite A","locality":"Madison","region":"Alabama","postalCode":"35758","phone":"256-679-6330","website":"http://www.bluepantsbrew.com/","hoursOfOperation":"Tap Room Hours\r\nThursday 3-8pm\r\nFriday 3-10pm\r\nSaturday 3-10pm","latitude":34.685016,"longitude":-86.738193,"isPrimary":"Y","inPlanning":"N","isClosed":"N","openToPublic":"Y","locationType":"micro","locationTypeDisplay":"Micro Brewery","countryIsoCode":"US","yearOpened":"2010","status":"verified","statusDisplay":"Verified","createDate":"2012-01-03 02:41:47","updateDate":"2014-07-23 19:11:34","country":{"isoCode":"US","name":"UNITED STATES","displayName":"United States","isoThree":"USA","numberCode":840,"createDate":"2012-01-03 02:41:33"}},{"id":"fhPIJ8","name":"Main Brewery","streetAddress":"7205 E Short Blue Rd","locality":"Shelbyville","region":"Indiana","postalCode":"46176","phone":"765-544-2511","latitude":39.575043,"longitude":-85.646627,"isPrimary":"Y","inPlanning":"N","isClosed":"N","openToPublic":"Y","locationType":"micro","locationTypeDisplay":"Micro Brewery","countryIsoCode":"US","yearOpened":"2010","status":"verified","statusDisplay":"Verified","createDate":"2012-01-03 02:41:47","updateDate":"2014-07-23 19:11:34","country":{"isoCode":"US","name":"UNITED STATES","displayName":"United States","isoThree":"USA","numberCode":840,"createDate":"2012-01-03 02:41:33"}},{"id":"Z70GZc","name":"Main Brewery","streetAddress":"65 Railroad Avenue","locality":"Ridgefield Park","region":"New Jersey","postalCode":"07660","phone":"(201) 464-0639","website":"http://www.bolerosnort.com/","latitude":40.8604806,"longitude":-74.0295702,"isPrimary":"Y","inPlanning":"N","isClosed":"N","openToPublic":"Y","locationType":"micro","locationTypeDisplay":"Micro Brewery","countryIsoCode":"US","yearOpened":"2011","status":"verified","statusDisplay":"Verified","createDate":"2013-01-26 21:49:57","updateDate":"2014-07-23 19:11:34","country":{"isoCode":"US","name":"UNITED STATES","displayName":"United States","isoThree":"USA","numberCode":840,"createDate":"2012-01-03 02:41:33"}},{"id":"B6h2tX","name":"Main Brewery","streetAddress":"37 Northwest Lake Pl","extendedAddress":"Suite B","locality":"Bend","region":"Oregon","postalCode":"97701","phone":"541-323-2325","website":"http://www.boneyardbeer.com/","hoursOfOperation":"Fri:  11:00am - 6:00pm\n\nMonday - Saturday\r\n11am - 6pm\r\nSundays 11am-6pm (June 1st through Labor Day)\r\nCash or Check only !","latitude":44.054242,"longitude":-121.30801,"isPrimary":"Y","inPlanning":"N","isClosed":"N","openToPublic":"Y","locationType":"micro","locationTypeDisplay":"Micro Brewery","countryIsoCode":"US","status":"verified","statusDisplay":"Verified","createDate":"2012-01-03 02:41:47","updateDate":"2014-07-29 20:45:45","country":{"isoCode":"US","name":"UNITED STATES","displayName":"United States","isoThree":"USA","numberCode":840,"createDate":"2012-01-03 02:41:33"}},{"id":"Cd9c4R","name":"Main Brewery","streetAddress":"127 Second St.","locality":"Eagle","region":"Colorado","postalCode":"81631","phone":"(970) 306-7113","website":"http://bonfirebrewing.com/","hoursOfOperation":"Mon:  5:30pm - 10:00pm\nTue:  5:30pm - 10:00pm\nWed:  5:30pm - 10:00pm\nThu:  4:00pm - 10:00pm\nFri:  4:00pm - 12:00am\nSat:  4:00pm - 12:00am\nSun:  3:00pm - 8:00pm\n\nMon - Wed: 5:30 pm - 10:00 pm\r\nThu:4:00 pm - 10:00 pm\r\nFri - Sat: 4:00 pm - 12:00 am\r\nSun: 3:00 pm - 8:00 pm","latitude":39.6562283,"longitude":-106.8213779,"isPrimary":"Y","inPlanning":"N","isClosed":"N","openToPublic":"Y","locationType":"micro","locationTypeDisplay":"Micro Brewery","countryIsoCode":"US","yearOpened":"2010","status":"verified","statusDisplay":"Verified","createDate":"2012-10-15 11:04:31","updateDate":"2014-09-29 20:36:14","country":{"isoCode":"US","name":"UNITED STATES","displayName":"United States","isoThree":"USA","numberCode":840,"createDate":"2012-01-03 02:41:33"}},{"id":"51XWn4","name":"Main Brewery","streetAddress":"8900 San Mateo Blvd.","extendedAddress":"Ste. I","locality":"Albuquerque","region":"New Mexico","postalCode":"87113","phone":"(505) 750-7596","website":"http://www.bosquebrewingco.com/","hoursOfOperation":"Mon:  11:00am - 10:00pm\nTue:  11:00am - 10:00pm\nWed:  11:00am - 10:00pm\nThu:  11:00am - 10:00pm\nFri:  11:00am - 11:00pm\nSat:  11:00am - 11:00pm\nSun:  12:00pm - 8:00pm\n\nMon - Thu: 11:00 am - 10:00 pm\r\nFri - Sat: 11:00 am - 11:00 pm\r\nSun: 12:00 pm - 8:00 pm","latitude":35.1868465,"longitude":-106.5859898,"isPrimary":"Y","inPlanning":"N","isClosed":"N","openToPublic":"Y","locationType":"micro","locationTypeDisplay":"Micro Brewery","countryIsoCode":"US","yearOpened":"2010","status":"verified","statusDisplay":"Verified","createDate":"2013-01-12 14:19:05","updateDate":"2014-09-29 20:36:20","country":{"isoCode":"US","name":"UNITED STATES","displayName":"United States","isoThree":"USA","numberCode":840,"createDate":"2012-01-03 02:41:33"}},{"id":"gVynTw","name":"Main Brewery","streetAddress":"10 N Trade St","extendedAddress":"Suite D","locality":"Tryon","region":"North Carolina","postalCode":"28782","phone":"864-266-0133","website":"http://www.bottletree.net/","latitude":35.208863,"longitude":-82.238309,"isPrimary":"Y","inPlanning":"N","isClosed":"N","openToPublic":"Y","locationType":"office","locationTypeDisplay":"Office","countryIsoCode":"US","yearOpened":"2010","status":"verified","statusDisplay":"Verified","createDate":"2012-01-03 02:41:47","updateDate":"2014-07-23 19:11:34","country":{"isoCode":"US","name":"UNITED STATES","displayName":"United States","isoThree":"USA","numberCode":840,"createDate":"2012-01-03 02:41:33"}},{"id":"0k2SXz","name":"Main Brewery","streetAddress":"306 Westtown Rd","locality":"West Chester","region":"Pennsylvania","postalCode":"19382","phone":"484-887-0538","website":"http://www.boxcarbrewingcompany.com/","latitude":39.9620632,"longitude":-75.5888196,"isPrimary":"Y","inPlanning":"N","isClosed":"N","openToPublic":"Y","locationType":"micro","locationTypeDisplay":"Micro Brewery","countryIsoCode":"US","status":"verified","statusDisplay":"Verified","createDate":"2012-01-03 02:41:47","updateDate":"2014-07-23 19:11:34","country":{"isoCode":"US","name":"UNITED STATES","displayName":"United States","isoThree":"USA","numberCode":840,"createDate":"2012-01-03 02:41:33"}},{"id":"EGIcQ3","name":"Main Brewery","streetAddress":"1811 Burlington Northern Santa Fe Railway","locality":"Brainerd","region":"Minnesota","postalCode":"56401","phone":"(218) 454-2739","website":"http://www.brainerdbeer.com/","latitude":44.9797362,"longitude":-97.8114319,"isPrimary":"Y","inPlanning":"N","isClosed":"N","openToPublic":"Y","locationType":"micro","locationTypeDisplay":"Micro Brewery","countryIsoCode":"US","yearOpened":"2010","status":"verified","statusDisplay":"Verified","createDate":"2012-10-25 11:46:30","updateDate":"2014-09-26 14:13:09","country":{"isoCode":"US","name":"UNITED STATES","displayName":"United States","isoThree":"USA","numberCode":840,"createDate":"2012-01-03 02:41:33"}},{"id":"JaS6T7","name":"Brasserie Artisanale Albion","streetAddress":"408, boulevard Manseau","locality":"Joliette","region":"Québec","postalCode":"j6e3e1","phone":"1-450-759-7482","website":"http://www.brasseriealbion.com/","hoursOfOperation":"Mon:  2:00pm - 3:00am\nTue:  2:00pm - 3:00am\nWed:  2:00pm - 3:00am\nThu:  2:00pm - 3:00am\nFri:  2:00pm - 3:00am\nSat:  2:00pm - 3:00am\nSun:  2:00pm - 3:00am\n\nMon - Sun: 2:00 pm - 3:00 am","latitude":46.0253616,"longitude":-73.43941,"isPrimary":"Y","inPlanning":"N","isClosed":"N","openToPublic":"Y","locationType":"micro","locationTypeDisplay":"Micro Brewery","countryIsoCode":"CA","yearOpened":"2010","status":"verified","statusDisplay":"Verified","createDate":"2013-07-05 21:19:33","updateDate":"2014-09-29 20:36:24","country":{"isoCode":"CA","name":"CANADA","displayName":"Canada","isoThree":"CAN","numberCode":124,"createDate":"2012-01-03 02:41:33"}},{"id":"2eM3tT","name":"Main Brewery","streetAddress":"Kurze Straße 18-20","region":"Düsseldorf","isPrimary":"Y","inPlanning":"N","isClosed":"N","openToPublic":"Y","locationType":"micro","locationTypeDisplay":"Micro Brewery","countryIsoCode":"DE","status":"verified","statusDisplay":"Verified","createDate":"2012-08-16 12:03:50","updateDate":"2014-09-20 15:16:46","country":{"isoCode":"DE","name":"GERMANY","displayName":"Germany","isoThree":"DEU","numberCode":276,"createDate":"2012-01-03 02:41:33"}},{"id":"DQ3VS4","name":"Main Brewery","streetAddress":"Aschaffenburger Straße 19","region":"Frankfurt","postalCode":"60599","website":"http://www.braufactum.de/","isPrimary":"Y","inPlanning":"N","isClosed":"N","openToPublic":"Y","locationType":"micro","locationTypeDisplay":"Micro Brewery","countryIsoCode":"DE","yearOpened":"2010","status":"verified","statusDisplay":"Verified","createDate":"2013-11-27 12:36:40","updateDate":"2014-07-23 19:11:34","country":{"isoCode":"DE","name":"GERMANY","displayName":"Germany","isoThree":"DEU","numberCode":276,"createDate":"2012-01-03 02:41:33"}},{"id":"PW3kZE","name":"Main Brewery","streetAddress":"Werdau 12","region":"Torgau","postalCode":"04860","latitude":51.552803,"longitude":13.033724,"isPrimary":"Y","inPlanning":"N","isClosed":"N","openToPublic":"Y","locationType":"micro","locationTypeDisplay":"Micro Brewery","countryIsoCode":"DE","status":"verified","statusDisplay":"Verified","createDate":"2012-08-15 13:33:37","updateDate":"2014-07-23 19:11:34","country":{"isoCode":"DE","name":"GERMANY","displayName":"Germany","isoThree":"DEU","numberCode":276,"createDate":"2012-01-03 02:41:33"}},{"id":"vcWWry","name":"Main Brewery","streetAddress":"Saline Karlshalle 11","locality":"Bad Kreuznach","region":"Rheinland-Pfalz","postalCode":"55543","latitude":49.828,"longitude":7.85027,"isPrimary":"N","inPlanning":"N","isClosed":"N","openToPublic":"Y","locationType":"micro","locationTypeDisplay":"Micro Brewery","countryIsoCode":"DE","status":"verified","statusDisplay":"Verified","createDate":"2012-08-12 14:47:17","updateDate":"2014-07-23 19:11:34","country":{"isoCode":"DE","name":"GERMANY","displayName":"Germany","isoThree":"DEU","numberCode":276,"createDate":"2012-01-03 02:41:33"}},{"id":"13MS5k","name":"Main Brewery","streetAddress":"820 Northeast Dekum St","locality":"Portland","region":"Oregon","postalCode":"97211","phone":"503-719-6475","website":"http://www.breaksidebrews.com/","hoursOfOperation":"Sunday: 12-10ish\r\nMonday: 3-10ish\r\nTuesday: 3-10ish\r\nWednesday: 3-10ish\r\nThursday: 3-10ish\r\nFriday: 12-11ish\r\nSaturday: 12-11ish","latitude":45.571532,"longitude":-122.6567911,"isPrimary":"Y","inPlanning":"N","isClosed":"N","openToPublic":"Y","locationType":"brewpub","locationTypeDisplay":"Brewpub","countryIsoCode":"US","yearOpened":"2010","status":"verified","statusDisplay":"Verified","createDate":"2012-01-03 02:41:48","updateDate":"2014-09-29 20:36:29","country":{"isoCode":"US","name":"UNITED STATES","displayName":"United States","isoThree":"USA","numberCode":840,"createDate":"2012-01-03 02:41:33"}},{"id":"5K9U34","name":"Main Brewery","streetAddress":"925 Cherry Street SE","locality":"Grand Rapids","region":"Michigan","postalCode":"49506","phone":"(616) 719-1604","website":"http://www.breweryvivant.com/","hoursOfOperation":"Mon:  3:00pm - 11:00pm\nTue:  3:00pm - 11:00pm\nWed:  3:00pm - 11:00pm\nThu:  3:00pm - 11:00pm\nFri:  3:00pm - 12:00am\nSat:  11:00am - 12:00am\nSun:  12:00pm - 9:00pm\n\nMon - Thu: 3:00 pm - 11:00 pm\r\nFri: 3:00 pm - 12:00 am\r\nSat: 11:00 am - 12:00 am\r\nSun: 12:00 pm - 9:00 pm","latitude":42.9597264,"longitude":-85.6462576,"isPrimary":"Y","inPlanning":"N","isClosed":"N","openToPublic":"Y","locationType":"micro","locationTypeDisplay":"Micro Brewery","countryIsoCode":"US","yearOpened":"2010","status":"verified","statusDisplay":"Verified","createDate":"2012-01-03 02:41:48","updateDate":"2014-09-29 20:36:47","country":{"isoCode":"US","name":"UNITED STATES","displayName":"United States","isoThree":"USA","numberCode":840,"createDate":"2012-01-03 02:41:33"}},{"id":"M5zcKb","name":"Main Brewery","streetAddress":"207 Keller Ave","locality":"Fayetteville","region":"West Virginia","postalCode":"25840","phone":"740-816-7055","website":"http://www.bridgebrewworks.com/","latitude":38.0578763,"longitude":-81.1004918,"isPrimary":"Y","inPlanning":"N","isClosed":"N","openToPublic":"Y","locationType":"micro","locationTypeDisplay":"Micro Brewery","countryIsoCode":"US","yearOpened":"2010","status":"verified","statusDisplay":"Verified","createDate":"2012-01-03 02:41:48","updateDate":"2014-07-23 19:11:34","country":{"isoCode":"US","name":"UNITED STATES","displayName":"United States","isoThree":"USA","numberCode":840,"createDate":"2012-01-03 02:41:33"}},{"id":"j8fFaE","name":"Main Brewery","streetAddress":"2 North Road","locality":"East Windsor","region":"Connecticut","postalCode":"06088","phone":"(860) 623-1000","website":"http://www.broadbrookbrewing.com","hoursOfOperation":"Wed: 2:00 pm - 7:00 pm\r\nThu - Fri: 2:00 pm - 8:00 pm\r\nSat: 12:00 pm - 7:00 pm\r\nSun: 12:00 pm - 5:00 pm","latitude":41.930079,"longitude":-72.6039629,"isPrimary":"Y","inPlanning":"N","isClosed":"N","openToPublic":"Y","locationType":"micro","locationTypeDisplay":"Micro Brewery","countryIsoCode":"US","yearOpened":"2010","status":"verified","statusDisplay":"Verified","createDate":"2014-01-16 18:41:39","updateDate":"2014-07-23 19:11:34","country":{"isoCode":"US","name":"UNITED STATES","displayName":"United States","isoThree":"USA","numberCode":840,"createDate":"2012-01-03 02:41:33"}},{"id":"FUsYJK","name":"Main Brewery","streetAddress":"701 E Burnside St","locality":"Portland","region":"Oregon","postalCode":"97214","phone":"503-208-3476","website":"http://www.burnsidebrewco.com/","latitude":45.52327,"longitude":-122.658494,"isPrimary":"Y","inPlanning":"N","isClosed":"N","openToPublic":"Y","locationType":"brewpub","locationTypeDisplay":"Brewpub","countryIsoCode":"US","yearOpened":"2010","status":"verified","statusDisplay":"Verified","createDate":"2012-01-03 02:41:49","updateDate":"2014-07-23 19:11:34","country":{"isoCode":"US","name":"UNITED STATES","displayName":"United States","isoThree":"USA","numberCode":840,"createDate":"2012-01-03 02:41:33"}},{"id":"So1N3d","name":"Main Brewery","streetAddress":"2260 Moon Station Ct","extendedAddress":"Suite 210","locality":"Kennesaw","region":"Georgia","postalCode":"30144","website":"http://www.burnthickorybrewery.com/","latitude":34.033027,"longitude":-84.61663,"isPrimary":"Y","inPlanning":"N","isClosed":"N","openToPublic":"Y","locationType":"micro","locationTypeDisplay":"Micro Brewery","countryIsoCode":"US","yearOpened":"2010","status":"verified","statusDisplay":"Verified","createDate":"2012-01-24 10:57:46","updateDate":"2014-07-23 19:11:34","country":{"isoCode":"US","name":"UNITED STATES","displayName":"United States","isoThree":"USA","numberCode":840,"createDate":"2012-01-03 02:41:33"}},{"id":"6S2yld","name":"Main Brewery","streetAddress":"9962 Prospect Ave.","extendedAddress":"Suite E","locality":"Santee","region":"California","postalCode":"92071","website":"http://www.butchersbrewing.com/","hoursOfOperation":"Sunday 4-9 PM\r\nMonday Closed\r\nTuesday 4-9 PM\r\nWednesday 4-9 PM\r\nThursday 4-9 PM\r\nFriday 2-10 PM\r\nSaturday 2-10 PM","latitude":32.8319659,"longitude":-116.9794903,"isPrimary":"Y","inPlanning":"N","isClosed":"N","openToPublic":"Y","locationType":"micro","locationTypeDisplay":"Micro Brewery","countryIsoCode":"US","yearOpened":"2010","status":"verified","statusDisplay":"Verified","createDate":"2012-01-03 02:41:49","updateDate":"2014-07-23 19:11:34","country":{"isoCode":"US","name":"UNITED STATES","displayName":"United States","isoThree":"USA","numberCode":840,"createDate":"2012-01-03 02:41:33"}},{"id":"BXPVtl","name":"Main Brewery","streetAddress":"12445 E. 39th Ave","extendedAddress":"#314","locality":"Denver","region":"Colorado","postalCode":"80239","phone":"970-315-2793","website":"http://www.cautionbrewingco.com/","latitude":39.7722089,"longitude":-104.843365,"isPrimary":"N","inPlanning":"N","isClosed":"N","openToPublic":"Y","locationType":"micro","locationTypeDisplay":"Micro Brewery","countryIsoCode":"US","status":"verified","statusDisplay":"Verified","createDate":"2012-01-03 02:41:50","updateDate":"2014-07-23 19:11:34","country":{"isoCode":"US","name":"UNITED STATES","displayName":"United States","isoThree":"USA","numberCode":840,"createDate":"2012-01-03 02:41:33"}},{"id":"G3hX3m","name":"Lakewood","streetAddress":"1057 S. Wadsworth Blvd","extendedAddress":"Unit 60","locality":"Lakewood","region":"Colorado","postalCode":"80226","latitude":39.697924,"longitude":-105.0821519,"isPrimary":"Y","inPlanning":"N","isClosed":"N","openToPublic":"Y","locationType":"micro","locationTypeDisplay":"Micro Brewery","countryIsoCode":"US","status":"verified","statusDisplay":"Verified","createDate":"2013-11-18 20:04:53","updateDate":"2014-09-30 13:36:36","country":{"isoCode":"US","name":"UNITED STATES","displayName":"United States","isoThree":"USA","numberCode":840,"createDate":"2012-01-03 02:41:33"}},{"id":"H81Yew","name":"Main Brewery","streetAddress":"244 E. Cedar Creek Pwky","locality":"Seven Points","region":"Texas","postalCode":"75143","phone":"214-502-9795","website":"http://www.cedarcreekbrewery.com/","latitude":32.321975,"longitude":-96.209145,"isPrimary":"Y","inPlanning":"N","isClosed":"N","openToPublic":"Y","locationType":"micro","locationTypeDisplay":"Micro Brewery","countryIsoCode":"US","status":"verified","statusDisplay":"Verified","createDate":"2012-01-03 02:41:50","updateDate":"2014-07-23 19:11:34","country":{"isoCode":"US","name":"UNITED STATES","displayName":"United States","isoThree":"USA","numberCode":840,"createDate":"2012-01-03 02:41:33"}},{"id":"6lMyJO","name":"Main Brewery","streetAddress":"701 West Glendale Avenue","locality":"Glendale","region":"Wisconsin","postalCode":"53209","phone":"414-964-7837","website":"http://www.chameleonbrewing.com/","latitude":43.100231,"longitude":-87.919893,"isPrimary":"Y","inPlanning":"N","isClosed":"N","openToPublic":"Y","locationType":"micro","locationTypeDisplay":"Micro Brewery","countryIsoCode":"US","yearOpened":"2010","status":"verified","statusDisplay":"Verified","createDate":"2012-01-03 02:41:50","updateDate":"2014-07-23 19:11:34","country":{"isoCode":"US","name":"UNITED STATES","displayName":"United States","isoThree":"USA","numberCode":840,"createDate":"2012-01-03 02:41:33"}},{"id":"fcsFgJ","name":"Main Brewery","streetAddress":"109 Frazier Avenue","locality":"Chattanooga","region":"Tennessee","postalCode":"37405","phone":"423-702-9958","website":"http://www.chattabrew.com/","hoursOfOperation":"Thu:  5:00pm - 8:00pm\nFri:  5:00pm - 8:00pm\nSat:  2:00pm - 5:00pm\n\nGrowler Hours\r\nThursdays: 5PM - 8PM\r\nFridays: 5PM - 8PM\r\nSaturdays 2PM - 5PM","latitude":35.062705,"longitude":-85.307412,"isPrimary":"Y","inPlanning":"N","isClosed":"N","openToPublic":"Y","locationType":"micro","locationTypeDisplay":"Micro Brewery","countryIsoCode":"US","yearOpened":"2010","status":"verified","statusDisplay":"Verified","createDate":"2012-01-03 02:41:50","updateDate":"2014-09-29 20:12:17","country":{"isoCode":"US","name":"UNITED STATES","displayName":"United States","isoThree":"USA","numberCode":840,"createDate":"2012-01-03 02:41:33"}},{"id":"nLsoQ9","name":"Main Brewery","streetAddress":"29851 Aventura","extendedAddress":"Suite D","locality":"Rancho Santa Margarita","region":"California","postalCode":"92688","phone":"949-888-2739","website":"http://www.cismontanebrewing.blogspot.com/","hoursOfOperation":"Mon:  3:00pm - 9:00pm\nTue:  3:00pm - 9:00pm\nWed:  3:00pm - 9:00pm\nThu:  3:00pm - 9:00pm\nFri:  3:00pm - 9:00pm\nSat:  12:00pm - 9:00pm\nSun:  12:00pm - 5:00pm\n\nMon - Fri: 3:00 pm - 9:00 pm\r\nSat: 12:00 pm - 9:00 pm\r\nSun: 12:00 pm - 5:00 pm","latitude":33.6366357,"longitude":-117.609366,"isPrimary":"Y","inPlanning":"N","isClosed":"N","openToPublic":"Y","locationType":"micro","locationTypeDisplay":"Micro Brewery","countryIsoCode":"US","yearOpened":"2010","status":"verified","statusDisplay":"Verified","createDate":"2012-01-03 02:41:51","updateDate":"2014-09-29 20:12:23","country":{"isoCode":"US","name":"UNITED STATES","displayName":"United States","isoThree":"USA","numberCode":840,"createDate":"2012-01-03 02:41:33"}},{"id":"2t90oP","name":"Main Brewery","streetAddress":"2724 SE Ankeny","locality":"Portland","region":"Oregon","postalCode":"97214","phone":"(503) 894-8080","website":"http://www.coalitionbrewing.com/","hoursOfOperation":"Open: Tues-Fri 3pm-12am\r\nOpen: Sat 12pm-12am, Sun 12pm-10pm\r\nHappy Hour: 3pm-6pm Tues-Sun","latitude":45.5221296,"longitude":-122.6377714,"isPrimary":"Y","inPlanning":"N","isClosed":"N","openToPublic":"Y","locationType":"micro","locationTypeDisplay":"Micro Brewery","countryIsoCode":"US","status":"verified","statusDisplay":"Verified","createDate":"2013-01-09 12:03:09","updateDate":"2014-07-23 19:11:34","country":{"isoCode":"US","name":"UNITED STATES","displayName":"United States","isoThree":"USA","numberCode":840,"createDate":"2012-01-03 02:41:33"}},{"id":"3AnOYz","name":"Main Brewery","streetAddress":"2470 Lowell Rd","locality":"Springdale","region":"Arkansas","postalCode":"72764","phone":"(479) 879-2469","website":"http://www.corebeer.com","hoursOfOperation":"Monday: Closed\r\nTue-Friday: 3-9\r\nSat-Sun: 1-9","latitude":36.206206,"longitude":-94.1345709,"isPrimary":"Y","inPlanning":"N","isClosed":"N","openToPublic":"Y","locationType":"micro","locationTypeDisplay":"Micro Brewery","countryIsoCode":"US","yearOpened":"2010","status":"verified","statusDisplay":"Verified","createDate":"2014-03-04 12:47:01","updateDate":"2014-07-23 19:11:34","country":{"isoCode":"US","name":"UNITED STATES","displayName":"United States","isoThree":"USA","numberCode":840,"createDate":"2012-01-03 02:41:33"}},{"id":"CfJ0cK","name":"Main Brewery","locality":"Buffalo","region":"New York","website":"http://cosmicfrogbrewing.com/","latitude":42.88544,"longitude":-78.878464,"isPrimary":"Y","inPlanning":"N","isClosed":"N","openToPublic":"Y","locationType":"micro","locationTypeDisplay":"Micro Brewery","countryIsoCode":"US","yearOpened":"2010","status":"verified","statusDisplay":"Verified","createDate":"2012-01-03 02:41:51","updateDate":"2014-07-23 19:11:34","country":{"isoCode":"US","name":"UNITED STATES","displayName":"United States","isoThree":"USA","numberCode":840,"createDate":"2012-01-03 02:41:33"}},{"id":"Sbc4Dd","name":"Main Brewery","streetAddress":"226 E Lockwood St","locality":"Covington","region":"Louisiana","postalCode":"70433","phone":"(985) 893-2884","website":"http://www.covingtonbrewhouse.com/","latitude":30.4775781,"longitude":-90.0970267,"isPrimary":"Y","inPlanning":"N","isClosed":"N","openToPublic":"Y","locationType":"micro","locationTypeDisplay":"Micro Brewery","countryIsoCode":"US","yearOpened":"2010","status":"verified","statusDisplay":"Verified","createDate":"2014-06-27 13:23:08","updateDate":"2014-07-23 19:11:34","country":{"isoCode":"US","name":"UNITED STATES","displayName":"United States","isoThree":"USA","numberCode":840,"createDate":"2012-01-03 02:41:33"}},{"id":"wi2NVb","name":"Main Brewery","streetAddress":"439 Edwards Access Road","extendedAddress":"B-102","locality":"Edwards","region":"Colorado","postalCode":"81632","phone":"970-926-3009","website":"http://www.crazymountainbrewery.com/","hoursOfOperation":"Mon:  11:00am - 7:00pm\nTue:  11:00am - 7:00pm\nWed:  11:00am - 7:00pm\nThu:  11:00am - 7:00pm\nFri:  11:00am - 7:00pm\nSun:  11:00am - 5:00pm\n\n","latitude":39.6479763,"longitude":-106.5888501,"isPrimary":"Y","inPlanning":"N","isClosed":"N","openToPublic":"Y","locationType":"micro","locationTypeDisplay":"Micro Brewery","countryIsoCode":"US","yearOpened":"2010","status":"verified","statusDisplay":"Verified","createDate":"2012-01-03 02:41:51","updateDate":"2014-08-23 16:34:14","country":{"isoCode":"US","name":"UNITED STATES","displayName":"United States","isoThree":"USA","numberCode":840,"createDate":"2012-01-03 02:41:33"}},{"id":"VZXesW","name":"Barrel Cellar & Taproom","streetAddress":"1441 W. 46th Ave","extendedAddress":"Unit 19","locality":"Denver","region":"Colorado","postalCode":"80211","phone":"720-508-3292","website":"http://www.crookedstave.com/","hoursOfOperation":"Fri: 4:00pm - 8:00pm\r\nSat: 12:00noon - 8:00pm","latitude":39.780686,"longitude":-105.004716,"isPrimary":"N","inPlanning":"N","isClosed":"Y","openToPublic":"Y","locationType":"micro","locationTypeDisplay":"Micro Brewery","countryIsoCode":"US","yearOpened":"2010","status":"verified","statusDisplay":"Verified","createDate":"2012-01-03 02:41:52","updateDate":"2014-07-23 19:11:34","country":{"isoCode":"US","name":"UNITED STATES","displayName":"United States","isoThree":"USA","numberCode":840,"createDate":"2012-01-03 02:41:33"}},{"id":"tw2Iw0","name":"Brewery & Taproom","streetAddress":"3350 Brighton Blvd","locality":"Denver","region":"Colorado","postalCode":"80216","phone":"(720) 508.3292","website":"http://www.crookedstave.com/","hoursOfOperation":"Daily: 12:00noon - 11:00pm","latitude":39.768756,"longitude":-104.97973,"isPrimary":"Y","inPlanning":"N","isClosed":"N","openToPublic":"Y","locationType":"micro","locationTypeDisplay":"Micro Brewery","countryIsoCode":"US","yearOpened":"2013","status":"verified","statusDisplay":"Verified","createDate":"2014-04-11 01:34:16","updateDate":"2014-07-23 19:11:34","country":{"isoCode":"US","name":"UNITED STATES","displayName":"United States","isoThree":"USA","numberCode":840,"createDate":"2012-01-03 02:41:33"}},{"id":"yqQtUG","name":"Brewery & Restaurant","streetAddress":"21 Second Street","locality":"Athens","region":"New York","postalCode":"12015","phone":"518-945-2337","website":"http://crossroadsbrewingco.com/","hoursOfOperation":"Mon, Wed & Thurs.: 4:00 pm-9:00 pm\r\nFriday: 4:00 pm-12:00 am\r\nSaturday: 1:00 pm-12:00 am\r\nSunday: 1:00 pm-9:00 pm\r\nClosed Tuesdays","latitude":42.260511,"longitude":-73.8096826,"isPrimary":"Y","inPlanning":"N","isClosed":"N","openToPublic":"Y","locationType":"brewpub","locationTypeDisplay":"Brewpub","countryIsoCode":"US","yearOpened":"2010","status":"verified","statusDisplay":"Verified","createDate":"2012-01-03 02:41:52","updateDate":"2014-07-23 19:11:34","country":{"isoCode":"US","name":"UNITED STATES","displayName":"United States","isoThree":"USA","numberCode":840,"createDate":"2012-01-03 02:41:33"}},{"id":"S7K860","name":"Main Brewery","streetAddress":"657 S Taylor Ave.","extendedAddress":"Unit E","locality":"Louisville","region":"Colorado","postalCode":"80027","phone":"303-665-8888","website":"http://www.crystalspringsbrewing.com/","hoursOfOperation":"Tue - Th: 4:00 PM - 9:00 PM\r\nFri: 3:00 PM - 9:00 PM \r\nSat: 1:00 PM - 8:00 PM\r\nSun:  11:00 AM - 6:00 PM","latitude":39.9607035,"longitude":-105.1201133,"isPrimary":"Y","inPlanning":"N","isClosed":"N","openToPublic":"Y","locationType":"micro","locationTypeDisplay":"Micro Brewery","countryIsoCode":"US","yearOpened":"2010","status":"verified","statusDisplay":"Verified","createDate":"2012-01-03 02:41:52","updateDate":"2014-10-06 15:33:39","country":{"isoCode":"US","name":"UNITED STATES","displayName":"United States","isoThree":"USA","numberCode":840,"createDate":"2012-01-03 02:41:33"}},{"id":"h0GjbZ","name":"Main Brewery","streetAddress":"876 Sunshine Canyon Drive","locality":"Boulder","region":"Colorado","postalCode":"80302","phone":"(303) 884-5602","website":"http://www.crystalspringsbrewing.com","latitude":40.0246502,"longitude":-105.303246,"isPrimary":"N","inPlanning":"N","isClosed":"N","openToPublic":"Y","locationType":"micro","locationTypeDisplay":"Micro Brewery","countryIsoCode":"US","status":"verified","statusDisplay":"Verified","createDate":"2014-01-06 19:10:50","updateDate":"2014-09-11 10:33:09","country":{"isoCode":"US","name":"UNITED STATES","displayName":"United States","isoThree":"USA","numberCode":840,"createDate":"2012-01-03 02:41:33"}},{"id":"D3s54f","name":"Main Brewery","streetAddress":"Hayeswood Road","locality":"Timsbury","region":"Bath","postalCode":"BA2 0HQ","phone":"01761 472242","website":"http://www.dawkinsales.com/","latitude":51.329876,"longitude":-2.4951029,"isPrimary":"Y","inPlanning":"N","isClosed":"N","openToPublic":"Y","locationType":"micro","locationTypeDisplay":"Micro Brewery","countryIsoCode":"GB","status":"verified","statusDisplay":"Verified","createDate":"2013-03-12 01:12:49","updateDate":"2014-07-23 19:11:34","country":{"isoCode":"GB","name":"UNITED KINGDOM","displayName":"United Kingdom","isoThree":"GBR","numberCode":826,"createDate":"2012-01-03 02:41:33"}},{"id":"YWVg1z","name":"Main Brewery","streetAddress":"2823 St Louis Street","locality":"Dallas","region":"Texas","postalCode":"75226","phone":"214-888-3322","website":"http://www.deepellumbrewing.com/","latitude":32.780481,"longitude":-96.781831,"isPrimary":"Y","inPlanning":"N","isClosed":"N","openToPublic":"Y","locationType":"micro","locationTypeDisplay":"Micro Brewery","countryIsoCode":"US","yearOpened":"2010","status":"verified","statusDisplay":"Verified","createDate":"2012-01-03 02:41:52","updateDate":"2014-07-23 19:11:34","country":{"isoCode":"US","name":"UNITED STATES","displayName":"United States","isoThree":"USA","numberCode":840,"createDate":"2012-01-03 02:41:33"}},{"id":"Cyd0A5","name":"Main Brewery","streetAddress":"1100 Perry Ave","extendedAddress":"Unit C","locality":"Bremerton","region":"Washington","postalCode":"98310","phone":"(360) 377-2344","website":"http://derblokken.com/","hoursOfOperation":"Mon - Thu: 4:00 pm - 10:00 pm\r\nFri - Sat: 11:30 am - 11:00 pm\r\nSun: 11:30 am - 7:30 pm","latitude":47.570497,"longitude":-122.613577,"isPrimary":"Y","inPlanning":"N","isClosed":"N","openToPublic":"Y","locationType":"brewpub","locationTypeDisplay":"Brewpub","countryIsoCode":"US","yearOpened":"2010","status":"verified","statusDisplay":"Verified","createDate":"2012-01-03 02:41:52","updateDate":"2014-07-23 19:11:34","country":{"isoCode":"US","name":"UNITED STATES","displayName":"United States","isoThree":"USA","numberCode":840,"createDate":"2012-01-03 02:41:33"}},{"id":"0OZ4SL","name":"Main Brewery","streetAddress":"Reilstraße 10","locality":"Halle/Saale","region":"Sachsen-Anhalt","postalCode":"D-06114","latitude":51.500445,"longitude":11.95708,"isPrimary":"N","inPlanning":"N","isClosed":"N","openToPublic":"Y","locationType":"micro","locationTypeDisplay":"Micro Brewery","countryIsoCode":"DE","status":"verified","statusDisplay":"Verified","createDate":"2012-08-12 14:46:58","updateDate":"2014-07-23 19:11:34","country":{"isoCode":"DE","name":"GERMANY","displayName":"Germany","isoThree":"DEU","numberCode":276,"createDate":"2012-01-03 02:41:33"}},{"id":"LDb6oj","name":"Main Brewery","streetAddress":"Butler Road","locality":"Amelia","region":"Virginia","postalCode":"23002","website":"http://www.doubledizzy.net/","latitude":37.3522729,"longitude":-77.896811,"isPrimary":"Y","inPlanning":"N","isClosed":"N","openToPublic":"Y","locationType":"micro","locationTypeDisplay":"Micro Brewery","countryIsoCode":"US","yearOpened":"2012","status":"verified","statusDisplay":"Verified","createDate":"2013-07-29 22:40:09","updateDate":"2014-07-23 19:11:34","country":{"isoCode":"US","name":"UNITED STATES","displayName":"United States","isoThree":"USA","numberCode":840,"createDate":"2012-01-03 02:41:33"}},{"id":"JNoY64","name":"Main Brewery","locality":"Houston","region":"Texas","website":"http://www.downeasybrewing.com/","latitude":29.76045,"longitude":-95.369784,"isPrimary":"Y","inPlanning":"N","isClosed":"N","openToPublic":"Y","locationType":"micro","locationTypeDisplay":"Micro Brewery","countryIsoCode":"US","yearOpened":"2010","status":"verified","statusDisplay":"Verified","createDate":"2012-01-03 02:41:53","updateDate":"2014-07-23 19:11:34","country":{"isoCode":"US","name":"UNITED STATES","displayName":"United States","isoThree":"USA","numberCode":840,"createDate":"2012-01-03 02:41:33"}},{"id":"GRYZEM","name":"Main Brewery","streetAddress":"7752 Highway 42","locality":"Tenmile","region":"Oregon","postalCode":"97481","website":"http://www.draperbrewing.com/","latitude":43.105803,"longitude":-123.537397,"isPrimary":"Y","inPlanning":"N","isClosed":"N","openToPublic":"Y","locationType":"micro","locationTypeDisplay":"Micro Brewery","countryIsoCode":"US","yearOpened":"2010","status":"verified","statusDisplay":"Verified","createDate":"2013-08-01 12:15:44","updateDate":"2014-07-23 19:11:34","country":{"isoCode":"US","name":"UNITED STATES","displayName":"United States","isoThree":"USA","numberCode":840,"createDate":"2012-01-03 02:41:33"}},{"id":"jCUFvI","name":"Main Brewery","streetAddress":"615 Oak Ave.","locality":"Spruce Pine","region":"North Carolina","postalCode":"28705","phone":"828-765-4583","website":"http://www.drycountybrewing.com/","hoursOfOperation":"Wed/Thur/Sun\r\n4-9 pm\r\n\r\nFri/Sat\r\nNoon-9 pm","latitude":35.9156458,"longitude":-82.0631016,"isPrimary":"Y","inPlanning":"N","isClosed":"N","openToPublic":"Y","locationType":"brewpub","locationTypeDisplay":"Brewpub","countryIsoCode":"US","yearOpened":"2010","status":"verified","statusDisplay":"Verified","createDate":"2012-01-03 02:41:53","updateDate":"2014-07-23 19:11:34","country":{"isoCode":"US","name":"UNITED STATES","displayName":"United States","isoThree":"USA","numberCode":840,"createDate":"2012-01-03 02:41:33"}},{"id":"aps8aW","name":"Main Brewery","streetAddress":"Unit 5 No. 2","extendedAddress":"Westgate Business Park","region":"Waterford","phone":"+353 58 24000","website":"http://www.dungarvanbrewingcompany.com/","latitude":52.0955413,"longitude":-7.633504,"isPrimary":"Y","inPlanning":"N","isClosed":"N","openToPublic":"Y","locationType":"micro","locationTypeDisplay":"Micro Brewery","countryIsoCode":"IE","status":"verified","statusDisplay":"Verified","createDate":"2014-06-16 13:00:50","updateDate":"2014-07-23 19:11:34","country":{"isoCode":"IE","name":"IRELAND","displayName":"Ireland","isoThree":"IRL","numberCode":372,"createDate":"2012-01-03 02:41:33"}},{"id":"yeVNOy","name":"Main Brewery","locality":"Akureyri","website":"http://www.einstokbeer.com/","latitude":65.694995,"longitude":-18.120844,"isPrimary":"Y","inPlanning":"N","isClosed":"N","openToPublic":"Y","locationType":"micro","locationTypeDisplay":"Micro Brewery","countryIsoCode":"IS","yearOpened":"2010","status":"verified","statusDisplay":"Verified","createDate":"2012-01-03 02:41:53","updateDate":"2014-07-23 19:11:34","country":{"isoCode":"IS","name":"ICELAND","displayName":"Iceland","isoThree":"ISL","numberCode":352,"createDate":"2012-01-03 02:41:33"}},{"id":"H73z9W","name":"Main Brewery","locality":"Midwest City","region":"Oklahoma","postalCode":"73110","phone":"(405) 209-0016","latitude":35.4495065,"longitude":-97.3967019,"isPrimary":"Y","inPlanning":"N","isClosed":"N","openToPublic":"Y","locationType":"micro","locationTypeDisplay":"Micro Brewery","countryIsoCode":"US","status":"verified","statusDisplay":"Verified","createDate":"2014-05-12 12:53:05","updateDate":"2014-07-23 19:11:34","country":{"isoCode":"US","name":"UNITED STATES","displayName":"United States","isoThree":"USA","numberCode":840,"createDate":"2012-01-03 02:41:33"}},{"id":"vsVIpN","name":"Main Brewpub","streetAddress":"1048 Harper Ave NW","locality":"Lenoir","region":"North Carolina","postalCode":"28645","phone":"(828) 962-9551","website":"http://www.eolabeer.com","latitude":35.912819,"longitude":-81.54234,"isPrimary":"Y","inPlanning":"N","isClosed":"N","openToPublic":"Y","locationType":"brewpub","locationTypeDisplay":"Brewpub","countryIsoCode":"US","yearOpened":"2010","status":"verified","statusDisplay":"Verified","createDate":"2014-06-30 12:04:41","updateDate":"2014-07-23 19:11:34","country":{"isoCode":"US","name":"UNITED STATES","displayName":"United States","isoThree":"USA","numberCode":840,"createDate":"2012-01-03 02:41:33"}},{"id":"YKa9wh","name":"Main Brewery","streetAddress":"133 Remington Street","locality":"Fort Collins","region":"Colorado","postalCode":"80524","phone":"970-430-6489","website":"http://www.equinoxbrewing.com/","latitude":40.586331,"longitude":-105.0757067,"isPrimary":"Y","inPlanning":"N","isClosed":"N","openToPublic":"Y","locationType":"micro","locationTypeDisplay":"Micro Brewery","countryIsoCode":"US","yearOpened":"2010","status":"verified","statusDisplay":"Verified","createDate":"2012-01-03 02:41:54","updateDate":"2014-07-23 19:11:34","country":{"isoCode":"US","name":"UNITED STATES","displayName":"United States","isoThree":"USA","numberCode":840,"createDate":"2012-01-03 02:41:33"}},{"id":"joeSG6","name":"Main Brewery","streetAddress":"Meigermühle 2","locality":"Lohmar","region":"North Rhine-Westphalia","postalCode":"53797","latitude":50.840903,"longitude":7.211563,"isPrimary":"N","inPlanning":"N","isClosed":"N","openToPublic":"Y","locationType":"micro","locationTypeDisplay":"Micro Brewery","countryIsoCode":"DE","status":"verified","statusDisplay":"Verified","createDate":"2012-08-12 14:45:21","updateDate":"2014-07-23 19:11:34","country":{"isoCode":"DE","name":"GERMANY","displayName":"Germany","isoThree":"DEU","numberCode":276,"createDate":"2012-01-03 02:41:33"}},{"id":"MnsgKh","name":"Main Brewery","locality":"West Grove","region":"Pennsylvania","phone":"(484) 961-0247","website":"http://www.evilgeniusbeer.com/","latitude":39.822165,"longitude":-75.826684,"isPrimary":"Y","inPlanning":"N","isClosed":"N","openToPublic":"Y","locationType":"micro","locationTypeDisplay":"Micro Brewery","countryIsoCode":"US","yearOpened":"2010","status":"verified","statusDisplay":"Verified","createDate":"2012-11-19 18:48:15","updateDate":"2014-07-23 19:11:34","country":{"isoCode":"US","name":"UNITED STATES","displayName":"United States","isoThree":"USA","numberCode":840,"createDate":"2012-01-03 02:41:33"}},{"id":"8NYP9a","name":"Main Brewery","streetAddress":"Via Generale Galvaligi","region":"Marnate VA","postalCode":"102 21050","phone":"+39 0331 600426","website":"http://www.extraomnes.com","latitude":45.6286159,"longitude":8.9066393,"isPrimary":"Y","inPlanning":"N","isClosed":"N","openToPublic":"Y","locationType":"micro","locationTypeDisplay":"Micro Brewery","countryIsoCode":"IT","yearOpened":"2010","status":"verified","statusDisplay":"Verified","createDate":"2014-06-25 12:51:42","updateDate":"2014-07-23 19:11:34","country":{"isoCode":"IT","name":"ITALY","displayName":"Italy","isoThree":"ITA","numberCode":380,"createDate":"2012-01-03 02:41:33"}},{"id":"kIEM5y","name":"Main Brewery","streetAddress":"1000 Turk Hill","extendedAddress":"Suite 298","locality":"Fairport","region":"New York","postalCode":"14450","phone":"(585) 678-6728","website":"http://fairportbrewing.com/","hoursOfOperation":"Fri: 4:00 pm - 7:00 pm\r\nSat: 1:00 pm - 6:00 pm","latitude":43.0952544,"longitude":-77.4311364,"isPrimary":"Y","inPlanning":"N","isClosed":"N","openToPublic":"Y","locationType":"nano","locationTypeDisplay":"Nano Brewery","countryIsoCode":"US","yearOpened":"2010","status":"verified","statusDisplay":"Verified","createDate":"2013-02-11 14:59:03","updateDate":"2014-07-23 19:11:34","country":{"isoCode":"US","name":"UNITED STATES","displayName":"United States","isoThree":"USA","numberCode":840,"createDate":"2012-01-03 02:41:33"}},{"id":"5sGQVl","name":"Main Brewery","streetAddress":"3 Alverda Dr","locality":"Oroville","region":"California","postalCode":"95966","phone":"530-534-4059","website":"http://www.featherfallscasino.com/","latitude":39.4665999,"longitude":-121.5164066,"isPrimary":"Y","inPlanning":"N","isClosed":"N","openToPublic":"Y","locationType":"brewpub","locationTypeDisplay":"Brewpub","countryIsoCode":"US","status":"verified","statusDisplay":"Verified","createDate":"2012-01-03 02:41:54","updateDate":"2014-07-23 19:11:34","country":{"isoCode":"US","name":"UNITED STATES","displayName":"United States","isoThree":"USA","numberCode":840,"createDate":"2012-01-03 02:41:33"}},{"id":"H3UW27","name":"Buellton Taproom","streetAddress":"45 Industrial Way","locality":"Buellton","region":"California","postalCode":"93427","phone":"805-694-2252","website":"http://www.figmtnbrew.com/","hoursOfOperation":"Mon-Thurs 1pm-9pm\r\nFri-Sun 11am-9pm","latitude":34.610657,"longitude":-120.202302,"isPrimary":"Y","inPlanning":"N","isClosed":"N","openToPublic":"Y","locationType":"tasting","locationTypeDisplay":"Tasting Room","countryIsoCode":"US","yearOpened":"2010","status":"verified","statusDisplay":"Verified","createDate":"2012-01-03 02:41:54","updateDate":"2014-07-23 19:11:34","country":{"isoCode":"US","name":"UNITED STATES","displayName":"United States","isoThree":"USA","numberCode":840,"createDate":"2012-01-03 02:41:33"}},{"id":"xCKJdE","name":"Santa Barbara Taproom","streetAddress":"137 Anacapa St","extendedAddress":"Suite F","locality":"Santa Barbara","region":"California","postalCode":"93101","website":"http://www.figmtnbrew.com/","hoursOfOperation":"11am-11pm Daily","latitude":34.414738,"longitude":-119.6906533,"isPrimary":"N","inPlanning":"N","isClosed":"N","openToPublic":"Y","locationType":"tasting","locationTypeDisplay":"Tasting Room","countryIsoCode":"US","status":"verified","statusDisplay":"Verified","createDate":"2014-06-23 11:37:21","updateDate":"2014-07-23 19:11:34","country":{"isoCode":"US","name":"UNITED STATES","displayName":"United States","isoThree":"USA","numberCode":840,"createDate":"2012-01-03 02:41:33"}},{"id":"ZW37mf","name":"Los Olivos Tasting Room @ \"The Cottage\"","streetAddress":"2446 Alamo Pintado","extendedAddress":"Suite C","locality":"Los Olivos","region":"California","postalCode":"93441","website":"http://www.figmtnbrew.com/","latitude":34.665268,"longitude":-120.113982,"isPrimary":"N","inPlanning":"N","isClosed":"N","openToPublic":"Y","locationType":"tasting","locationTypeDisplay":"Tasting Room","countryIsoCode":"US","status":"verified","statusDisplay":"Verified","createDate":"2014-06-23 11:38:23","updateDate":"2014-07-23 19:11:34","country":{"isoCode":"US","name":"UNITED STATES","displayName":"United States","isoThree":"USA","numberCode":840,"createDate":"2012-01-03 02:41:33"}},{"id":"yRcHoG","name":"Main Brewery","streetAddress":"2806 Lawing Ln STE C","locality":"Rowlett","region":"Texas","postalCode":"75088","phone":"(214)807-3922","website":"http://firewheelbrewing.com/home/","latitude":32.8995398,"longitude":-96.5760984,"isPrimary":"Y","inPlanning":"N","isClosed":"N","openToPublic":"Y","locationType":"micro","locationTypeDisplay":"Micro Brewery","countryIsoCode":"US","status":"verified","statusDisplay":"Verified","createDate":"2014-09-16 19:48:47","updateDate":"2014-09-16 19:48:47","country":{"isoCode":"US","name":"UNITED STATES","displayName":"United States","isoThree":"USA","numberCode":840,"createDate":"2012-01-03 02:41:33"}},{"id":"j0Yjq0","name":"Main Brewery","locality":"Latrobe","region":"Pennsylvania","latitude":40.316645,"longitude":-79.384944,"isPrimary":"Y","inPlanning":"N","isClosed":"N","openToPublic":"Y","locationType":"micro","locationTypeDisplay":"Micro Brewery","countryIsoCode":"US","yearOpened":"2010","status":"verified","statusDisplay":"Verified","createDate":"2012-01-03 02:41:54","updateDate":"2014-07-23 19:11:34","country":{"isoCode":"US","name":"UNITED STATES","displayName":"United States","isoThree":"USA","numberCode":840,"createDate":"2012-01-03 02:41:33"}},{"id":"xe0M8s","name":"Main Brewery","streetAddress":"202 Southwest 1st Street","locality":"Corvallis","region":"Oregon","postalCode":"97333","phone":"541-758-2229","website":"http://www.flattailcorvallis.com/","hoursOfOperation":"Open Daily 11am - 11pm","latitude":44.5628007,"longitude":-123.2593202,"isPrimary":"Y","inPlanning":"N","isClosed":"N","openToPublic":"Y","locationType":"brewpub","locationTypeDisplay":"Brewpub","countryIsoCode":"US","yearOpened":"2010","status":"verified","statusDisplay":"Verified","createDate":"2012-01-03 02:41:54","updateDate":"2014-07-23 19:11:34","country":{"isoCode":"US","name":"UNITED STATES","displayName":"United States","isoThree":"USA","numberCode":840,"createDate":"2012-01-03 02:41:33"}},{"id":"ZxjAIJ","name":"Main Brewery","streetAddress":"414 N. Dorman St.","locality":"Indianapolis","region":"Indiana","postalCode":"46202","phone":"317-635-2337","hoursOfOperation":"THURS 4 pm – 7 pm\r\nFRI Noon – 8 pm\r\nSAT Noon – 6 pm\r\nSUN Noon – 4 pm","latitude":39.7727329,"longitude":-86.138467,"isPrimary":"Y","inPlanning":"N","isClosed":"N","openToPublic":"Y","locationType":"micro","locationTypeDisplay":"Micro Brewery","countryIsoCode":"US","yearOpened":"2010","status":"verified","statusDisplay":"Verified","createDate":"2012-01-03 02:41:54","updateDate":"2014-07-23 19:11:34","country":{"isoCode":"US","name":"UNITED STATES","displayName":"United States","isoThree":"USA","numberCode":840,"createDate":"2012-01-03 02:41:33"}},{"id":"PB49EI","name":"Main Brewery","streetAddress":"4101 N. Florida Ave","locality":"Tampa","region":"Florida","postalCode":"33603","phone":"(813) 374-2101","website":"http://www.floridaavenueales.com/","hoursOfOperation":"Tue: 4:00 pm - 10:00 pm\r\nWed: 4:00 pm - 8:00 pm\r\nThu: 4:00 pm - 10:00 pm\r\nFri: 2:00 pm - 11:00 pm\r\nSat: 11:00 am - 11:00 pm","latitude":27.982602,"longitude":-82.458643,"isPrimary":"Y","inPlanning":"N","isClosed":"N","openToPublic":"Y","locationType":"micro","locationTypeDisplay":"Micro Brewery","countryIsoCode":"US","yearOpened":"2010","status":"verified","statusDisplay":"Verified","createDate":"2013-07-09 11:55:46","updateDate":"2014-07-23 19:11:34","country":{"isoCode":"US","name":"UNITED STATES","displayName":"United States","isoThree":"USA","numberCode":840,"createDate":"2012-01-03 02:41:33"}},{"id":"hgjj29","name":"Main Brewery","streetAddress":"22329 53rd Avenue SE","locality":"Bothell","region":"Washington","postalCode":"98021","phone":"206-553-9223","website":"http://www.foggynogginbrewing.com/","hoursOfOperation":"Most Saturdays 1-4pm","latitude":47.794472,"longitude":-122.160868,"isPrimary":"Y","inPlanning":"N","isClosed":"N","openToPublic":"Y","locationType":"micro","locationTypeDisplay":"Micro Brewery","countryIsoCode":"US","yearOpened":"2010","status":"verified","statusDisplay":"Verified","createDate":"2012-01-03 02:41:55","updateDate":"2014-07-23 19:11:34","country":{"isoCode":"US","name":"UNITED STATES","displayName":"United States","isoThree":"USA","numberCode":840,"createDate":"2012-01-03 02:41:33"}},{"id":"bwZoGc","name":"Main Brewery","streetAddress":"241 Grotto Avenue","locality":"Pawtucket","region":"Rhode Island","postalCode":"02860","website":"http://highjinxbeer.com/","latitude":41.869837,"longitude":-71.408217,"isPrimary":"Y","inPlanning":"N","isClosed":"N","openToPublic":"Y","locationType":"micro","locationTypeDisplay":"Micro Brewery","countryIsoCode":"US","status":"verified","statusDisplay":"Verified","createDate":"2012-10-24 13:59:45","updateDate":"2014-07-23 19:11:34","country":{"isoCode":"US","name":"UNITED STATES","displayName":"United States","isoThree":"USA","numberCode":840,"createDate":"2012-01-03 02:41:33"}},{"id":"nAfKcc","name":"Main Brewery","streetAddress":"Apollo Bay Road","locality":"Forrest","region":"Victoria","postalCode":"3236","phone":"03 5236 6170","website":"http://www.forrestbrewing.com.au/","hoursOfOperation":"Thursdays 10 - late, serving lunch & dinner  \r\n\r\nTHURSDAY NIGHT IS LOCAL'S CURRY NIGHT, CURRY & A POT $20\r\n\r\nFriday 9 - late, serving lunch & dinner\r\n\r\nSaturday 9 - late, serving breakfast, lunch & dinner\r\n\r\nSunday 9 - 5, serving breakfast, lunch","latitude":-38.5380769,"longitude":143.7081169,"isPrimary":"Y","inPlanning":"N","isClosed":"N","openToPublic":"Y","locationType":"brewpub","locationTypeDisplay":"Brewpub","countryIsoCode":"AU","status":"verified","statusDisplay":"Verified","createDate":"2013-07-31 12:07:18","updateDate":"2014-07-23 19:11:34","country":{"isoCode":"AU","name":"AUSTRALIA","displayName":"Australia","isoThree":"AUS","numberCode":36,"createDate":"2012-01-03 02:41:33"}},{"id":"3IfemA","name":"Main Brewery","streetAddress":"1607 West Wayzata Blvd.","locality":"Orono","region":"Minnesota","postalCode":"55356","phone":"952-767-6403","website":"http://foundingfathersbrewingco.com/","latitude":44.9846,"longitude":-93.561724,"isPrimary":"Y","inPlanning":"N","isClosed":"N","openToPublic":"Y","locationType":"micro","locationTypeDisplay":"Micro Brewery","countryIsoCode":"US","yearOpened":"2010","status":"verified","statusDisplay":"Verified","createDate":"2012-03-05 13:57:58","updateDate":"2014-07-23 19:11:34","country":{"isoCode":"US","name":"UNITED STATES","displayName":"United States","isoThree":"USA","numberCode":840,"createDate":"2012-01-03 02:41:33"}},{"id":"D61TcY","name":"Main Brewery","streetAddress":"710 Fellows St","locality":"South Bend","region":"Indiana","postalCode":"46601","phone":"574-387-5772","website":"http://www.fourhorsemenbrewco.com/","hoursOfOperation":"Friday & Saturday: 4PM - 11PM","latitude":41.6682021,"longitude":-86.2445086,"isPrimary":"Y","inPlanning":"N","isClosed":"Y","openToPublic":"N","locationType":"micro","locationTypeDisplay":"Micro Brewery","countryIsoCode":"US","yearOpened":"2010","yearClosed":"2013","status":"verified","statusDisplay":"Verified","createDate":"2012-01-03 02:41:55","updateDate":"2014-09-04 10:29:45","country":{"isoCode":"US","name":"UNITED STATES","displayName":"United States","isoThree":"USA","numberCode":840,"createDate":"2012-01-03 02:41:33"}},{"id":"MxQYL3","name":"Main Brewery","streetAddress":"726 Rigsbee Avenue","locality":"Durham","region":"North Carolina","postalCode":"27701","phone":"919-682-2337","website":"http://www.fullsteam.ag/","hoursOfOperation":"MONDAY: 4pm to 10pm\r\nTUES, WED, THURS: 4pm to 12am\r\nFRIDAY: 4pm to 2am\r\nSATURDAY: 12pm to 2am\r\nSUNDAY: 12pm to 10pm","latitude":36.0030422,"longitude":-78.8999883,"isPrimary":"Y","inPlanning":"N","isClosed":"N","openToPublic":"Y","locationType":"micro","locationTypeDisplay":"Micro Brewery","countryIsoCode":"US","yearOpened":"2010","status":"verified","statusDisplay":"Verified","createDate":"2012-01-03 02:41:55","updateDate":"2014-07-23 19:11:34","country":{"isoCode":"US","name":"UNITED STATES","displayName":"United States","isoThree":"USA","numberCode":840,"createDate":"2012-01-03 02:41:33"}},{"id":"DuaynM","name":"Funky Buddha Lounge & Brewery","streetAddress":"2621 N Federal Hwy","locality":"Boca Raton","region":"Florida","postalCode":"33431","phone":"561-368-4643","website":"http://www.thefunkybuddha.com/","hoursOfOperation":"Monday - Friday: 5:00pm - 2:00am\r\nSaturday - Sunday:  6:00pm - 2:00am","latitude":26.374622,"longitude":-80.076854,"isPrimary":"N","inPlanning":"N","isClosed":"N","openToPublic":"Y","locationType":"brewpub","locationTypeDisplay":"Brewpub","countryIsoCode":"US","status":"verified","statusDisplay":"Verified","createDate":"2012-01-03 02:41:55","updateDate":"2014-07-23 19:11:34","country":{"isoCode":"US","name":"UNITED STATES","displayName":"United States","isoThree":"USA","numberCode":840,"createDate":"2012-01-03 02:41:33"}},{"id":"cc5EBm","name":"Funky Buddha Brewery","streetAddress":"1201 NE 38th St","locality":"Oakland Park","region":"Florida","postalCode":"33334","phone":"(954) 440-0046","website":"http://funkybuddhabrewery.com/","hoursOfOperation":"Monday 12:00 pm – 12:00 am\r\nTuesday 12:00 pm – 12:00 am\r\nWednesday 12:00 pm – 12:00 am\r\nThursday 12:00 pm – 12:00 am\r\nFriday 12:00 pm – 12:00 am\r\nSaturday 12:00 pm – 12:00 am\r\nSunday 12:00 pm – 12:00 am","latitude":26.175524,"longitude":-80.1308729,"isPrimary":"Y","inPlanning":"N","isClosed":"N","openToPublic":"Y","locationType":"micro","locationTypeDisplay":"Micro Brewery","countryIsoCode":"US","status":"verified","statusDisplay":"Verified","createDate":"2013-09-04 00:58:17","updateDate":"2014-07-23 19:11:34","country":{"isoCode":"US","name":"UNITED STATES","displayName":"United States","isoThree":"USA","numberCode":840,"createDate":"2012-01-03 02:41:33"}},{"id":"DPLTAJ","name":"Main Brewery","streetAddress":"37 Milford Street","locality":"Hamilton","region":"New York","postalCode":"13346","phone":"315-825-1609","website":"http://www.goodnaturebrewing.com/","latitude":42.8237499,"longitude":-75.550241,"isPrimary":"Y","inPlanning":"N","isClosed":"N","openToPublic":"Y","locationType":"micro","locationTypeDisplay":"Micro Brewery","countryIsoCode":"US","yearOpened":"2010","status":"verified","statusDisplay":"Verified","createDate":"2012-01-03 02:41:56","updateDate":"2014-07-23 19:11:34","country":{"isoCode":"US","name":"UNITED STATES","displayName":"United States","isoThree":"USA","numberCode":840,"createDate":"2012-01-03 02:41:33"}},{"id":"NDPKIS","name":"Main Brewery","streetAddress":"116-E South Kerr Avenue","locality":"Wilmington","region":"North Carolina","postalCode":"28403","phone":"(910) 274-2258","latitude":34.238986,"longitude":-77.889217,"isPrimary":"Y","inPlanning":"Y","isClosed":"N","openToPublic":"N","locationType":"micro","locationTypeDisplay":"Micro Brewery","countryIsoCode":"US","yearOpened":"2010","status":"verified","statusDisplay":"Verified","createDate":"2012-01-15 23:16:46","updateDate":"2014-07-23 19:11:34","country":{"isoCode":"US","name":"UNITED STATES","displayName":"United States","isoThree":"USA","numberCode":840,"createDate":"2012-01-03 02:41:33"}},{"id":"B1gDW0","name":"Main Brewery","streetAddress":"70 SW Century Drive","locality":"Bend","region":"Oregon","postalCode":"97702","phone":"541-728-0749","website":"http://goodlifebrewing.com/","hoursOfOperation":"Mon-Sun: 11:00am-10:00pm","latitude":44.0506115,"longitude":-121.3306451,"isPrimary":"Y","inPlanning":"N","isClosed":"N","openToPublic":"Y","locationType":"micro","locationTypeDisplay":"Micro Brewery","countryIsoCode":"US","yearOpened":"2010","status":"verified","statusDisplay":"Verified","createDate":"2012-03-20 13:03:51","updateDate":"2014-07-23 19:11:34","country":{"isoCode":"US","name":"UNITED STATES","displayName":"United States","isoThree":"USA","numberCode":840,"createDate":"2012-01-03 02:41:33"}},{"id":"wI1wn8","name":"Main Brewery","streetAddress":"123 N Cortez St","locality":"Prescott","region":"Arizona","postalCode":"86301","phone":"(928) 778-5535","website":"http://www.granitemountainbrewing.com/","hoursOfOperation":"Wed - Thu: 4:00 pm - 9:00 pm\r\nFri: 4:00 pm - 10:00 pm\r\nSat: 11:00 am - 10:00 pm\r\nSun: 1:00 pm - 6:00 pm","latitude":34.5427831,"longitude":-112.4686784,"isPrimary":"Y","inPlanning":"N","isClosed":"N","openToPublic":"Y","locationType":"micro","locationTypeDisplay":"Micro Brewery","countryIsoCode":"US","yearOpened":"2010","status":"verified","statusDisplay":"Verified","createDate":"2013-03-02 18:21:10","updateDate":"2014-07-23 19:11:34","country":{"isoCode":"US","name":"UNITED STATES","displayName":"United States","isoThree":"USA","numberCode":840,"createDate":"2012-01-03 02:41:33"}},{"id":"iodDki","name":"Main Brewery","streetAddress":"1150 Pine Street Unit B","locality":"Louisville","region":"Colorado","postalCode":"80027","phone":"303-5440746","website":"http://thegravitybrewing.com/","hoursOfOperation":"Tue - Thu: 4:00 pm - 9:00 pm\r\nFri: 3:00 pm - 10:00 pm\r\nSat: 2:00 pm - 10:00 pm\r\nSun: 2:00 pm - 7:00 pm","latitude":39.977026,"longitude":-105.128919,"isPrimary":"Y","inPlanning":"N","isClosed":"N","openToPublic":"Y","locationType":"tasting","locationTypeDisplay":"Tasting Room","countryIsoCode":"US","yearOpened":"2010","status":"verified","statusDisplay":"Verified","createDate":"2012-01-03 02:41:56","updateDate":"2014-07-23 19:11:34","country":{"isoCode":"US","name":"UNITED STATES","displayName":"United States","isoThree":"USA","numberCode":840,"createDate":"2012-01-03 02:41:33"}},{"id":"7JTum5","name":"Main Brewery","streetAddress":"623 North Denver Avenue","locality":"Loveland","region":"Colorado","postalCode":"80537","phone":"970-624-6045","website":"http://www.grimmbrosbrewhouse.com/","hoursOfOperation":"Monday - Thursday: 1:00 PM to 8:00 PM\r\nFriday: 12:00 PM to 9:00 PM\r\nSaturday: 12:00 PM to 9:00 PM\r\nSunday: 1:00 PM to 5:00 PM","latitude":40.3967058,"longitude":-105.0469349,"isPrimary":"Y","inPlanning":"N","isClosed":"N","openToPublic":"Y","locationType":"micro","locationTypeDisplay":"Micro Brewery","countryIsoCode":"US","yearOpened":"2010","status":"verified","statusDisplay":"Verified","createDate":"2012-01-03 02:41:56","updateDate":"2014-07-23 19:11:34","country":{"isoCode":"US","name":"UNITED STATES","displayName":"United States","isoThree":"USA","numberCode":840,"createDate":"2012-01-03 02:41:33"}},{"id":"B4XeLe","name":"Main Brewery","streetAddress":"Deyertstrasse 23b","locality":"Schweppenhausen","region":"Rheinland-Pfalz","postalCode":"55444","latitude":49.928465,"longitude":7.83083,"isPrimary":"N","inPlanning":"N","isClosed":"N","openToPublic":"Y","locationType":"micro","locationTypeDisplay":"Micro Brewery","countryIsoCode":"DE","status":"verified","statusDisplay":"Verified","createDate":"2012-08-12 14:47:39","updateDate":"2014-07-23 19:11:34","country":{"isoCode":"DE","name":"GERMANY","displayName":"Germany","isoThree":"DEU","numberCode":276,"createDate":"2012-01-03 02:41:33"}},{"id":"oiZG3e","name":"Main Brewery","streetAddress":"11 S 21st St","locality":"Richmond","region":"Virginia","postalCode":"23223","phone":"804-222-3181","website":"http://www.haxallbrewingcompany.com/","latitude":37.5310748,"longitude":-77.4250957,"isPrimary":"Y","inPlanning":"N","isClosed":"N","openToPublic":"Y","locationType":"micro","locationTypeDisplay":"Micro Brewery","countryIsoCode":"US","yearOpened":"2010","status":"verified","statusDisplay":"Verified","createDate":"2012-01-03 02:41:57","updateDate":"2014-07-23 19:11:34","country":{"isoCode":"US","name":"UNITED STATES","displayName":"United States","isoThree":"USA","numberCode":840,"createDate":"2012-01-03 02:41:33"}},{"id":"R2I4D5","name":"Main Brewery","streetAddress":"737 W Randolph St","locality":"Chicago","region":"Illinois","postalCode":"60661","phone":"312-638-0700","website":"http://www.haymarketbrewing.com/","latitude":41.884044,"longitude":-87.647162,"isPrimary":"Y","inPlanning":"N","isClosed":"N","openToPublic":"Y","locationType":"brewpub","locationTypeDisplay":"Brewpub","countryIsoCode":"US","status":"verified","statusDisplay":"Verified","createDate":"2012-01-03 02:41:57","updateDate":"2014-07-23 19:11:34","country":{"isoCode":"US","name":"UNITED STATES","displayName":"United States","isoThree":"USA","numberCode":840,"createDate":"2012-01-03 02:41:33"}},{"id":"xwMmBD","name":"Main Brewery","streetAddress":"527 Wells Ave S","locality":"Renton","region":"Washington","phone":"425-243-4372","hoursOfOperation":"Sat:  1:00pm - 5:00pm\n\nAvailable by appointment.","latitude":47.4755288,"longitude":-122.2058593,"isPrimary":"Y","inPlanning":"N","isClosed":"N","openToPublic":"Y","locationType":"tasting","locationTypeDisplay":"Tasting Room","countryIsoCode":"US","status":"verified","statusDisplay":"Verified","createDate":"2014-09-23 17:46:20","updateDate":"2014-09-23 17:46:20","country":{"isoCode":"US","name":"UNITED STATES","displayName":"United States","isoThree":"USA","numberCode":840,"createDate":"2012-01-03 02:41:33"}},{"id":"yZyKm9","name":"Main Brewery","streetAddress":"7955 Silverton Ave","extendedAddress":"Suite 1201","locality":"San Diego","region":"California","postalCode":"92126","phone":"619-887-6453","website":"http://www.hessbrewing.com/","latitude":32.8906667,"longitude":-117.1495698,"isPrimary":"Y","inPlanning":"N","isClosed":"N","openToPublic":"Y","locationType":"micro","locationTypeDisplay":"Micro Brewery","countryIsoCode":"US","yearOpened":"2010","status":"verified","statusDisplay":"Verified","createDate":"2012-01-03 02:41:57","updateDate":"2014-07-23 19:11:34","country":{"isoCode":"US","name":"UNITED STATES","displayName":"United States","isoThree":"USA","numberCode":840,"createDate":"2012-01-03 02:41:33"}},{"id":"XRTc94","name":"Main Brewery","streetAddress":"302 N Carson St","locality":"Carson City","region":"Nevada","postalCode":"89703","phone":"775-882-7787","website":"http://highsierrabrewco.com/","hoursOfOperation":"Mon - Thu: 11:00 am - 10:00 pm\r\nFri - Sat: 11:00 am - 2:00 am\r\nSun: 11:00 am - 10:00 pm","latitude":39.1653305,"longitude":-119.7671194,"isPrimary":"Y","inPlanning":"N","isClosed":"N","openToPublic":"Y","locationType":"brewpub","locationTypeDisplay":"Brewpub","countryIsoCode":"US","yearOpened":"2010","status":"verified","statusDisplay":"Verified","createDate":"2012-01-03 02:41:57","updateDate":"2014-07-23 19:11:34","country":{"isoCode":"US","name":"UNITED STATES","displayName":"United States","isoThree":"USA","numberCode":840,"createDate":"2012-01-03 02:41:33"}},{"id":"FLoT3g","name":"Main Brewery","streetAddress":"403 Hill Road","locality":"Greensboro Bend","region":"Vermont","postalCode":"05842","phone":"802-533-7450","website":"http://hillfarmstead.com/","latitude":44.6072147,"longitude":-72.2623024,"isPrimary":"Y","inPlanning":"N","isClosed":"N","openToPublic":"Y","locationType":"micro","locationTypeDisplay":"Micro Brewery","countryIsoCode":"US","status":"verified","statusDisplay":"Verified","createDate":"2012-01-03 02:41:57","updateDate":"2014-08-22 00:56:36","country":{"isoCode":"US","name":"UNITED STATES","displayName":"United States","isoThree":"USA","numberCode":840,"createDate":"2012-01-03 02:41:33"}},{"id":"ichhfQ","name":"Main Brewery","streetAddress":"18 Shipyard Dr","locality":"Hingham","region":"Massachusetts","postalCode":"02043","phone":"781-749-2337","website":"http://www.beerworks.net/","latitude":42.2494051,"longitude":-70.9225384,"isPrimary":"Y","inPlanning":"N","isClosed":"N","openToPublic":"Y","locationType":"micro","locationTypeDisplay":"Micro Brewery","countryIsoCode":"US","status":"verified","statusDisplay":"Verified","createDate":"2012-01-03 02:41:57","updateDate":"2014-07-23 19:11:34","country":{"isoCode":"US","name":"UNITED STATES","displayName":"United States","isoThree":"USA","numberCode":840,"createDate":"2012-01-03 02:41:33"}},{"id":"zOXpwx","name":"Main Brewery","streetAddress":"PO Box 13609","locality":"Kanata","region":"Ontario","postalCode":"K2K 1X6","phone":"613-986-2337","website":"http://www.hogsback.ca/","latitude":45.335401,"longitude":-75.911372,"isPrimary":"Y","inPlanning":"N","isClosed":"N","openToPublic":"Y","locationType":"micro","locationTypeDisplay":"Micro Brewery","countryIsoCode":"CA","yearOpened":"2010","status":"verified","statusDisplay":"Verified","createDate":"2012-01-03 02:41:57","updateDate":"2014-07-23 19:11:34","country":{"isoCode":"CA","name":"CANADA","displayName":"Canada","isoThree":"CAN","numberCode":124,"createDate":"2012-01-03 02:41:33"}},{"id":"biGe6O","name":"Main Brewery","streetAddress":"4460 W. 29th Ave.","locality":"Denver","region":"Colorado","postalCode":"80212","phone":"303-886-9655","website":"http://www.hogsheadbrewery.com/","hoursOfOperation":"Monday-Wednesday: 4pm-9pm\r\nThursday: 2pm-10pm\r\nFriday-Saturday: 12pm-10pm\r\nSunday: 12pm-8pm.","latitude":39.758252,"longitude":-105.045115,"isPrimary":"Y","inPlanning":"N","isClosed":"N","openToPublic":"Y","locationType":"micro","locationTypeDisplay":"Micro Brewery","countryIsoCode":"US","yearOpened":"2010","status":"verified","statusDisplay":"Verified","createDate":"2012-01-03 02:41:57","updateDate":"2014-07-23 19:11:34","country":{"isoCode":"US","name":"UNITED STATES","displayName":"United States","isoThree":"USA","numberCode":840,"createDate":"2012-01-03 02:41:33"}},{"id":"GyxTPI","name":"Main Brewery","streetAddress":"935 Front Street","locality":"Leavenworth","region":"Washington","postalCode":"98826","phone":"(509) 548-2739","website":"http://www.iciclebrewing.com/","hoursOfOperation":"Mon - Thu: 12:00 pm - 10:00 pm\r\nFri: 12:00 pm - 11:00 pm\r\nSat: 11:00 am - 11:00 pm\r\nSun: 11:00 am - 10:00 pm","latitude":47.5961799,"longitude":-120.659626,"isPrimary":"Y","inPlanning":"N","isClosed":"N","openToPublic":"Y","locationType":"micro","locationTypeDisplay":"Micro Brewery","countryIsoCode":"US","yearOpened":"2010","status":"verified","statusDisplay":"Verified","createDate":"2012-01-03 02:41:58","updateDate":"2014-07-23 19:11:34","country":{"isoCode":"US","name":"UNITED STATES","displayName":"United States","isoThree":"USA","numberCode":840,"createDate":"2012-01-03 02:41:33"}},{"id":"7w7trb","name":"Main Brewery","streetAddress":"3 Charlton St.  #4","locality":"Everett","region":"Massachusetts","postalCode":"02149","website":"http://www.idlehandscraftales.com/","latitude":42.3998035,"longitude":-71.0640121,"isPrimary":"Y","inPlanning":"N","isClosed":"N","openToPublic":"Y","locationType":"nano","locationTypeDisplay":"Nano Brewery","countryIsoCode":"US","yearOpened":"2010","status":"verified","statusDisplay":"Verified","createDate":"2012-01-03 02:41:58","updateDate":"2014-07-23 19:11:34","country":{"isoCode":"US","name":"UNITED STATES","displayName":"United States","isoThree":"USA","numberCode":840,"createDate":"2012-01-03 02:41:33"}},{"id":"rzZJ2d","name":"Main Brewery","streetAddress":"4/83-85 Montague Street","locality":"Wollongong","region":"New South Wales","postalCode":"2500","phone":"42250317","website":"http://www.illawarrabrewingco.com.au","latitude":-34.404792,"longitude":150.89565,"isPrimary":"Y","inPlanning":"N","isClosed":"N","openToPublic":"Y","locationType":"micro","locationTypeDisplay":"Micro Brewery","countryIsoCode":"AU","yearOpened":"2010","status":"verified","statusDisplay":"Verified","createDate":"2014-03-03 23:20:56","updateDate":"2014-07-23 19:11:34","country":{"isoCode":"AU","name":"AUSTRALIA","displayName":"Australia","isoThree":"AUS","numberCode":36,"createDate":"2012-01-03 02:41:33"}},{"id":"HxJ67V","name":"Main Brewery","streetAddress":"2379 La Mirada Dr.","locality":"Vista","region":"California","postalCode":"92081","phone":"(760) 295-3945","website":"http://IndianJoeBrewing.com/","hoursOfOperation":"Wed: 3:00 pm - 8:00 pm\r\nThu: 3:00 pm - 9:00 pm\r\nFri: 3:00 pm - 10:00 pm\r\nSat: 12:00 pm - 10:00 pm\r\nSun: 12:00 pm - 6:00 pm","latitude":33.1522965,"longitude":-117.2278414,"isPrimary":"Y","inPlanning":"N","isClosed":"N","openToPublic":"Y","locationType":"micro","locationTypeDisplay":"Micro Brewery","countryIsoCode":"US","yearOpened":"2010","status":"verified","statusDisplay":"Verified","createDate":"2013-06-14 11:35:09","updateDate":"2014-07-23 19:11:34","country":{"isoCode":"US","name":"UNITED STATES","displayName":"United States","isoThree":"USA","numberCode":840,"createDate":"2012-01-03 02:41:33"}},{"id":"iw1hDB","name":"Main Brewery","streetAddress":"1305 Hot Spring Way","extendedAddress":"#101","locality":"Vista","region":"California","postalCode":"92081","phone":"760-216-6500","website":"http://ironfistbrewing.com/","latitude":33.145823,"longitude":-117.238546,"isPrimary":"Y","inPlanning":"N","isClosed":"N","openToPublic":"Y","locationType":"micro","locationTypeDisplay":"Micro Brewery","countryIsoCode":"US","yearOpened":"2010","status":"verified","statusDisplay":"Verified","createDate":"2012-01-03 02:41:58","updateDate":"2014-07-23 19:11:34","country":{"isoCode":"US","name":"UNITED STATES","displayName":"United States","isoThree":"USA","numberCode":840,"createDate":"2012-01-03 02:41:33"}},{"id":"M4K0XQ","name":"Main Brewery","streetAddress":"13005 Fitzhugh Rd","extendedAddress":"Bld. B","locality":"Austin","region":"Texas","postalCode":"78736","phone":"512-537-5100","website":"http://www.jesterkingbrewery.com/","latitude":30.233431,"longitude":-97.995129,"isPrimary":"Y","inPlanning":"N","isClosed":"N","openToPublic":"Y","locationType":"micro","locationTypeDisplay":"Micro Brewery","countryIsoCode":"US","status":"verified","statusDisplay":"Verified","createDate":"2012-01-03 02:41:59","updateDate":"2014-07-23 19:11:34","country":{"isoCode":"US","name":"UNITED STATES","displayName":"United States","isoThree":"USA","numberCode":840,"createDate":"2012-01-03 02:41:33"}},{"id":"iQmBa8","name":"Main Brewery","streetAddress":"14233 Glade Spring Dr","locality":"Centreville","region":"Virginia","postalCode":"20121","website":"http://www.jurneebeers.com/","latitude":38.830062,"longitude":-77.44489,"isPrimary":"Y","inPlanning":"Y","isClosed":"N","openToPublic":"Y","locationType":"micro","locationTypeDisplay":"Micro Brewery","countryIsoCode":"US","status":"verified","statusDisplay":"Verified","createDate":"2012-01-03 02:41:59","updateDate":"2014-07-23 19:11:34","country":{"isoCode":"US","name":"UNITED STATES","displayName":"United States","isoThree":"USA","numberCode":840,"createDate":"2012-01-03 02:41:33"}},{"id":"I6qy7r","name":"Main Brewery","streetAddress":"7924 King Street","locality":"Anchorage","region":"Alaska","postalCode":"99518","phone":"907-336-5464","website":"http://www.kingstreetbrewing.com","hoursOfOperation":"Tap Room Hours!\r\nMonday: 3-8\r\nTuesday: 3-8\r\nWednesday: 3-8\r\nThursday: 3-8\r\nFriday: 3-8\r\nSaturday: 12-8","latitude":61.1488492,"longitude":-149.877916,"isPrimary":"Y","inPlanning":"N","isClosed":"N","openToPublic":"Y","locationType":"micro","locationTypeDisplay":"Micro Brewery","countryIsoCode":"US","yearOpened":"2010","status":"verified","statusDisplay":"Verified","createDate":"2012-01-03 02:41:59","updateDate":"2014-07-23 19:11:34","country":{"isoCode":"US","name":"UNITED STATES","displayName":"United States","isoThree":"USA","numberCode":840,"createDate":"2012-01-03 02:41:33"}},{"id":"NhT0t2","name":"Main Brewery","streetAddress":"Skovholmvej 9","locality":"DK-2920 Charlottenlund","phone":"+45 29 24 94 32","website":"http://www.kissmeyer.net/","latitude":55.7589266,"longitude":12.5596868,"isPrimary":"Y","inPlanning":"N","isClosed":"N","openToPublic":"Y","locationType":"micro","locationTypeDisplay":"Micro Brewery","countryIsoCode":"DK","yearOpened":"2010","status":"verified","statusDisplay":"Verified","createDate":"2012-01-03 02:41:59","updateDate":"2014-07-23 19:11:34","country":{"isoCode":"DK","name":"DENMARK","displayName":"Denmark","isoThree":"DNK","numberCode":208,"createDate":"2012-01-03 02:41:33"}},{"id":"hvWfx5","name":"Production Facility","streetAddress":"645 5th Street","locality":"Lincoln","region":"California","postalCode":"95648","phone":"(916) 757-1861","website":"http://kneedeepbrewing.com/","latitude":38.891802,"longitude":-121.292128,"isPrimary":"N","inPlanning":"N","isClosed":"N","openToPublic":"Y","locationType":"micro","locationTypeDisplay":"Micro Brewery","countryIsoCode":"US","status":"verified","statusDisplay":"Verified","createDate":"2012-01-03 02:41:59","updateDate":"2014-07-23 19:11:34","country":{"isoCode":"US","name":"UNITED STATES","displayName":"United States","isoThree":"USA","numberCode":840,"createDate":"2012-01-03 02:41:33"}},{"id":"ODQYnq","name":"Brewery & Tap Room","streetAddress":"13395 New Airport Rd.","extendedAddress":"Ste. H","locality":"Auburn","region":"California","postalCode":"95602","phone":"(530) 797-4677","website":"http://kneedeepbrewing.com/","hoursOfOperation":"Monday thru Thursday: 3 to 8 pm.\r\nFriday: 3 to 9 pm.\r\nSaturday: 1 to 9 pm.\r\nSunday: 1 to 8 pm.","latitude":38.9519093,"longitude":-121.0803596,"isPrimary":"Y","inPlanning":"N","isClosed":"N","openToPublic":"Y","locationType":"micro","locationTypeDisplay":"Micro Brewery","countryIsoCode":"US","status":"verified","statusDisplay":"Verified","createDate":"2014-03-14 12:39:18","updateDate":"2014-07-23 19:11:34","country":{"isoCode":"US","name":"UNITED STATES","displayName":"United States","isoThree":"USA","numberCode":840,"createDate":"2012-01-03 02:41:33"}},{"id":"4x0UAF","name":"La Captive","streetAddress":"140, boulevard saint-Benoît Ouest","locality":"Amqui","region":"Québec","postalCode":"g5j2e8","phone":"1-418-631-1343","website":"http://www.lacaptive.ca/","hoursOfOperation":"Mon - Wed: 8:00 am - 11:00 pm\r\nThu - Sat: 8:00 am - 1:00 am\r\nSun: 10:00 am - 10:00 pm","latitude":48.4671714,"longitude":-67.4357334,"isPrimary":"Y","inPlanning":"N","isClosed":"N","openToPublic":"Y","locationType":"brewpub","locationTypeDisplay":"Brewpub","countryIsoCode":"CA","yearOpened":"2010","status":"verified","statusDisplay":"Verified","createDate":"2013-07-05 14:47:55","updateDate":"2014-07-23 19:11:34","country":{"isoCode":"CA","name":"CANADA","displayName":"Canada","isoThree":"CAN","numberCode":124,"createDate":"2012-01-03 02:41:33"}},{"id":"9satky","name":"Main Brewery","streetAddress":"3313 Girard NE","locality":"Albuquerque","region":"New Mexico","postalCode":"87107","phone":"505-872-0225","website":"http://lacumbrebrewing.com/","hoursOfOperation":"Fri - Sat: 12:00 pm - 12:00 am","latitude":35.117849,"longitude":-106.6137963,"isPrimary":"Y","inPlanning":"N","isClosed":"N","openToPublic":"Y","locationType":"micro","locationTypeDisplay":"Micro Brewery","countryIsoCode":"US","yearOpened":"2010","status":"verified","statusDisplay":"Verified","createDate":"2012-01-03 02:42:00","updateDate":"2014-07-23 19:11:34","country":{"isoCode":"US","name":"UNITED STATES","displayName":"United States","isoThree":"USA","numberCode":840,"createDate":"2012-01-03 02:41:33"}},{"id":"czwGMM","name":"Le Trèfle Noir","streetAddress":"145, avenue Principale","locality":"Rouyn-Noranda","region":"Québec","postalCode":"j9x4p3","phone":"1-819-762-6611","website":"http://www.letreflenoir.com/","latitude":48.239186,"longitude":-79.0200905,"isPrimary":"Y","inPlanning":"N","isClosed":"N","openToPublic":"Y","locationType":"micro","locationTypeDisplay":"Micro Brewery","countryIsoCode":"CA","status":"verified","statusDisplay":"Verified","createDate":"2013-07-03 14:38:34","updateDate":"2014-07-23 19:11:34","country":{"isoCode":"CA","name":"CANADA","displayName":"Canada","isoThree":"CAN","numberCode":124,"createDate":"2012-01-03 02:41:33"}},{"id":"rdNsfE","name":"La Fabrique","streetAddress":"360, rue Saint-Jérôme","locality":"Matane","region":"Québec","postalCode":"g4w3b1","phone":"1-418-566-4020","website":"http://www.publafabrique.com/","latitude":48.8457007,"longitude":-67.5292274,"isPrimary":"N","inPlanning":"N","isClosed":"N","openToPublic":"Y","locationType":"brewpub","locationTypeDisplay":"Brewpub","countryIsoCode":"CA","yearOpened":"2010","status":"verified","statusDisplay":"Verified","createDate":"2013-07-03 14:46:54","updateDate":"2014-07-23 19:11:34","country":{"isoCode":"CA","name":"CANADA","displayName":"Canada","isoThree":"CAN","numberCode":124,"createDate":"2012-01-03 02:41:33"}},{"id":"FCGb3K","name":"Main Brewery","streetAddress":"380 Rue Dorchester","locality":"Québec","region":"Québec","postalCode":"G1K 6A7","phone":"+1 418-614-0932","website":"http://www.korrigane.ca/","hoursOfOperation":"Mon - Thu: 2:00 pm - 1:00 am\r\nFri - Sat: 2:00 pm - 3:00 am\r\nSun: 2:00 pm - 1:00 am","latitude":46.8137038,"longitude":-71.2266539,"isPrimary":"Y","inPlanning":"N","isClosed":"N","openToPublic":"Y","locationType":"micro","locationTypeDisplay":"Micro Brewery","countryIsoCode":"CA","status":"verified","statusDisplay":"Verified","createDate":"2013-03-21 11:07:08","updateDate":"2014-07-23 19:11:34","country":{"isoCode":"CA","name":"CANADA","displayName":"Canada","isoThree":"CAN","numberCode":124,"createDate":"2012-01-03 02:41:33"}},{"id":"xNXnQl","name":"Main Brewery","streetAddress":"2832 Abbeyville Rd","locality":"Medina","region":"Ohio","postalCode":"44256","phone":"330-725-1947","website":"http://lagerheads.us/","latitude":41.197221,"longitude":-81.887167,"isPrimary":"Y","inPlanning":"N","isClosed":"N","openToPublic":"Y","locationType":"brewpub","locationTypeDisplay":"Brewpub","countryIsoCode":"US","yearOpened":"2010","status":"verified","statusDisplay":"Verified","createDate":"2012-01-03 02:42:00","updateDate":"2014-07-23 19:11:34","country":{"isoCode":"US","name":"UNITED STATES","displayName":"United States","isoThree":"USA","numberCode":840,"createDate":"2012-01-03 02:41:33"}},{"id":"9ezlsV","name":"Main Brewery","streetAddress":"212 North Boundary Street","locality":"Wasilla","region":"Alaska","postalCode":"99654","phone":"907-354-3347","hoursOfOperation":"Mon - Thu:\t11:00 am - 9:00 pm\r\nFri - Sat:\t11:00 am - 11:00 pm\r\nSun:\t11:00 am - 9:00 pm","latitude":61.5811335,"longitude":-149.4393991,"isPrimary":"Y","inPlanning":"N","isClosed":"N","openToPublic":"Y","locationType":"brewpub","locationTypeDisplay":"Brewpub","countryIsoCode":"US","yearOpened":"2010","status":"verified","statusDisplay":"Verified","createDate":"2012-01-03 02:42:10","updateDate":"2014-07-23 19:11:34","country":{"isoCode":"US","name":"UNITED STATES","displayName":"United States","isoThree":"USA","numberCode":840,"createDate":"2012-01-03 02:41:33"}},{"id":"g6S9WB","name":"Main Brewery","streetAddress":"301 Wells St","locality":"Greenfield","region":"Massachusetts","postalCode":"01301","phone":"413-475-3449","website":"http://leftysbrew.com/","latitude":42.60122,"longitude":-72.606733,"isPrimary":"Y","inPlanning":"N","isClosed":"N","openToPublic":"Y","locationType":"micro","locationTypeDisplay":"Micro Brewery","countryIsoCode":"US","status":"verified","statusDisplay":"Verified","createDate":"2012-01-03 02:42:00","updateDate":"2014-07-23 19:11:34","country":{"isoCode":"US","name":"UNITED STATES","displayName":"United States","isoThree":"USA","numberCode":840,"createDate":"2012-01-03 02:41:33"}},{"id":"rHgF2X","name":"Main Brewery","streetAddress":"39 N. Lexington Avenue","locality":"Asheville","region":"North Carolina","postalCode":"28801","phone":"828.252.0212","website":"http://www.lexavebrew.com/","hoursOfOperation":"Mon - Tue:\t11:30 am - 12:00 am\r\nWed - Sat:\t11:30 am - 2:00 am\r\nSun:\t12:00 pm - 12:00 am","latitude":35.596156,"longitude":-82.553214,"isPrimary":"Y","inPlanning":"N","isClosed":"N","openToPublic":"Y","locationType":"brewpub","locationTypeDisplay":"Brewpub","countryIsoCode":"US","yearOpened":"2010","status":"verified","statusDisplay":"Verified","createDate":"2012-01-03 02:42:00","updateDate":"2014-07-23 19:11:34","country":{"isoCode":"US","name":"UNITED STATES","displayName":"United States","isoThree":"USA","numberCode":840,"createDate":"2012-01-03 02:41:33"}},{"id":"FmWw3u","name":"Hickory","streetAddress":"2033 North Center St","locality":"Hickory","region":"North Carolina","postalCode":"28601","phone":"828-781-5761","website":"http://www.loesbrewing.com/","hoursOfOperation":"Our taproom hours will be Fri, Sat, Sun  2pm -10pm.  Longer hours available on request.","latitude":35.7597287,"longitude":-81.3345216,"isPrimary":"N","inPlanning":"N","isClosed":"Y","openToPublic":"N","locationType":"micro","locationTypeDisplay":"Micro Brewery","countryIsoCode":"US","yearOpened":"2010","yearClosed":"2012","status":"verified","statusDisplay":"Verified","createDate":"2012-01-03 02:42:00","updateDate":"2014-08-31 16:05:20","country":{"isoCode":"US","name":"UNITED STATES","displayName":"United States","isoThree":"USA","numberCode":840,"createDate":"2012-01-03 02:41:33"}},{"id":"i5InUU","name":"Granite Falls","streetAddress":"47 Duke Street","locality":"Granite Falls","region":"North Carolina","postalCode":"28630","phone":"(828) 781-5761","website":"http://www.loesbrewing.com","hoursOfOperation":"Thu - Sat: 2:00 pm - 10:00 pm","latitude":35.7948892,"longitude":-81.4299923,"isPrimary":"Y","inPlanning":"N","isClosed":"Y","openToPublic":"N","locationType":"micro","locationTypeDisplay":"Micro Brewery","countryIsoCode":"US","yearOpened":"2013","status":"verified","statusDisplay":"Verified","createDate":"2013-07-24 12:14:37","updateDate":"2014-08-31 16:04:19","country":{"isoCode":"US","name":"UNITED STATES","displayName":"United States","isoThree":"USA","numberCode":840,"createDate":"2012-01-03 02:41:33"}},{"id":"RhJhNX","name":"Main Brewery","streetAddress":"Unit 6, Suffolk Way","locality":"Abingdon","region":"Oxfordshire","postalCode":"OX14 5JX","phone":"+44 1235 531141","website":"http://www.lcbeers.co.uk/","hoursOfOperation":"Mon - Fri: 8:00 am - 6:00 pm\r\nSat: 9:00 am - 5:00 pm","latitude":51.6661639,"longitude":-1.2982723,"isPrimary":"Y","inPlanning":"N","isClosed":"N","openToPublic":"Y","locationType":"micro","locationTypeDisplay":"Micro Brewery","countryIsoCode":"GB","status":"verified","statusDisplay":"Verified","createDate":"2013-03-20 18:23:47","updateDate":"2014-07-23 19:11:34","country":{"isoCode":"GB","name":"UNITED KINGDOM","displayName":"United Kingdom","isoThree":"GBR","numberCode":826,"createDate":"2012-01-03 02:41:33"}},{"id":"VJn8SA","name":"Main Brewery","streetAddress":"507 Columbia St","locality":"Vancouver","region":"Washington","postalCode":"98660","phone":"(360) 566-2323","website":"http://www.loowitbrewing.com","hoursOfOperation":"Thu: 4:00 pm - 8:00 pm\r\nFri: 4:00 pm - 10:00 pm\r\nSat: 2:00 pm - 10:00 pm","latitude":45.6252284,"longitude":-122.673635,"isPrimary":"Y","inPlanning":"N","isClosed":"N","openToPublic":"Y","locationType":"micro","locationTypeDisplay":"Micro Brewery","countryIsoCode":"US","status":"verified","statusDisplay":"Verified","createDate":"2014-01-22 13:36:40","updateDate":"2014-07-23 19:11:34","country":{"isoCode":"US","name":"UNITED STATES","displayName":"United States","isoThree":"USA","numberCode":840,"createDate":"2012-01-03 02:41:33"}},{"id":"YglaK6","name":"Main Brewery","locality":"Washington","region":"District of Columbia","website":"http://www.lowbraudc.com/","latitude":38.89037,"longitude":-77.031959,"isPrimary":"Y","inPlanning":"N","isClosed":"N","openToPublic":"Y","locationType":"micro","locationTypeDisplay":"Micro Brewery","countryIsoCode":"US","yearOpened":"2010","status":"verified","statusDisplay":"Verified","createDate":"2012-01-03 02:42:01","updateDate":"2014-07-23 19:11:34","country":{"isoCode":"US","name":"UNITED STATES","displayName":"United States","isoThree":"USA","numberCode":840,"createDate":"2012-01-03 02:41:33"}},{"id":"Pdw0mP","name":"Main Brewery","streetAddress":"910 Hudson Road","locality":"Menomonie","region":"Wisconsin","postalCode":"54751","phone":"715-233-2055","website":"http://www.lucettebrewing.com/","latitude":44.8758615,"longitude":-91.9401429,"isPrimary":"Y","inPlanning":"N","isClosed":"N","openToPublic":"Y","locationType":"micro","locationTypeDisplay":"Micro Brewery","countryIsoCode":"US","status":"verified","statusDisplay":"Verified","createDate":"2012-01-03 02:42:01","updateDate":"2014-07-23 19:11:34","country":{"isoCode":"US","name":"UNITED STATES","displayName":"United States","isoThree":"USA","numberCode":840,"createDate":"2012-01-03 02:41:33"}},{"id":"7YGrh1","name":"Main Brewery","streetAddress":"5 S. San Francisco St","locality":"Flagstaff","region":"Arizona","postalCode":"86001","phone":"928-779-2739","website":"http://lumberyardbrewingcompany.com/","latitude":35.196703,"longitude":-111.648974,"isPrimary":"Y","inPlanning":"N","isClosed":"N","openToPublic":"Y","locationType":"micro","locationTypeDisplay":"Micro Brewery","countryIsoCode":"US","yearOpened":"1994","status":"verified","statusDisplay":"Verified","createDate":"2012-01-03 02:42:01","updateDate":"2014-07-23 19:11:34","country":{"isoCode":"US","name":"UNITED STATES","displayName":"United States","isoThree":"USA","numberCode":840,"createDate":"2012-01-03 02:41:33"}},{"id":"OK6zyY","name":"Brewery & Restaurant","streetAddress":"444 West Broad Street","extendedAddress":"Suite I","locality":"Falls Church","region":"Virginia","postalCode":"22046","phone":"703-942-6840","website":"http://madfoxbrewing.com/","hoursOfOperation":"11am - 11pm, Monday - Wednesday\r\n11am - Midnight, Thursday - Saturday\r\n10am - 11pm, Sunday, Brunch 10am-3pm","latitude":38.8862833,"longitude":-77.177117,"isPrimary":"Y","inPlanning":"N","isClosed":"N","openToPublic":"Y","locationType":"restaurant","locationTypeDisplay":"Restaurant/Ale House","countryIsoCode":"US","yearOpened":"2010","status":"verified","statusDisplay":"Verified","createDate":"2012-01-03 02:42:01","updateDate":"2014-07-23 19:11:34","country":{"isoCode":"US","name":"UNITED STATES","displayName":"United States","isoThree":"USA","numberCode":840,"createDate":"2012-01-03 02:41:33"}},{"id":"Hw7H52","name":"Main Office","streetAddress":"1934 Old Gallows Road","extendedAddress":"Suite 350","locality":"Vienna","region":"Virginia","postalCode":"22182","phone":"703-942-6840","website":"http://madfoxbrewing.com/","latitude":38.911825,"longitude":-77.222019,"isPrimary":"N","inPlanning":"N","isClosed":"N","openToPublic":"N","locationType":"office","locationTypeDisplay":"Office","countryIsoCode":"US","yearOpened":"2010","status":"verified","statusDisplay":"Verified","createDate":"2012-03-05 17:44:47","updateDate":"2014-07-23 19:11:34","country":{"isoCode":"US","name":"UNITED STATES","displayName":"United States","isoThree":"USA","numberCode":840,"createDate":"2012-01-03 02:41:33"}},{"id":"2yrsTh","name":"Main Brewery","streetAddress":"Bergsgatan 33","locality":"Malmö","postalCode":"21422","phone":"+46 40 20 96 85","website":"http://www.malmobrygghus.se/","hoursOfOperation":"Monday\t9:00 am – 4:00 pm\r\nTuesday\t9:00 am – 4:00 pm\r\nWednesday\t9:00 am – 4:00 pm\r\nThursday\t9:00 am – 4:00 pm\r\nFriday\t9:00 am – 4:00 pm\r\nSaturday\tClosed\r\nSunday\tClosed","latitude":55.593382,"longitude":13.007681,"isPrimary":"Y","inPlanning":"N","isClosed":"N","openToPublic":"Y","locationType":"micro","locationTypeDisplay":"Micro Brewery","countryIsoCode":"SE","yearOpened":"2010","status":"verified","statusDisplay":"Verified","createDate":"2014-04-09 12:21:43","updateDate":"2014-07-23 19:11:34","country":{"isoCode":"SE","name":"SWEDEN","displayName":"Sweden","isoThree":"SWE","numberCode":752,"createDate":"2012-01-03 02:41:33"}},{"id":"hELeEk","name":"Main Brewery","streetAddress":"1119 Center Street","locality":"Mankato","region":"Minnesota","postalCode":"56003","website":"http://mankatobrewery.com/","hoursOfOperation":"Tue:  4:00pm - 7:00pm\nThu:  4:00pm - 7:00pm\nFri:  4:00pm - 7:00pm\nSat:  12:00pm - 7:00pm\n\n","latitude":44.1814706,"longitude":-94.0137097,"isPrimary":"Y","inPlanning":"N","isClosed":"N","openToPublic":"Y","locationType":"micro","locationTypeDisplay":"Micro Brewery","countryIsoCode":"US","yearOpened":"2010","status":"verified","statusDisplay":"Verified","createDate":"2012-01-03 02:42:01","updateDate":"2014-08-23 16:32:22","country":{"isoCode":"US","name":"UNITED STATES","displayName":"United States","isoThree":"USA","numberCode":840,"createDate":"2012-01-03 02:41:33"}},{"id":"F63wdK","name":"Main Brewery","streetAddress":"75 East Pearl St.","locality":"Jackson Hole","region":"Wyoming","postalCode":"83001","phone":"(307) 733-0005","website":"http://www.melvinbrewing.com","latitude":43.4786711,"longitude":-110.7612312,"isPrimary":"Y","inPlanning":"N","isClosed":"N","openToPublic":"Y","locationType":"micro","locationTypeDisplay":"Micro Brewery","countryIsoCode":"US","status":"verified","statusDisplay":"Verified","createDate":"2014-07-25 14:06:38","updateDate":"2014-07-25 14:06:38","country":{"isoCode":"US","name":"UNITED STATES","displayName":"United States","isoThree":"USA","numberCode":840,"createDate":"2012-01-03 02:41:33"}},{"id":"C8NtC6","name":"Main Brewery","streetAddress":"2517 Penn Ave","locality":"Pittsburgh","region":"Pennsylvania","postalCode":"15222","website":"http://www.milkmanbrewing.com/","latitude":40.454451,"longitude":-79.97954,"isPrimary":"Y","inPlanning":"Y","isClosed":"N","openToPublic":"Y","locationType":"micro","locationTypeDisplay":"Micro Brewery","countryIsoCode":"US","status":"verified","statusDisplay":"Verified","createDate":"2012-01-03 02:42:02","updateDate":"2014-07-23 19:11:34","country":{"isoCode":"US","name":"UNITED STATES","displayName":"United States","isoThree":"USA","numberCode":840,"createDate":"2012-01-03 02:41:33"}},{"id":"HizvxH","name":"Main Brewery","streetAddress":"4847 Delemere Ave","locality":"Royal Oak","region":"Michigan","postalCode":"48073","website":"http://www.cplanet.com/ctheresf.aspx?destid=millkingitD5EA3B99374D7948B893700EEFF6B8E6D","latitude":42.534058,"longitude":-83.177216,"isPrimary":"Y","inPlanning":"N","isClosed":"N","openToPublic":"Y","locationType":"micro","locationTypeDisplay":"Micro Brewery","countryIsoCode":"US","yearOpened":"2010","status":"verified","statusDisplay":"Verified","createDate":"2012-01-03 02:42:02","updateDate":"2014-07-23 19:11:34","country":{"isoCode":"US","name":"UNITED STATES","displayName":"United States","isoThree":"USA","numberCode":840,"createDate":"2012-01-03 02:41:33"}},{"id":"bx3b1K","name":"Main Brewery","streetAddress":"200 South Gold Ave","locality":"Deming","region":"New Mexico","postalCode":"88030","phone":"575-544-2739","website":"http://demingbrew.com/","hoursOfOperation":"Mon - Fri: 11:00 am - 8:00 pm\r\nSat: 11:00 am - 9:00 pm","latitude":32.2674861,"longitude":-107.7586929,"isPrimary":"Y","inPlanning":"N","isClosed":"Y","openToPublic":"N","locationType":"brewpub","locationTypeDisplay":"Brewpub","countryIsoCode":"US","yearOpened":"2010","yearClosed":"2014","status":"verified","statusDisplay":"Verified","createDate":"2012-01-03 02:42:02","updateDate":"2014-07-23 19:11:34","country":{"isoCode":"US","name":"UNITED STATES","displayName":"United States","isoThree":"USA","numberCode":840,"createDate":"2012-01-03 02:41:33"}},{"id":"tVJpvm","name":"Mito Brewhouse CA","streetAddress":"Zona Industrial Los Andes","extendedAddress":"Zona Ind Los Andes Local 9","locality":"Mérida","region":"Mérida","postalCode":"5101","website":"http://www.mitobrewhouse.com","isPrimary":"Y","inPlanning":"N","isClosed":"N","openToPublic":"Y","locationType":"micro","locationTypeDisplay":"Micro Brewery","countryIsoCode":"VE","status":"verified","statusDisplay":"Verified","createDate":"2014-01-02 14:55:16","updateDate":"2014-09-22 17:44:29","country":{"isoCode":"VE","name":"VENEZUELA","displayName":"Venezuela","isoThree":"VEN","numberCode":862,"createDate":"2012-01-03 02:41:33"}},{"id":"d4TIzB","name":"Main Brewery","streetAddress":"62 S Erie Avenue","locality":"Montauk","region":"New York","postalCode":"11954","phone":"(631) 668-8471","website":"http://www.montaukbrewingco.com/","hoursOfOperation":"Friday 5:30-8pm\r\nSaturday 12-8pm\r\nSunday 12-8pm","latitude":41.036641,"longitude":-71.944036,"isPrimary":"Y","inPlanning":"N","isClosed":"N","openToPublic":"Y","locationType":"micro","locationTypeDisplay":"Micro Brewery","countryIsoCode":"US","status":"verified","statusDisplay":"Verified","createDate":"2013-01-05 15:33:23","updateDate":"2014-07-23 19:11:34","country":{"isoCode":"US","name":"UNITED STATES","displayName":"United States","isoThree":"USA","numberCode":840,"createDate":"2012-01-03 02:41:33"}},{"id":"XnBFll","name":"Main Brewery","streetAddress":"350B Bay Street","locality":"Victoria","region":"British Columbia","postalCode":"V8T 1P7","phone":"250-380-0706","hoursOfOperation":"Monday: Closed\r\nTuesday: Closed \r\nWednesday: 11:30 - 11:00\r\nThursday: 11:30 - 11:00\r\nFriday: 11:30 - 12:00\r\nSaturday: 11:30 - 12:00\r\nSunday: 11:30 - 8:00","latitude":48.4349801,"longitude":-123.3751019,"isPrimary":"Y","inPlanning":"N","isClosed":"N","openToPublic":"Y","locationType":"brewpub","locationTypeDisplay":"Brewpub","countryIsoCode":"CA","yearOpened":"2010","status":"verified","statusDisplay":"Verified","createDate":"2013-02-18 15:36:09","updateDate":"2014-07-23 19:11:34","country":{"isoCode":"CA","name":"CANADA","displayName":"Canada","isoThree":"CAN","numberCode":124,"createDate":"2012-01-03 02:41:33"}},{"id":"loSfjp","name":"Main Brewery","streetAddress":"23 Londonderry Rd","extendedAddress":"Unit 17","locality":"Londonderry","region":"New Hampshire","postalCode":"03053","phone":"603-234-9582","website":"http://www.moonlightmeadery.com/","hoursOfOperation":"Mon - Tue: 11:00 am - 5:00 pm\r\nWed - Sat: 11:00 am - 7:00 pm\r\nSun: 11:00 am - 5:00 pm","latitude":42.8794544,"longitude":-71.3427019,"isPrimary":"Y","inPlanning":"N","isClosed":"N","openToPublic":"Y","locationType":"micro","locationTypeDisplay":"Micro Brewery","countryIsoCode":"US","yearOpened":"2010","status":"verified","statusDisplay":"Verified","createDate":"2012-01-03 02:42:02","updateDate":"2014-07-23 19:11:34","country":{"isoCode":"US","name":"UNITED STATES","displayName":"United States","isoThree":"USA","numberCode":840,"createDate":"2012-01-03 02:41:33"}},{"id":"Ztu9xF","name":"Main Brewery","streetAddress":"72 Watt Road","locality":"Mornington","region":"Victoria","postalCode":"3931","phone":"+61 3 5976 3663","website":"http://www.mpbrew.com.au","hoursOfOperation":"Thu - Fri: 3:00 pm - 11:00 pm\r\nSat: 12:00 pm - 5:00 pm\r\nSun: 12:00 pm - 7:00 pm","latitude":-38.232544,"longitude":145.056865,"isPrimary":"Y","inPlanning":"N","isClosed":"N","openToPublic":"Y","locationType":"micro","locationTypeDisplay":"Micro Brewery","countryIsoCode":"AU","yearOpened":"2010","status":"verified","statusDisplay":"Verified","createDate":"2014-03-03 23:35:50","updateDate":"2014-07-23 19:11:34","country":{"isoCode":"AU","name":"AUSTRALIA","displayName":"Australia","isoThree":"AUS","numberCode":36,"createDate":"2012-01-03 02:41:33"}},{"id":"Bd8NZ3","name":"Main Brewery","streetAddress":"311 N. Herritage St.","extendedAddress":"Suite H.","locality":"Kinston","region":"North Carolina","postalCode":"28501","phone":"252-208-2437","website":"http://www.motherearthbrewing.com/","hoursOfOperation":"Mon: 10:00 am - 1:00 pm\r\nTue: 11:00 am - 6:00 pm\r\nWed: 6:00 am - 7:00 am, 11:00 am - 9:00 pm\r\nThu - Fri: 10:00 am - 12:00 am\r\nSat:\t11:00 am - 6:00 pm","latitude":35.262656,"longitude":-77.5825349,"isPrimary":"Y","inPlanning":"N","isClosed":"N","openToPublic":"Y","locationType":"micro","locationTypeDisplay":"Micro Brewery","countryIsoCode":"US","yearOpened":"2010","status":"verified","statusDisplay":"Verified","createDate":"2012-01-03 02:42:02","updateDate":"2014-07-23 19:11:34","country":{"isoCode":"US","name":"UNITED STATES","displayName":"United States","isoThree":"USA","numberCode":840,"createDate":"2012-01-03 02:41:33"}},{"id":"uM2jeT","name":"Main Brewery","streetAddress":"61 Depot Street","locality":"Bryson City","region":"North Carolina","postalCode":"29713","phone":"828-488-2337","website":"http://www.nantahalabrewingcompany.com/","hoursOfOperation":"2011 Summer Tap Room Hours: (Memorial Day – Labor Day)\r\nTuesday – Saturday: Noon  – 10:00pm\r\nSunday: Noon – 8 pm\r\n\r\n2011 Fall Tap Room Hours: (Labor Day thru October)\r\nThursday & Friday: 4 pm – 10 pm\r\nSaturday & Sunday: Noon – 10 pm\r\nMonday: 4 pm – 10 pm\r\n\r\n2011 Winter Tap Room Hours: (November 2011  thru January 2012)\r\nThursday & Friday: 4 pm – 10 pm\r\nSaturday: Noon – 10 pm\r\nSunday: Noon – 6 pm\r\n\r\nCall for 2012 Winter and Spring Hours","latitude":35.431176,"longitude":-83.446072,"isPrimary":"Y","inPlanning":"N","isClosed":"N","openToPublic":"Y","locationType":"micro","locationTypeDisplay":"Micro Brewery","countryIsoCode":"US","yearOpened":"2010","status":"verified","statusDisplay":"Verified","createDate":"2012-01-03 02:42:03","updateDate":"2014-07-23 19:11:34","country":{"isoCode":"US","name":"UNITED STATES","displayName":"United States","isoThree":"USA","numberCode":840,"createDate":"2012-01-03 02:41:33"}},{"id":"GiUuhB","name":"Main Brewery","streetAddress":"410 North 10th Street","locality":"Richmond","region":"Indiana","postalCode":"47374","phone":"765-488-2042","website":"http://newboswell.com/","hoursOfOperation":"Tues-Thurs: 3pm-12am\r\nFri-Sat: 12pm-1am\r\nSun: 12pm-8pm","latitude":39.833764,"longitude":-84.889464,"isPrimary":"Y","inPlanning":"N","isClosed":"N","openToPublic":"Y","locationType":"micro","locationTypeDisplay":"Micro Brewery","countryIsoCode":"US","yearOpened":"2010","status":"verified","statusDisplay":"Verified","createDate":"2012-01-03 02:42:03","updateDate":"2014-07-23 19:11:34","country":{"isoCode":"US","name":"UNITED STATES","displayName":"United States","isoThree":"USA","numberCode":840,"createDate":"2012-01-03 02:41:33"}},{"id":"gXAcWP","name":"Main Brewery","streetAddress":"11405 N Dowling Rd","extendedAddress":"Unit H","locality":"College Station","region":"Texas","postalCode":"77845","phone":"415-273-9378","website":"http://www.newrepublicbrewing.com/","latitude":30.564967,"longitude":-96.3500529,"isPrimary":"Y","inPlanning":"N","isClosed":"N","openToPublic":"Y","locationType":"micro","locationTypeDisplay":"Micro Brewery","countryIsoCode":"US","yearOpened":"2010","status":"verified","statusDisplay":"Verified","createDate":"2012-01-03 02:42:03","updateDate":"2014-08-23 16:38:10","country":{"isoCode":"US","name":"UNITED STATES","displayName":"United States","isoThree":"USA","numberCode":840,"createDate":"2012-01-03 02:41:33"}},{"id":"xJ0knw","name":"Main Brewery","streetAddress":"5373 1st Street","locality":"Katy","region":"Texas","postalCode":"77493","phone":"281-693-7545","website":"http://www.nolabelbrew.com/","hoursOfOperation":"We offer Saturday tastings from 1pm-3pm every Saturday but the first Saturday of the month. You must bring your ID.","latitude":29.786632,"longitude":-95.815891,"isPrimary":"Y","inPlanning":"N","isClosed":"N","openToPublic":"Y","locationType":"micro","locationTypeDisplay":"Micro Brewery","countryIsoCode":"US","yearOpened":"2010","status":"verified","statusDisplay":"Verified","createDate":"2012-01-03 02:42:03","updateDate":"2014-07-23 19:11:34","country":{"isoCode":"US","name":"UNITED STATES","displayName":"United States","isoThree":"USA","numberCode":840,"createDate":"2012-01-03 02:41:33"}},{"id":"521JXm","name":"Main Brewery","streetAddress":"17406 Washington 536","locality":"Mount Vernon","region":"Washington","postalCode":"98273","phone":"360-982-2057","website":"http://www.northsoundbrewing.com/","latitude":48.431747,"longitude":-122.370236,"isPrimary":"Y","inPlanning":"N","isClosed":"N","openToPublic":"Y","locationType":"micro","locationTypeDisplay":"Micro Brewery","countryIsoCode":"US","yearOpened":"2010","status":"verified","statusDisplay":"Verified","createDate":"2012-01-03 02:42:03","updateDate":"2014-07-23 19:11:34","country":{"isoCode":"US","name":"UNITED STATES","displayName":"United States","isoThree":"USA","numberCode":840,"createDate":"2012-01-03 02:41:33"}},{"id":"GDFP48","name":"Main Brewery","streetAddress":"23 Hayward St.","locality":"Ipswich","region":"Massachusetts","postalCode":"01938","phone":"978-853-9138","website":"http://www.notchsession.com/","latitude":42.672726,"longitude":-70.843912,"isPrimary":"Y","inPlanning":"N","isClosed":"N","openToPublic":"Y","locationType":"micro","locationTypeDisplay":"Micro Brewery","countryIsoCode":"US","yearOpened":"2010","status":"verified","statusDisplay":"Verified","createDate":"2012-01-03 02:42:04","updateDate":"2014-07-23 19:11:34","country":{"isoCode":"US","name":"UNITED STATES","displayName":"United States","isoThree":"USA","numberCode":840,"createDate":"2012-01-03 02:41:33"}},{"id":"PG4ybp","name":"Main Brewery","streetAddress":"4912 17th Avenue Northwest","extendedAddress":"Suite B","locality":"Seattle","region":"Washington","postalCode":"98107","phone":"206-853-0525","latitude":47.664834,"longitude":-122.378656,"isPrimary":"Y","inPlanning":"N","isClosed":"N","openToPublic":"Y","locationType":"nano","locationTypeDisplay":"Nano Brewery","countryIsoCode":"US","status":"verified","statusDisplay":"Verified","createDate":"2012-01-03 02:42:04","updateDate":"2014-07-23 19:11:34","country":{"isoCode":"US","name":"UNITED STATES","displayName":"United States","isoThree":"USA","numberCode":840,"createDate":"2012-01-03 02:41:33"}},{"id":"nkvfdC","name":"Main Brewery","streetAddress":"41 Washington","locality":"Grand Haven","region":"Michigan","postalCode":"49417","phone":"616-935-7326","website":"http://www.oddsideales.com/","hoursOfOperation":"Mon - Thu: 2:00 pm - 10:00 pm\r\nFri - Sat: 12:00 pm - 12:00 am\r\nSun: 1:00 pm - 6:00 pm","latitude":43.064996,"longitude":-86.232681,"isPrimary":"Y","inPlanning":"N","isClosed":"N","openToPublic":"Y","locationType":"micro","locationTypeDisplay":"Micro Brewery","countryIsoCode":"US","yearOpened":"2010","status":"verified","statusDisplay":"Verified","createDate":"2012-01-03 02:42:04","updateDate":"2014-07-23 19:11:34","country":{"isoCode":"US","name":"UNITED STATES","displayName":"United States","isoThree":"USA","numberCode":840,"createDate":"2012-01-03 02:41:33"}},{"id":"yw9l9Y","name":"Main Brewery","streetAddress":"200 Review Alley","locality":"Bisbee","region":"Arizona","postalCode":"85603","phone":"(520) 432-2739","website":"http://www.oldbisbeebrewingcompany.com/","hoursOfOperation":"Mon - Thu: 12:00 pm - 10:30 pm\r\nFri - Sat: 12:00 pm - 11:30 pm\r\nSun: 12:00 pm - 10:30 pm","latitude":31.442687,"longitude":-109.91359,"isPrimary":"Y","inPlanning":"N","isClosed":"N","openToPublic":"Y","locationType":"micro","locationTypeDisplay":"Micro Brewery","countryIsoCode":"US","yearOpened":"2010","status":"verified","statusDisplay":"Verified","createDate":"2012-01-03 02:42:04","updateDate":"2014-07-23 19:11:34","country":{"isoCode":"US","name":"UNITED STATES","displayName":"United States","isoThree":"USA","numberCode":840,"createDate":"2012-01-03 02:41:33"}},{"id":"bFsZIz","name":"Main Brewery","streetAddress":"East Side Square","locality":"Huntsville","region":"Alabama","postalCode":"35801","website":"http://www.oldblackbear.com/","latitude":34.730512,"longitude":-86.584673,"isPrimary":"Y","inPlanning":"N","isClosed":"N","openToPublic":"Y","locationType":"micro","locationTypeDisplay":"Micro Brewery","countryIsoCode":"US","yearOpened":"2010","status":"verified","statusDisplay":"Verified","createDate":"2012-01-03 02:42:04","updateDate":"2014-07-23 19:11:34","country":{"isoCode":"US","name":"UNITED STATES","displayName":"United States","isoThree":"USA","numberCode":840,"createDate":"2012-01-03 02:41:33"}},{"id":"nWql01","name":"Main Brewery","streetAddress":"70th klm National Road","extendedAddress":"Athens-Lamia Ritsona","locality":"Euboea / Schimatari","region":"Boeotia","postalCode":"32009","phone":"22620-71012","website":"http://www.olympicbrewery.gr/","isPrimary":"Y","inPlanning":"N","isClosed":"N","openToPublic":"Y","locationType":"micro","locationTypeDisplay":"Micro Brewery","countryIsoCode":"GR","status":"verified","statusDisplay":"Verified","createDate":"2014-03-27 13:17:37","updateDate":"2014-07-23 19:11:34","country":{"isoCode":"GR","name":"GREECE","displayName":"Greece","isoThree":"GRC","numberCode":300,"createDate":"2012-01-03 02:41:33"}},{"id":"3Q48Ed","name":"Main Brewery","streetAddress":"114 W Spring St","locality":"Marquette","region":"Michigan","postalCode":"49855","phone":"906-228-8888","website":"http://www.ore-dock.com/","hoursOfOperation":"Tue - Thu:\t12:00 pm - 11:00 pm\r\nFri - Sat:\t12:00 pm - 12:00 am\r\nSun:\t12:00 pm - 11:00 pm","latitude":46.541656,"longitude":-87.393837,"isPrimary":"Y","inPlanning":"N","isClosed":"N","openToPublic":"Y","locationType":"micro","locationTypeDisplay":"Micro Brewery","countryIsoCode":"US","yearOpened":"2010","status":"verified","statusDisplay":"Verified","createDate":"2012-06-13 17:27:04","updateDate":"2014-07-23 19:11:34","country":{"isoCode":"US","name":"UNITED STATES","displayName":"United States","isoThree":"USA","numberCode":840,"createDate":"2012-01-03 02:41:33"}},{"id":"hj7N75","name":"Main Brewery","locality":"San Francisco","region":"California","phone":"(415) 937-7843","latitude":37.777125,"longitude":-122.419644,"isPrimary":"Y","inPlanning":"N","isClosed":"N","openToPublic":"N","locationType":"micro","locationTypeDisplay":"Micro Brewery","countryIsoCode":"US","yearOpened":"2010","status":"verified","statusDisplay":"Verified","createDate":"2012-09-27 13:28:09","updateDate":"2014-07-23 19:11:34","country":{"isoCode":"US","name":"UNITED STATES","displayName":"United States","isoThree":"USA","numberCode":840,"createDate":"2012-01-03 02:41:33"}},{"id":"zFTkhJ","name":"Pateros Creek Brewing - Main Brewery","streetAddress":"242 N. College Ave.","extendedAddress":"Unit B","locality":"Fort Collins","region":"Colorado","postalCode":"80524","phone":"970-484-7222","website":"http://pateroscreekbrewing.com/","hoursOfOperation":"Mon:  4:00pm - 8:00pm\nTue:  12:00pm - 8:00pm\nWed:  12:00pm - 8:00pm\nThu:  12:00pm - 8:00pm\nFri:  12:00pm - 9:00pm\nSat:  12:00pm - 9:00pm\n\nClosed Sundays.","latitude":40.5900715,"longitude":-105.0764995,"isPrimary":"Y","inPlanning":"N","isClosed":"N","openToPublic":"Y","locationType":"micro","locationTypeDisplay":"Micro Brewery","countryIsoCode":"US","yearOpened":"2011","status":"verified","statusDisplay":"Verified","createDate":"2012-01-03 02:42:05","updateDate":"2014-10-06 19:22:48","country":{"isoCode":"US","name":"UNITED STATES","displayName":"United States","isoThree":"USA","numberCode":840,"createDate":"2012-01-03 02:41:33"}},{"id":"SWMzJ3","name":"Main Brewery","streetAddress":"929 E Michigan Ave.","locality":"Paw Paw","region":"Michigan","postalCode":"49079","phone":"269-415-0145","website":"http://www.pawpawbrewing.com/","latitude":42.2188469,"longitude":-85.8789048,"isPrimary":"Y","inPlanning":"N","isClosed":"N","openToPublic":"Y","locationType":"micro","locationTypeDisplay":"Micro Brewery","countryIsoCode":"US","yearOpened":"2010","status":"verified","statusDisplay":"Verified","createDate":"2012-01-03 02:42:05","updateDate":"2014-07-23 19:11:34","country":{"isoCode":"US","name":"UNITED STATES","displayName":"United States","isoThree":"USA","numberCode":840,"createDate":"2012-01-03 02:41:33"}},{"id":"jID7aa","name":"Main Brewery","streetAddress":"225 E Zaragoza St.","locality":"Pensacola","region":"Florida","postalCode":"32502","phone":"850-434-3353","website":"http://www.pbbrew.com/","hoursOfOperation":"Monday – Thursday: 12:00 PM – 9:00 PM\r\nFriday – Saturday: 12:00 PM – 11:00 PM\r\nSunday: 12:00 PM – 6:00 PM","latitude":30.408741,"longitude":-87.211225,"isPrimary":"Y","inPlanning":"N","isClosed":"N","openToPublic":"Y","locationType":"micro","locationTypeDisplay":"Micro Brewery","countryIsoCode":"US","yearOpened":"2010","status":"verified","statusDisplay":"Verified","createDate":"2012-01-03 02:42:05","updateDate":"2014-07-23 19:11:34","country":{"isoCode":"US","name":"UNITED STATES","displayName":"United States","isoThree":"USA","numberCode":840,"createDate":"2012-01-03 02:41:33"}},{"id":"3OOWRS","name":"Main Brewery","streetAddress":"1630 Dorchester Ave.","locality":"Dorchester","region":"Massachusetts","phone":"781-664-4705","website":"http://www.percivalbeercompany.com/","latitude":42.294767,"longitude":-71.061486,"isPrimary":"Y","inPlanning":"N","isClosed":"N","openToPublic":"N","locationType":"micro","locationTypeDisplay":"Micro Brewery","countryIsoCode":"US","yearOpened":"2010","status":"verified","statusDisplay":"Verified","createDate":"2012-12-10 12:11:14","updateDate":"2014-07-23 19:11:34","country":{"isoCode":"US","name":"UNITED STATES","displayName":"United States","isoThree":"USA","numberCode":840,"createDate":"2012-01-03 02:41:33"}},{"id":"EhUsAz","name":"Main Brewery","locality":"San Francisco","region":"California","postalCode":"94108","phone":"415-744-4062","latitude":37.79179,"longitude":-122.407419,"isPrimary":"Y","inPlanning":"Y","isClosed":"N","openToPublic":"N","locationType":"micro","locationTypeDisplay":"Micro Brewery","countryIsoCode":"US","status":"verified","statusDisplay":"Verified","createDate":"2012-01-03 02:42:05","updateDate":"2014-07-23 19:11:34","country":{"isoCode":"US","name":"UNITED STATES","displayName":"United States","isoThree":"USA","numberCode":840,"createDate":"2012-01-03 02:41:33"}},{"id":"TKwUTr","name":"Main Brewery","streetAddress":"15194 Walnut Grove Drive","locality":"Bucyrus","region":"Missouri","postalCode":"65444","phone":"417-967-6786","website":"http://www.pineyriverbrewing.com/","latitude":37.3208964,"longitude":-92.0165208,"isPrimary":"Y","inPlanning":"N","isClosed":"N","openToPublic":"Y","locationType":"micro","locationTypeDisplay":"Micro Brewery","countryIsoCode":"US","yearOpened":"2010","status":"verified","statusDisplay":"Verified","createDate":"2012-01-03 02:42:05","updateDate":"2014-07-23 19:11:34","country":{"isoCode":"US","name":"UNITED STATES","displayName":"United States","isoThree":"USA","numberCode":840,"createDate":"2012-01-03 02:41:33"}},{"id":"e0v4NA","name":"Main Brewery","streetAddress":"600 North Rolla Street","extendedAddress":"Suite B","locality":"Rolla","region":"Missouri","postalCode":"65401","phone":"573-426-2337","website":"http://www.publichousebrewery.com/","latitude":37.9484144,"longitude":-91.7725297,"isPrimary":"Y","inPlanning":"N","isClosed":"N","openToPublic":"Y","locationType":"brewpub","locationTypeDisplay":"Brewpub","countryIsoCode":"US","status":"verified","statusDisplay":"Verified","createDate":"2012-01-03 02:42:06","updateDate":"2014-07-23 19:11:34","country":{"isoCode":"US","name":"UNITED STATES","displayName":"United States","isoThree":"USA","numberCode":840,"createDate":"2012-01-03 02:41:33"}},{"id":"9QCoxZ","name":"Main Brewery","streetAddress":"105 E South Street","locality":"Aberdeen","region":"North Carolina","postalCode":"28315","phone":"910-783-5280","website":"http://railhousebrewery.com/","hoursOfOperation":"Monday: 4PM to 11PM\r\nTuesday: 4PM to 11PM\r\nWednesday: 4PM to 11PM\r\nThursday: 11AM to 2AM\r\nFriday: 11AM to 2AM\r\nSaturday: 11AM to 2AM\r\nSunday 12PM to 12AM","latitude":35.130498,"longitude":-79.42713,"isPrimary":"Y","inPlanning":"N","isClosed":"N","openToPublic":"Y","locationType":"micro","locationTypeDisplay":"Micro Brewery","countryIsoCode":"US","yearOpened":"2010","status":"verified","statusDisplay":"Verified","createDate":"2012-01-03 02:42:06","updateDate":"2014-07-23 19:11:34","country":{"isoCode":"US","name":"UNITED STATES","displayName":"United States","isoThree":"USA","numberCode":840,"createDate":"2012-01-03 02:41:33"}},{"id":"wroV30","name":"Main Brewery","streetAddress":"3709 Neil Street","locality":"Raleigh","region":"North Carolina","postalCode":"27607","phone":"919-696-4901","website":"http://www.raleighbrewingcompany.com/","hoursOfOperation":"Monday - Friday: 5:00PM - 10:00PM\r\nSaturday: 12:00PM - 10:00PM\r\nSunday: 12:00PM - 6:00PM","latitude":35.793325,"longitude":-78.686943,"isPrimary":"Y","inPlanning":"N","isClosed":"N","openToPublic":"Y","locationType":"micro","locationTypeDisplay":"Micro Brewery","countryIsoCode":"US","yearOpened":"2013","status":"verified","statusDisplay":"Verified","createDate":"2012-09-06 21:03:28","updateDate":"2014-08-04 13:54:56","country":{"isoCode":"US","name":"UNITED STATES","displayName":"United States","isoThree":"USA","numberCode":840,"createDate":"2012-01-03 02:41:33"}},{"id":"rKXfsB","name":"Main Brewery","streetAddress":"4834 Whirlwind Dr.","locality":"San Antonio","region":"Texas","postalCode":"78217","phone":"210-775-2099","website":"http://www.drinkrangercreek.com/","latitude":29.5295495,"longitude":-98.3969518,"isPrimary":"Y","inPlanning":"N","isClosed":"N","openToPublic":"Y","locationType":"micro","locationTypeDisplay":"Micro Brewery","countryIsoCode":"US","yearOpened":"2010","status":"verified","statusDisplay":"Verified","createDate":"2012-01-03 02:42:06","updateDate":"2014-07-23 19:11:34","country":{"isoCode":"US","name":"UNITED STATES","displayName":"United States","isoThree":"USA","numberCode":840,"createDate":"2012-01-03 02:41:33"}},{"id":"2xg3RE","name":"Main Brewery","streetAddress":"Lagerstraße 30a","locality":"Hamburg","postalCode":"20357","latitude":53.561723,"longitude":9.965725,"isPrimary":"Y","inPlanning":"N","isClosed":"N","openToPublic":"Y","locationType":"micro","locationTypeDisplay":"Micro Brewery","countryIsoCode":"DE","status":"verified","statusDisplay":"Verified","createDate":"2012-08-16 14:56:01","updateDate":"2014-07-23 19:11:34","country":{"isoCode":"DE","name":"GERMANY","displayName":"Germany","isoThree":"DEU","numberCode":276,"createDate":"2012-01-03 02:41:33"}},{"id":"tSwBqq","name":"Main Brewery","streetAddress":"1998 Delk Industrial Blvd","locality":"Marietta","region":"Georgia","postalCode":"30067","phone":"770-331-8763","website":"http://www.redharebrewing.com/","hoursOfOperation":"Our taproom is open:\r\nFriday: 5:30 pm - 7:30 pm\r\nSaturday 3:30 pm - 5:30 pm","latitude":33.92434,"longitude":-84.495758,"isPrimary":"Y","inPlanning":"N","isClosed":"N","openToPublic":"Y","locationType":"micro","locationTypeDisplay":"Micro Brewery","countryIsoCode":"US","yearOpened":"2010","status":"verified","statusDisplay":"Verified","createDate":"2012-01-03 02:42:06","updateDate":"2014-07-23 19:11:34","country":{"isoCode":"US","name":"UNITED STATES","displayName":"United States","isoThree":"USA","numberCode":840,"createDate":"2012-01-03 02:41:33"}},{"id":"Lp3Grm","name":"Main Brewery","streetAddress":"Unit 2, Compass West Industrial Estate, West Rd","extendedAddress":"Tottenham","locality":"London","region":"London","postalCode":"N17 0XL","phone":"020 8885 5227","website":"http://www.redemptionbrewing.co.uk/","latitude":51.6062384,"longitude":-0.0577063,"isPrimary":"Y","inPlanning":"N","isClosed":"N","openToPublic":"Y","locationType":"micro","locationTypeDisplay":"Micro Brewery","countryIsoCode":"GB","status":"verified","statusDisplay":"Verified","createDate":"2012-07-30 11:34:33","updateDate":"2014-07-23 19:11:34","country":{"isoCode":"GB","name":"UNITED KINGDOM","displayName":"United Kingdom","isoThree":"GBR","numberCode":826,"createDate":"2012-01-03 02:41:33"}},{"id":"mYV8Ho","name":"Main Brewery","streetAddress":"550 S G St.","extendedAddress":"#6","locality":"Arcata","region":"California","postalCode":"95521","phone":"707-826-7222","website":"http://www.redwoodcurtainbrewing.com/","latitude":40.856933,"longitude":-124.088574,"isPrimary":"Y","inPlanning":"N","isClosed":"N","openToPublic":"Y","locationType":"micro","locationTypeDisplay":"Micro Brewery","countryIsoCode":"US","yearOpened":"2010","status":"verified","statusDisplay":"Verified","createDate":"2012-01-03 02:42:06","updateDate":"2014-07-23 19:11:34","country":{"isoCode":"US","name":"UNITED STATES","displayName":"United States","isoThree":"USA","numberCode":840,"createDate":"2012-01-03 02:41:33"}},{"id":"xjjDoA","name":"Brewpub","streetAddress":"2323 N Milwaukee Ave","locality":"Chicago","region":"Illinois","postalCode":"60647","phone":"773-227-2739","website":"http://revbrew.com/","hoursOfOperation":"Mon-Fri: 11am-2am\r\nSat: 10am-3am\r\nSun: 10am-2am","latitude":41.923363,"longitude":-87.698071,"isPrimary":"N","inPlanning":"N","isClosed":"N","openToPublic":"Y","locationType":"brewpub","locationTypeDisplay":"Brewpub","countryIsoCode":"US","status":"verified","statusDisplay":"Verified","createDate":"2012-01-03 02:42:07","updateDate":"2014-07-23 19:11:34","country":{"isoCode":"US","name":"UNITED STATES","displayName":"United States","isoThree":"USA","numberCode":840,"createDate":"2012-01-03 02:41:33"}},{"id":"6gM8vr","name":"Main Brewery","streetAddress":"3340 N Kedzie Ave","locality":"Chicago","region":"Illinois","postalCode":"60618","phone":"773-588-2267","latitude":41.941773,"longitude":-87.707668,"isPrimary":"Y","inPlanning":"N","isClosed":"N","openToPublic":"Y","locationType":"micro","locationTypeDisplay":"Micro Brewery","countryIsoCode":"US","status":"verified","statusDisplay":"Verified","createDate":"2012-08-10 17:02:16","updateDate":"2014-07-23 19:11:34","country":{"isoCode":"US","name":"UNITED STATES","displayName":"United States","isoThree":"USA","numberCode":840,"createDate":"2012-01-03 02:41:33"}},{"id":"thj8lm","name":"Main Brewery","streetAddress":"28777 Ave 15-1/2","locality":"Madera","region":"California","postalCode":"93638","phone":"559-673-8021","website":"http://www.rileysbrewing.us/","hoursOfOperation":"The Brewery is open from Monday to Thursday 7am to 5pm.","latitude":36.974398,"longitude":-120.023321,"isPrimary":"Y","inPlanning":"N","isClosed":"N","openToPublic":"Y","locationType":"micro","locationTypeDisplay":"Micro Brewery","countryIsoCode":"US","yearOpened":"2010","status":"verified","statusDisplay":"Verified","createDate":"2012-01-03 02:42:10","updateDate":"2014-07-23 19:11:34","country":{"isoCode":"US","name":"UNITED STATES","displayName":"United States","isoThree":"USA","numberCode":840,"createDate":"2012-01-03 02:41:33"}},{"id":"EVZM5h","name":"Main Brewery","streetAddress":"103 Fox Street","locality":"Portland","region":"Maine","postalCode":"04101","phone":"(207) 370-2337","website":"http://www.risingtidebrewing.com","hoursOfOperation":"Tue: 4:00 pm - 7:00 pm\r\nThu: 4:00 pm - 7:00 pm\r\nFri - Sat: 12:00 pm - 5:00 pm","latitude":43.665445,"longitude":-70.256734,"isPrimary":"Y","inPlanning":"N","isClosed":"N","openToPublic":"Y","locationType":"micro","locationTypeDisplay":"Micro Brewery","countryIsoCode":"US","yearOpened":"2010","status":"verified","statusDisplay":"Verified","createDate":"2012-01-03 02:42:07","updateDate":"2014-07-23 19:11:34","country":{"isoCode":"US","name":"UNITED STATES","displayName":"United States","isoThree":"USA","numberCode":840,"createDate":"2012-01-03 02:41:33"}},{"id":"pVT9RH","name":"Main Brewery","streetAddress":"5705 Lithopolis Rd NW","locality":"Lancaster","region":"Ohio","postalCode":"43130","phone":"740-654-0112","website":"http://rockmillbrewery.com/","latitude":39.747373,"longitude":-82.709539,"isPrimary":"Y","inPlanning":"N","isClosed":"N","openToPublic":"Y","locationType":"micro","locationTypeDisplay":"Micro Brewery","countryIsoCode":"US","yearOpened":"2010","status":"verified","statusDisplay":"Verified","createDate":"2012-01-03 02:42:07","updateDate":"2014-07-23 19:11:34","country":{"isoCode":"US","name":"UNITED STATES","displayName":"United States","isoThree":"USA","numberCode":840,"createDate":"2012-01-03 02:41:33"}},{"id":"TWODoR","name":"Main Brewery","locality":"Rochester","region":"New York","phone":"(585) 709-6480","website":"http://www.rogersbeer.com/","latitude":43.16103,"longitude":-77.6109219,"isPrimary":"Y","inPlanning":"N","isClosed":"N","openToPublic":"N","locationType":"production","locationTypeDisplay":"Production Facility","countryIsoCode":"US","status":"verified","statusDisplay":"Verified","createDate":"2013-01-25 11:45:15","updateDate":"2014-07-23 19:11:34","country":{"isoCode":"US","name":"UNITED STATES","displayName":"United States","isoThree":"USA","numberCode":840,"createDate":"2012-01-03 02:41:33"}},{"id":"ZYCWKY","name":"Main Brewery","streetAddress":"5907 Triangle Drive","locality":"Raleigh","region":"North Carolina","postalCode":"27617","phone":"919-782-2099","website":"http://www.rothbrewing.com/","hoursOfOperation":"4pm - 10pm Tuesday through Saturday, 1pm - 5pm Sunday","latitude":35.895661,"longitude":-78.745316,"isPrimary":"Y","inPlanning":"N","isClosed":"Y","openToPublic":"Y","locationType":"micro","locationTypeDisplay":"Micro Brewery","countryIsoCode":"US","yearOpened":"2010","yearClosed":"2013","status":"verified","statusDisplay":"Verified","createDate":"2012-01-03 02:42:07","updateDate":"2014-07-23 19:11:34","country":{"isoCode":"US","name":"UNITED STATES","displayName":"United States","isoThree":"USA","numberCode":840,"createDate":"2012-01-03 02:41:33"}},{"id":"LjKPCU","name":"Main Brewery","locality":"Philadelphia","region":"Pennsylvania","postalCode":"19125","website":"http://blog.stbenjaminbrewing.com/","latitude":39.97742,"longitude":-75.1258,"isPrimary":"Y","inPlanning":"N","isClosed":"N","openToPublic":"Y","locationType":"micro","locationTypeDisplay":"Micro Brewery","countryIsoCode":"US","yearOpened":"2010","status":"verified","statusDisplay":"Verified","createDate":"2012-01-03 02:42:07","updateDate":"2014-07-23 19:11:34","country":{"isoCode":"US","name":"UNITED STATES","displayName":"United States","isoThree":"USA","numberCode":840,"createDate":"2012-01-03 02:41:33"}},{"id":"moxgzv","name":"Main Brewery","streetAddress":"708 East Depot Ave.","locality":"Knoxville","region":"Tennessee","postalCode":"37917","phone":"865-247-5952","website":"http://marblecitybeer.com/","hoursOfOperation":"Wednesday-Friday 4-8pm and Saturday 2-8pm","latitude":35.974813,"longitude":-83.914547,"isPrimary":"Y","inPlanning":"N","isClosed":"N","openToPublic":"Y","locationType":"micro","locationTypeDisplay":"Micro Brewery","countryIsoCode":"US","yearOpened":"2011","status":"verified","statusDisplay":"Verified","createDate":"2012-01-03 02:42:01","updateDate":"2014-07-23 19:11:34","country":{"isoCode":"US","name":"UNITED STATES","displayName":"United States","isoThree":"USA","numberCode":840,"createDate":"2012-01-03 02:41:33"}},{"id":"tQmnIx","name":"Schouskjelleren Mikrobryggeri","streetAddress":"Trondheimsveien 2","locality":"Oslo","region":"Oslo","postalCode":"0560","phone":"+4721383930","website":"http://schouskjelleren.no","latitude":59.91857,"longitude":10.7608938,"isPrimary":"Y","inPlanning":"N","isClosed":"N","openToPublic":"Y","locationType":"micro","locationTypeDisplay":"Micro Brewery","countryIsoCode":"NO","yearOpened":"2010","status":"verified","statusDisplay":"Verified","createDate":"2014-05-12 21:26:41","updateDate":"2014-07-23 19:11:34","country":{"isoCode":"NO","name":"NORWAY","displayName":"Norway","isoThree":"NOR","numberCode":578,"createDate":"2012-01-03 02:41:33"}},{"id":"djyiuL","name":"Main Brewery","locality":"Florence","region":"South Carolina","postalCode":"29501","website":"http://www.seminarbrewing.com/","latitude":34.1954331,"longitude":-79.7625625,"isPrimary":"Y","inPlanning":"Y","isClosed":"N","openToPublic":"Y","locationType":"micro","locationTypeDisplay":"Micro Brewery","countryIsoCode":"US","status":"verified","statusDisplay":"Verified","createDate":"2013-11-18 13:00:09","updateDate":"2014-07-23 19:11:34","country":{"isoCode":"US","name":"UNITED STATES","displayName":"United States","isoThree":"USA","numberCode":840,"createDate":"2012-01-03 02:41:33"}},{"id":"xbqxaz","name":"Main Brewery","streetAddress":"241 South Broadway","extendedAddress":"Suite 101","locality":"Orcutt","region":"California","postalCode":"93455","phone":"805-934-3777","website":"http://rooneysirishpub.net/","latitude":34.863705,"longitude":-120.448319,"isPrimary":"Y","inPlanning":"N","isClosed":"N","openToPublic":"Y","locationType":"micro","locationTypeDisplay":"Micro Brewery","countryIsoCode":"US","status":"verified","statusDisplay":"Verified","createDate":"2013-02-23 13:58:01","updateDate":"2014-07-23 19:11:34","country":{"isoCode":"US","name":"UNITED STATES","displayName":"United States","isoThree":"USA","numberCode":840,"createDate":"2012-01-03 02:41:33"}},{"id":"h5HYz6","name":"Main Brewery","streetAddress":"18801 Front Street","locality":"Poulsbo","region":"Washington","postalCode":"98370","phone":"360-440-9253","latitude":47.7346178,"longitude":-122.6462842,"isPrimary":"Y","inPlanning":"N","isClosed":"N","openToPublic":"Y","locationType":"brewpub","locationTypeDisplay":"Brewpub","countryIsoCode":"US","yearOpened":"2010","status":"verified","statusDisplay":"Verified","createDate":"2012-01-03 02:42:08","updateDate":"2014-10-28 12:54:29","country":{"isoCode":"US","name":"UNITED STATES","displayName":"United States","isoThree":"USA","numberCode":840,"createDate":"2012-01-03 02:41:33"}},{"id":"jDg4xl","name":"Main Brewery","locality":"Tarzana","region":"California","phone":"818-261-4855","website":"http://www.socalbeercompany.com/","latitude":34.175291,"longitude":-118.550103,"isPrimary":"Y","inPlanning":"N","isClosed":"N","openToPublic":"Y","locationType":"micro","locationTypeDisplay":"Micro Brewery","countryIsoCode":"US","yearOpened":"2010","status":"verified","statusDisplay":"Verified","createDate":"2012-01-03 02:42:08","updateDate":"2014-07-23 19:11:34","country":{"isoCode":"US","name":"UNITED STATES","displayName":"United States","isoThree":"USA","numberCode":840,"createDate":"2012-01-03 02:41:33"}},{"id":"24ZVdb","name":"Sound Brewing","streetAddress":"650 NW Bovela Ln, Ste #3","locality":"Poulsbo","region":"WA","postalCode":"98370","phone":"(360) 930-8696","hoursOfOperation":"Tasting Room Hours:\r\n   Mon-Tues: 2:00-6:00pm\r\n   Wed-Fri: 2:00-9:00pm\r\n   Sat: Noon-9:00pm\r\n   Sun: Noon-7:00pm","latitude":47.739855,"longitude":-122.657414,"isPrimary":"Y","inPlanning":"N","isClosed":"N","openToPublic":"Y","locationType":"micro","locationTypeDisplay":"Micro Brewery","countryIsoCode":"US","status":"verified","statusDisplay":"Verified","createDate":"2012-12-21 18:08:50","updateDate":"2014-07-23 19:11:34","country":{"isoCode":"US","name":"UNITED STATES","displayName":"United States","isoThree":"USA","numberCode":840,"createDate":"2012-01-03 02:41:33"}},{"id":"nwNOxm","name":"Main Brewery","streetAddress":"1815 W. Berteau Ave","extendedAddress":"Unit #15","locality":"Chicago","region":"Illinois","postalCode":"60613","latitude":41.957864,"longitude":-87.67481,"isPrimary":"Y","inPlanning":"N","isClosed":"N","openToPublic":"Y","locationType":"nano","locationTypeDisplay":"Nano Brewery","countryIsoCode":"US","yearOpened":"2010","status":"verified","statusDisplay":"Verified","createDate":"2012-11-16 17:33:55","updateDate":"2014-07-23 19:11:34","country":{"isoCode":"US","name":"UNITED STATES","displayName":"United States","isoThree":"USA","numberCode":840,"createDate":"2012-01-03 02:41:33"}},{"id":"ga23M3","name":"Main Brewery","streetAddress":"118 Perch Pond Rd","locality":"Holderness","region":"New Hampshire","postalCode":"03245","phone":"603-236-9705","website":"http://www.squambrewing.com/","latitude":43.751533,"longitude":-71.610883,"isPrimary":"Y","inPlanning":"N","isClosed":"N","openToPublic":"Y","locationType":"micro","locationTypeDisplay":"Micro Brewery","countryIsoCode":"US","yearOpened":"2010","status":"verified","statusDisplay":"Verified","createDate":"2012-01-03 02:42:09","updateDate":"2014-07-23 19:11:34","country":{"isoCode":"US","name":"UNITED STATES","displayName":"United States","isoThree":"USA","numberCode":840,"createDate":"2012-01-03 02:41:33"}},{"id":"AXcWvQ","name":"Main Brewery","streetAddress":"971 S. Pioneer Rd.","locality":"Beulah","region":"Michigan","postalCode":"49617","phone":"(231) 882-4456","website":"http://www.stambrose-mead-wine.com","latitude":44.6169574,"longitude":-85.9978435,"isPrimary":"Y","inPlanning":"N","isClosed":"N","openToPublic":"Y","locationType":"micro","locationTypeDisplay":"Micro Brewery","countryIsoCode":"US","status":"verified","statusDisplay":"Verified","createDate":"2013-07-08 10:42:53","updateDate":"2014-07-23 19:11:34","country":{"isoCode":"US","name":"UNITED STATES","displayName":"United States","isoThree":"USA","numberCode":840,"createDate":"2012-01-03 02:41:33"}},{"id":"Tc75Tj","name":"Main Brewery","region":"Kyburg","postalCode":"8314","website":"http://stormandanchor.ch/","latitude":47.4548922,"longitude":8.7442884,"isPrimary":"Y","inPlanning":"N","isClosed":"N","openToPublic":"Y","locationType":"micro","locationTypeDisplay":"Micro Brewery","countryIsoCode":"CH","yearOpened":"2010","status":"verified","statusDisplay":"Verified","createDate":"2014-04-29 11:08:55","updateDate":"2014-07-23 19:11:34","country":{"isoCode":"CH","name":"SWITZERLAND","displayName":"Switzerland","isoThree":"CHE","numberCode":756,"createDate":"2012-01-03 02:41:33"}},{"id":"3l3jZZ","name":"Main Brewery","streetAddress":"1330 Zuni St","extendedAddress":"Unit M","locality":"Denver","region":"Colorado","postalCode":"80204","phone":"720-985-2337","website":"http://www.strangebrewingco.com/","hoursOfOperation":"Mon - Thu: 3:00 pm - 8:00 pm\r\nFri - Sat: 12:00 pm - 9:00 pm\r\nSun:  1:00 pm - 6:00 pm","latitude":39.7372042,"longitude":-105.0151869,"isPrimary":"Y","inPlanning":"N","isClosed":"N","openToPublic":"Y","locationType":"micro","locationTypeDisplay":"Micro Brewery","countryIsoCode":"US","yearOpened":"2010","status":"verified","statusDisplay":"Verified","createDate":"2012-01-03 02:42:09","updateDate":"2014-07-23 19:11:34","country":{"isoCode":"US","name":"UNITED STATES","displayName":"United States","isoThree":"USA","numberCode":840,"createDate":"2012-01-03 02:41:33"}},{"id":"i3dBhJ","name":"Main Brewery","streetAddress":"17745 N. Dixie Highway","locality":"Bowling Green","region":"Ohio","postalCode":"43402","phone":"(419) 373-6553","website":"http://www.sugarridgebrewery.net/","latitude":41.4114774,"longitude":-83.6508013,"isPrimary":"Y","inPlanning":"N","isClosed":"N","openToPublic":"Y","locationType":"micro","locationTypeDisplay":"Micro Brewery","countryIsoCode":"US","status":"verified","statusDisplay":"Verified","createDate":"2014-07-10 12:24:08","updateDate":"2014-07-23 19:11:34","country":{"isoCode":"US","name":"UNITED STATES","displayName":"United States","isoThree":"USA","numberCode":840,"createDate":"2012-01-03 02:41:33"}},{"id":"wAdTKf","name":"Main Brewery","streetAddress":"635 South Main Street","locality":"Pittston","region":"Pennsylvania","postalCode":"18640","phone":"(888) 725-4902","website":"http://www.sbcbeer.com/","hoursOfOperation":"Free Daily Tour Monday- Friday 3PM and 5PM, Saturday 2PM","latitude":41.304062,"longitude":-75.804389,"isPrimary":"Y","inPlanning":"N","isClosed":"N","openToPublic":"Y","locationType":"micro","locationTypeDisplay":"Micro Brewery","countryIsoCode":"US","yearOpened":"2010","status":"verified","statusDisplay":"Verified","createDate":"2012-10-29 15:49:11","updateDate":"2014-07-23 19:11:34","country":{"isoCode":"US","name":"UNITED STATES","displayName":"United States","isoThree":"USA","numberCode":840,"createDate":"2012-01-03 02:41:33"}},{"id":"s4a8QA","name":"Main Brewery","streetAddress":"675 Clarion Court","locality":"San Luis Obispo","region":"California","postalCode":"93401","phone":"(805) 545-7702","website":"http://www.tapitbrewing.com/","hoursOfOperation":"Mon - Wed: 12:00 pm - 6:00 pm\r\nThu - Fri: 12:00 pm - 8:00 pm\r\nSat - Sun: 12:00 pm - 6:00 pm","latitude":35.244096,"longitude":-120.645957,"isPrimary":"Y","inPlanning":"N","isClosed":"N","openToPublic":"Y","locationType":"micro","locationTypeDisplay":"Micro Brewery","countryIsoCode":"US","yearOpened":"2010","status":"verified","statusDisplay":"Verified","createDate":"2012-01-03 02:42:09","updateDate":"2014-07-23 19:11:34","country":{"isoCode":"US","name":"UNITED STATES","displayName":"United States","isoThree":"USA","numberCode":840,"createDate":"2012-01-03 02:41:33"}},{"id":"SRM9vW","name":"Main Brewery","streetAddress":"Winchester Row,","locality":"Kelso","region":"Scottish Borders","postalCode":"TD5 7DT","website":"http://www.tempestbrewco.com/","latitude":55.6013752,"longitude":-2.4370863,"isPrimary":"Y","inPlanning":"N","isClosed":"N","openToPublic":"Y","locationType":"micro","locationTypeDisplay":"Micro Brewery","countryIsoCode":"GB","status":"verified","statusDisplay":"Verified","createDate":"2013-08-05 20:20:40","updateDate":"2014-07-23 19:11:34","country":{"isoCode":"GB","name":"UNITED KINGDOM","displayName":"United Kingdom","isoThree":"GBR","numberCode":826,"createDate":"2012-01-03 02:41:33"}},{"id":"BEnYdl","name":"Main Brewery","streetAddress":"1125 FM-359","locality":"Richmond","region":"Texas","postalCode":"77406","phone":"(281) 762-2604","website":"http://texianbrewing.com/","latitude":29.613979,"longitude":-95.7433387,"isPrimary":"Y","inPlanning":"N","isClosed":"N","openToPublic":"Y","locationType":"micro","locationTypeDisplay":"Micro Brewery","countryIsoCode":"US","status":"verified","statusDisplay":"Verified","createDate":"2013-04-28 18:44:09","updateDate":"2014-07-23 19:11:34","country":{"isoCode":"US","name":"UNITED STATES","displayName":"United States","isoThree":"USA","numberCode":840,"createDate":"2012-01-03 02:41:33"}},{"id":"8S5RmP","name":"Main Brewery","streetAddress":"1 Skinners Shoot Road","locality":"Byron Bay","region":"New South Wales","postalCode":"2481","phone":"+61 2 6685 5833","website":"http://www.byronbaybrewery.com.au","hoursOfOperation":"Mon - Tue: 12:00 pm - 11:00 pm\r\nWed - Sat: 12:00 pm - 12:00 am\r\nSun: 12:00 pm - 10:00 pm","latitude":-28.644688,"longitude":153.605042,"isPrimary":"Y","inPlanning":"N","isClosed":"N","openToPublic":"Y","locationType":"micro","locationTypeDisplay":"Micro Brewery","countryIsoCode":"AU","yearOpened":"2010","status":"verified","statusDisplay":"Verified","createDate":"2014-02-08 16:00:59","updateDate":"2014-07-23 19:11:34","country":{"isoCode":"AU","name":"AUSTRALIA","displayName":"Australia","isoThree":"AUS","numberCode":36,"createDate":"2012-01-03 02:41:33"}},{"id":"ExTe8O","name":"Main Brewery","streetAddress":"650 Victoria Street","locality":"Kamloops","region":"British Columbia","postalCode":"V2C 2B4","phone":"778-471-5999","website":"http://www.thenoblepig.ca/","hoursOfOperation":"Mon - Thu:\t11:30 am - 11:00 pm\r\nFri - Sat: 11:30 am - 12:00 am\r\nSun: 3:00 pm 10:00 pm","latitude":50.675888,"longitude":-120.325666,"isPrimary":"Y","inPlanning":"N","isClosed":"N","openToPublic":"Y","locationType":"brewpub","locationTypeDisplay":"Brewpub","countryIsoCode":"CA","yearOpened":"2010","status":"verified","statusDisplay":"Verified","createDate":"2012-09-03 07:41:17","updateDate":"2014-07-23 19:11:34","country":{"isoCode":"CA","name":"CANADA","displayName":"Canada","isoThree":"CAN","numberCode":124,"createDate":"2012-01-03 02:41:33"}},{"id":"aG5aKe","name":"Main Brewery","streetAddress":"128 E Philadelphia Ave","locality":"Boyertown","region":"Pennsylvania","postalCode":"19512","phone":"(610) 367-1788","website":"http://www.theotherfarmbrewingcompany.com/","hoursOfOperation":"Mon:  7:00am - 1:30pm\nTue:  7:00am - 1:30pm\nWed:  7:00am - 11:00pm\nThu:  7:00am - 11:00pm\nFri:  7:00am - 12:00am\nSat:  8:00am - 12:00am\nSun:  8:00am - 5:00pm\n\n","latitude":40.3322119,"longitude":-75.6355357,"isPrimary":"Y","inPlanning":"N","isClosed":"N","openToPublic":"Y","locationType":"micro","locationTypeDisplay":"Micro Brewery","countryIsoCode":"US","status":"verified","statusDisplay":"Verified","createDate":"2014-09-23 18:10:11","updateDate":"2014-09-23 18:10:11","country":{"isoCode":"US","name":"UNITED STATES","displayName":"United States","isoThree":"USA","numberCode":840,"createDate":"2012-01-03 02:41:33"}},{"id":"2kYiJT","name":"Main Brewery","streetAddress":"3002 E Washington St","locality":"Phoenix","region":"Arizona","postalCode":"85034","phone":"(602) 275-5049","website":"http://www.phoenixbrew.com/","hoursOfOperation":"Mon - Sat: 12:00 pm - 7:00 pm","latitude":33.448675,"longitude":-112.016904,"isPrimary":"Y","inPlanning":"N","isClosed":"N","openToPublic":"Y","locationType":"micro","locationTypeDisplay":"Micro Brewery","countryIsoCode":"US","yearOpened":"2010","status":"verified","statusDisplay":"Verified","createDate":"2012-01-03 02:42:10","updateDate":"2014-07-23 19:11:34","country":{"isoCode":"US","name":"UNITED STATES","displayName":"United States","isoThree":"USA","numberCode":840,"createDate":"2012-01-03 02:41:33"}},{"id":"f4HWSu","name":"Main Brewery","streetAddress":"678 Town House Rd","locality":"Effingham","region":"New Hampshire","postalCode":"03882","phone":"603-539-2210","website":"http://www.theprodigalbrewery.com/","latitude":43.7424166,"longitude":-71.0677108,"isPrimary":"Y","inPlanning":"N","isClosed":"N","openToPublic":"N","locationType":"micro","locationTypeDisplay":"Micro Brewery","countryIsoCode":"US","yearOpened":"2010","status":"verified","statusDisplay":"Verified","createDate":"2012-01-03 02:42:10","updateDate":"2014-07-23 19:11:34","country":{"isoCode":"US","name":"UNITED STATES","displayName":"United States","isoThree":"USA","numberCode":840,"createDate":"2012-01-03 02:41:33"}},{"id":"h3bxBv","name":"Main Brewery","streetAddress":"230 SE Court Ave","locality":"Pendleton","region":"Oregon","postalCode":"97801","phone":"541-276-6090","website":"http://prodigalsonbrewery.com/","hoursOfOperation":"Tue - Thu: 11:00 am - 10:00 pm\r\nFri - Sat: 11:00 am - 11:00 pm\r\nSun: 12:00 pm - 9:00 pm","latitude":45.673343,"longitude":-118.785254,"isPrimary":"Y","inPlanning":"N","isClosed":"N","openToPublic":"Y","locationType":"micro","locationTypeDisplay":"Micro Brewery","countryIsoCode":"US","yearOpened":"2010","status":"verified","statusDisplay":"Verified","createDate":"2012-05-22 12:55:36","updateDate":"2014-07-23 19:11:34","country":{"isoCode":"US","name":"UNITED STATES","displayName":"United States","isoThree":"USA","numberCode":840,"createDate":"2012-01-03 02:41:33"}},{"id":"bc3zgO","name":"Main Brewery","streetAddress":"37 Ridge Trail Rd.","locality":"Westfield","region":"Massachusetts","postalCode":"01085","phone":"413-306-8233","latitude":42.158914,"longitude":-72.690236,"isPrimary":"Y","inPlanning":"N","isClosed":"N","openToPublic":"Y","locationType":"micro","locationTypeDisplay":"Micro Brewery","countryIsoCode":"US","yearOpened":"2010","status":"verified","statusDisplay":"Verified","createDate":"2012-01-03 02:42:10","updateDate":"2014-07-23 19:11:34","country":{"isoCode":"US","name":"UNITED STATES","displayName":"United States","isoThree":"USA","numberCode":840,"createDate":"2012-01-03 02:41:33"}},{"id":"PwmDZS","name":"Main Brewery","streetAddress":"53 East Industrial Road","locality":"Branford","region":"Connecticut","postalCode":"06405","phone":"(203) 433-1890","website":"http://www.thimbleislandbrewery.com/","hoursOfOperation":"Tue:\t11:00 am - 9:00 pm\r\nThu:\t11:00 am - 3:00 pm\r\n7:00 pm - 9:00 pm\r\nSat:\t10:00 am - 7:00 pm","latitude":41.298416,"longitude":-72.750846,"isPrimary":"Y","inPlanning":"N","isClosed":"N","openToPublic":"Y","locationType":"micro","locationTypeDisplay":"Micro Brewery","countryIsoCode":"US","yearOpened":"2010","status":"verified","statusDisplay":"Verified","createDate":"2012-10-22 11:45:23","updateDate":"2014-07-23 19:11:34","country":{"isoCode":"US","name":"UNITED STATES","displayName":"United States","isoThree":"USA","numberCode":840,"createDate":"2012-01-03 02:41:33"}},{"id":"vq7ekR","name":"Main Brewery","streetAddress":"11160 Circle Drive","locality":"Austin","region":"Texas","postalCode":"78736","phone":"(512) 579-0679","website":"http://www.thirstyplanet.net/","hoursOfOperation":"Sat:\t11:00 am\t-\t2:00 pm\r\n\r\nThe tasting room is open from 11-3 every saturday by reservation ONLY.","latitude":30.225811,"longitude":-97.9522058,"isPrimary":"Y","inPlanning":"N","isClosed":"N","openToPublic":"Y","locationType":"micro","locationTypeDisplay":"Micro Brewery","countryIsoCode":"US","yearOpened":"2010","status":"verified","statusDisplay":"Verified","createDate":"2012-01-03 02:42:10","updateDate":"2014-07-23 19:11:34","country":{"isoCode":"US","name":"UNITED STATES","displayName":"United States","isoThree":"USA","numberCode":840,"createDate":"2012-01-03 02:41:33"}},{"id":"dkSVf3","name":"Main Brewery","streetAddress":"Vestermarie Alle 32","locality":"Kastrup/Copenhagen","region":"Denmark","postalCode":"2770","website":"http://threeamigos.dk/","latitude":55.633578,"longitude":12.615729,"isPrimary":"Y","inPlanning":"N","isClosed":"N","openToPublic":"Y","locationType":"micro","locationTypeDisplay":"Micro Brewery","countryIsoCode":"DK","yearOpened":"2010","status":"verified","statusDisplay":"Verified","createDate":"2012-01-03 02:42:10","updateDate":"2014-07-23 19:11:34","country":{"isoCode":"DK","name":"DENMARK","displayName":"Denmark","isoThree":"DNK","numberCode":208,"createDate":"2012-01-03 02:41:33"}},{"id":"jL4YQE","name":"Main Brewery","streetAddress":"Chelmsford Rd","locality":"Rochester","region":"New York","postalCode":"14618","phone":"585-797-5445","latitude":43.130646,"longitude":-77.554715,"isPrimary":"Y","inPlanning":"N","isClosed":"N","openToPublic":"Y","locationType":"micro","locationTypeDisplay":"Micro Brewery","countryIsoCode":"US","status":"verified","statusDisplay":"Verified","createDate":"2012-01-03 02:42:10","updateDate":"2014-07-23 19:11:34","country":{"isoCode":"US","name":"UNITED STATES","displayName":"United States","isoThree":"USA","numberCode":840,"createDate":"2012-01-03 02:41:33"}},{"id":"Wq1S61","name":"Main Brewery","streetAddress":"161 N Archer Ave","locality":"Mundelein","region":"Illinois","postalCode":"60060","phone":"847-970-9174","website":"http://www.tightheadbrewing.com/","hoursOfOperation":"Wed - Fri: 4:00 - 10:00\r\nSaturday: 12:00 - 10:00\r\nSunday: 12:00 - 6:00","latitude":42.2661043,"longitude":-88.001274,"isPrimary":"Y","inPlanning":"N","isClosed":"N","openToPublic":"Y","locationType":"micro","locationTypeDisplay":"Micro Brewery","countryIsoCode":"US","yearOpened":"2010","status":"verified","statusDisplay":"Verified","createDate":"2012-01-03 02:42:10","updateDate":"2014-07-23 19:11:34","country":{"isoCode":"US","name":"UNITED STATES","displayName":"United States","isoThree":"USA","numberCode":840,"createDate":"2012-01-03 02:41:33"}},{"id":"NnBsYK","name":"Main Brewery","streetAddress":"1624 Wyoming St","locality":"Baton Rouge","region":"Louisiana","postalCode":"70802","phone":"601-597-1732","website":"http://www.tinroofbeer.com/","latitude":30.4324633,"longitude":-91.1886275,"isPrimary":"Y","inPlanning":"N","isClosed":"N","openToPublic":"Y","locationType":"micro","locationTypeDisplay":"Micro Brewery","countryIsoCode":"US","yearOpened":"2010","status":"verified","statusDisplay":"Verified","createDate":"2012-01-03 02:42:10","updateDate":"2014-07-23 19:11:34","country":{"isoCode":"US","name":"UNITED STATES","displayName":"United States","isoThree":"USA","numberCode":840,"createDate":"2012-01-03 02:41:33"}},{"id":"i1FXcN","name":"Main Brewery","streetAddress":"5603 Main St","locality":"Flowery Branch","region":"Georgia","postalCode":"30542","phone":"770-967-8801","website":"http://www.toastedtapped.com/","hoursOfOperation":"Monday - Closed\r\nTuesday - Wednesday 11:00am - 10:00pm\r\nThursday 11:00am - 10:00pm (Team Trivia at 8pm)\r\nFriday - Saturday 11:00am - Midnight\r\nSunday - Starting March 6th - 1pm to 9pm","latitude":34.1854607,"longitude":-83.926168,"isPrimary":"Y","inPlanning":"N","isClosed":"Y","openToPublic":"Y","locationType":"brewpub","locationTypeDisplay":"Brewpub","countryIsoCode":"US","yearOpened":"2010","status":"verified","statusDisplay":"Verified","createDate":"2012-01-03 02:42:10","updateDate":"2014-07-23 19:11:34","country":{"isoCode":"US","name":"UNITED STATES","displayName":"United States","isoThree":"USA","numberCode":840,"createDate":"2012-01-03 02:41:33"}},{"id":"9qRVD5","name":"Main Brewery","streetAddress":"5824 Ash Avenue","locality":"Powell River","region":"British Columbia","postalCode":"V8A 4R4","phone":"1 604-483-2111","hoursOfOperation":"Mon - Sun: 11:00 am - 7:00 pm","latitude":49.8742997,"longitude":-124.5512114,"isPrimary":"Y","inPlanning":"N","isClosed":"N","openToPublic":"Y","locationType":"micro","locationTypeDisplay":"Micro Brewery","countryIsoCode":"CA","yearOpened":"2010","status":"verified","statusDisplay":"Verified","createDate":"2013-08-12 23:24:18","updateDate":"2014-07-23 19:11:34","country":{"isoCode":"CA","name":"CANADA","displayName":"Canada","isoThree":"CAN","numberCode":124,"createDate":"2012-01-03 02:41:33"}},{"id":"S3yuVe","name":"Main Brewery","streetAddress":"700 Trapp Hill Rd","locality":"Stowe","region":"Vermont","postalCode":"05672","phone":"802-253-5709","website":"http://www.trappfamily.com/","latitude":44.465572,"longitude":-72.7446439,"isPrimary":"Y","inPlanning":"N","isClosed":"N","openToPublic":"Y","locationType":"brewpub","locationTypeDisplay":"Brewpub","countryIsoCode":"US","status":"verified","statusDisplay":"Verified","createDate":"2012-01-03 02:42:10","updateDate":"2014-07-23 19:11:34","country":{"isoCode":"US","name":"UNITED STATES","displayName":"United States","isoThree":"USA","numberCode":840,"createDate":"2012-01-03 02:41:33"}},{"id":"L9Xqwc","name":"Main Brewery","streetAddress":"2245 3rd St","locality":"San Francisco","region":"California","postalCode":"94107","phone":"415-598-8811","website":"http://www.triplevoodoobrewing.com/","latitude":37.7611898,"longitude":-122.3885367,"isPrimary":"Y","inPlanning":"N","isClosed":"N","openToPublic":"Y","locationType":"micro","locationTypeDisplay":"Micro Brewery","countryIsoCode":"US","status":"verified","statusDisplay":"Verified","createDate":"2012-01-03 02:42:11","updateDate":"2014-07-23 19:11:34","country":{"isoCode":"US","name":"UNITED STATES","displayName":"United States","isoThree":"USA","numberCode":840,"createDate":"2012-01-03 02:41:33"}},{"id":"vx2LSC","name":"Main Brewery","streetAddress":"Old Mill","locality":"Kill","region":"Kildare","website":"http://www.troublebrewing.ie","latitude":53.2164749,"longitude":-6.6588567,"isPrimary":"Y","inPlanning":"N","isClosed":"N","openToPublic":"Y","locationType":"micro","locationTypeDisplay":"Micro Brewery","countryIsoCode":"IE","status":"verified","statusDisplay":"Verified","createDate":"2014-02-10 11:27:30","updateDate":"2014-07-23 19:11:34","country":{"isoCode":"IE","name":"IRELAND","displayName":"Ireland","isoThree":"IRL","numberCode":372,"createDate":"2012-01-03 02:41:33"}},{"id":"YBW4h3","name":"Main Brewery","streetAddress":"10151 Prospect Avenue","locality":"Santee","region":"California","postalCode":"92071","phone":"(619) 334-1757","website":"http://www.manzanitabrewing.com/","hoursOfOperation":"Wednesday  4:00pm - 8:00pm\r\nThursday\t4:00pm - 8:00pm\r\nFriday 4:00pm - 10:00pm\r\nSaturday 1:00pm - 10:00pm\r\nSunday 1:00pm - 6:00pm","latitude":32.831249,"longitude":-116.9759463,"isPrimary":"Y","inPlanning":"N","isClosed":"N","openToPublic":"Y","locationType":"micro","locationTypeDisplay":"Micro Brewery","countryIsoCode":"US","status":"verified","statusDisplay":"Verified","createDate":"2012-01-03 02:42:01","updateDate":"2014-07-23 19:11:34","country":{"isoCode":"US","name":"UNITED STATES","displayName":"United States","isoThree":"USA","numberCode":840,"createDate":"2012-01-03 02:41:33"}},{"id":"V0wvf7","name":"Main Brewery","streetAddress":"23455 W RR 150","locality":"Dripping Springs","region":"Texas","postalCode":"78620","phone":"(512) 829-5323","website":"http://www.texmexbeer.com/","hoursOfOperation":"Mon:  1:00pm - 8:00pm\nTue:  1:00pm - 8:00pm\nWed:  1:00pm - 8:00pm\nThu:  1:00pm - 8:00pm\nFri:  11:00am - 10:00pm\nSat:  11:00am - 10:00pm\nSun:  12:00pm - 6:00pm\n\n","latitude":30.2157328,"longitude":-98.0825932,"isPrimary":"Y","inPlanning":"N","isClosed":"N","openToPublic":"Y","locationType":"micro","locationTypeDisplay":"Micro Brewery","countryIsoCode":"US","yearOpened":"2010","status":"verified","statusDisplay":"Verified","createDate":"2012-01-03 02:42:11","updateDate":"2014-08-04 10:51:24","country":{"isoCode":"US","name":"UNITED STATES","displayName":"United States","isoThree":"USA","numberCode":840,"createDate":"2012-01-03 02:41:33"}},{"id":"0GgoFA","name":"Cidery","streetAddress":"200 Anderson St","locality":"Portland","region":"Maine","postalCode":"04101","phone":"(207) 773-8331","website":"http://www.urbanfarmfermentory.com","latitude":43.669738,"longitude":-70.256485,"isPrimary":"Y","inPlanning":"N","isClosed":"N","openToPublic":"Y","locationType":"cidery","locationTypeDisplay":"Cidery","countryIsoCode":"US","status":"verified","statusDisplay":"Verified","createDate":"2014-08-28 11:38:58","updateDate":"2014-10-07 18:14:09","country":{"isoCode":"US","name":"UNITED STATES","displayName":"United States","isoThree":"USA","numberCode":840,"createDate":"2012-01-03 02:41:33"}},{"id":"4h1iCq","name":"Main Brewery","streetAddress":"18970 3rd Ave NE","locality":"Poulsbo","region":"Washington","postalCode":"98370","phone":"360-930-0172","website":"http://www.valhollbrewing.com/","hoursOfOperation":"Thu - Sat:\t4:00 pm - 9:00 pm\r\nSun:\t12:00 pm - 6:00 pm","latitude":47.735177,"longitude":-122.645267,"isPrimary":"Y","inPlanning":"N","isClosed":"N","openToPublic":"Y","locationType":"micro","locationTypeDisplay":"Micro Brewery","countryIsoCode":"US","yearOpened":"2010","status":"verified","statusDisplay":"Verified","createDate":"2012-01-03 02:42:11","updateDate":"2014-07-23 19:11:34","country":{"isoCode":"US","name":"UNITED STATES","displayName":"United States","isoThree":"USA","numberCode":840,"createDate":"2012-01-03 02:41:33"}},{"id":"h0kWMH","name":"Main Brewery","streetAddress":"2294 N. Batavia","extendedAddress":"Unit C","locality":"Orange","region":"California","postalCode":"92865","phone":"(714) 408-2825","website":"http://www.valiantbrewing.com/","hoursOfOperation":"Thu - Fri: 5:00 pm - 9:00 pm\r\nSat: 12:00 pm - 9:00 pm","latitude":33.8255472,"longitude":-117.8641555,"isPrimary":"Y","inPlanning":"N","isClosed":"N","openToPublic":"Y","locationType":"micro","locationTypeDisplay":"Micro Brewery","countryIsoCode":"US","yearOpened":"2010","status":"verified","statusDisplay":"Verified","createDate":"2012-01-03 02:42:11","updateDate":"2014-07-23 19:11:34","country":{"isoCode":"US","name":"UNITED STATES","displayName":"United States","isoThree":"USA","numberCode":840,"createDate":"2012-01-03 02:41:33"}},{"id":"khHDJ1","name":"Main Brewery","locality":"Venice","region":"California","website":"http://vbbc.us","latitude":33.9962144,"longitude":-118.4688776,"isPrimary":"Y","inPlanning":"N","isClosed":"N","openToPublic":"N","locationType":"micro","locationTypeDisplay":"Micro Brewery","countryIsoCode":"US","yearOpened":"2010","status":"verified","statusDisplay":"Verified","createDate":"2014-06-25 13:35:21","updateDate":"2014-07-23 19:11:34","country":{"isoCode":"US","name":"UNITED STATES","displayName":"United States","isoThree":"USA","numberCode":840,"createDate":"2012-01-03 02:41:33"}},{"id":"pYKaGv","name":"Main Brewery","streetAddress":"125B Roberts Street","locality":"Asheville","region":"North Carolina","postalCode":"28801","website":"http://wedgebrewing.com/","hoursOfOperation":"Mon-Thurs:  4pm - 10pm+\r\nFriday: 3pm - 10pm+\r\nSat + Sun: 2pm - 10pm+","latitude":35.5864875,"longitude":-82.5663169,"isPrimary":"Y","inPlanning":"N","isClosed":"N","openToPublic":"Y","locationType":"micro","locationTypeDisplay":"Micro Brewery","countryIsoCode":"US","yearOpened":"2010","status":"verified","statusDisplay":"Verified","createDate":"2012-01-03 02:42:12","updateDate":"2014-07-23 19:11:34","country":{"isoCode":"US","name":"UNITED STATES","displayName":"United States","isoThree":"USA","numberCode":840,"createDate":"2012-01-03 02:41:33"}},{"id":"rgj6Fa","name":"Main Brewery","streetAddress":"510 Ridge Road","locality":"Mt. Pleasant","region":"South Carolina","postalCode":"29464","phone":"843-708-2964","website":"http://westbrookbrewing.com/","hoursOfOperation":"Thursdays 4-7\r\nFridays 4-7\r\nSaturdays 12-4","latitude":32.846477,"longitude":-79.877235,"isPrimary":"Y","inPlanning":"N","isClosed":"N","openToPublic":"Y","locationType":"micro","locationTypeDisplay":"Micro Brewery","countryIsoCode":"US","yearOpened":"2010","status":"verified","statusDisplay":"Verified","createDate":"2012-01-03 02:42:12","updateDate":"2014-07-23 19:11:34","country":{"isoCode":"US","name":"UNITED STATES","displayName":"United States","isoThree":"USA","numberCode":840,"createDate":"2012-01-03 02:41:33"}},{"id":"HVOo4o","name":"Main Brewery","streetAddress":"2000 Logston Blvd","extendedAddress":"Ste 127","locality":"Richland","region":"Washington","postalCode":"99354","phone":"509-554-7059","website":"http://www.whitebluffsbrewing.com/","hoursOfOperation":"Tu-Th: 4:00 pm - 7:00 pm\r\nFri: 4:00 pm - 8:00 pm\r\nSat: 12:00 pm - 8:00 pm","latitude":46.318599,"longitude":-119.30184,"isPrimary":"Y","inPlanning":"N","isClosed":"N","openToPublic":"Y","locationType":"micro","locationTypeDisplay":"Micro Brewery","countryIsoCode":"US","yearOpened":"2010","status":"verified","statusDisplay":"Verified","createDate":"2012-01-03 02:42:13","updateDate":"2014-07-23 19:11:34","country":{"isoCode":"US","name":"UNITED STATES","displayName":"United States","isoThree":"USA","numberCode":840,"createDate":"2012-01-03 02:41:33"}},{"id":"vxW8Cu","name":"Main Brewery","streetAddress":"42 Clarendon Ave","locality":"Avondale Estates","region":"Georgia","postalCode":"30002","phone":"404-997-8589","website":"http://wildheavencraftbeers.com/","latitude":33.771354,"longitude":-84.267081,"isPrimary":"Y","inPlanning":"N","isClosed":"N","openToPublic":"Y","locationType":"micro","locationTypeDisplay":"Micro Brewery","countryIsoCode":"US","yearOpened":"2010","status":"verified","statusDisplay":"Verified","createDate":"2012-01-03 02:42:13","updateDate":"2014-07-23 19:11:34","country":{"isoCode":"US","name":"UNITED STATES","displayName":"United States","isoThree":"USA","numberCode":840,"createDate":"2012-01-03 02:41:33"}},{"id":"PEPMoe","name":"Main Brewery","streetAddress":"2773 Rockfish Valley Hwy","locality":"Nellysford","region":"Virginia","postalCode":"22958","phone":"434-361-0088","website":"http://www.wildwolfbeer.com/","latitude":37.8899765,"longitude":-78.8745563,"isPrimary":"Y","inPlanning":"N","isClosed":"N","openToPublic":"Y","locationType":"brewpub","locationTypeDisplay":"Brewpub","countryIsoCode":"US","yearOpened":"2010","status":"verified","statusDisplay":"Verified","createDate":"2012-01-03 02:42:13","updateDate":"2014-07-23 19:11:34","country":{"isoCode":"US","name":"UNITED STATES","displayName":"United States","isoThree":"USA","numberCode":840,"createDate":"2012-01-03 02:41:33"}},{"id":"9H8jhv","name":"Main Brewery","streetAddress":"2019 West Stadium Boulevard","locality":"Ann Arbor","region":"Michigan","postalCode":"48103","phone":"734-369-2990","website":"http://www.wolverinebeer.com/","latitude":42.2702084,"longitude":-83.7737021,"isPrimary":"Y","inPlanning":"N","isClosed":"N","openToPublic":"Y","locationType":"brewpub","locationTypeDisplay":"Brewpub","countryIsoCode":"US","yearOpened":"2010","status":"verified","statusDisplay":"Verified","createDate":"2012-01-03 02:42:13","updateDate":"2014-07-23 19:11:34","country":{"isoCode":"US","name":"UNITED STATES","displayName":"United States","isoThree":"USA","numberCode":840,"createDate":"2012-01-03 02:41:33"}},{"id":"0EJAAE","name":"Main Brewery","streetAddress":"69 South Garfield","locality":"Minster","region":"Ohio","postalCode":"45865","phone":"419-305-0636","website":"http://woodenshoebrews.com/","latitude":40.391478,"longitude":-84.3753119,"isPrimary":"Y","inPlanning":"N","isClosed":"N","openToPublic":"Y","locationType":"micro","locationTypeDisplay":"Micro Brewery","countryIsoCode":"US","yearOpened":"2010","status":"verified","statusDisplay":"Verified","createDate":"2012-01-03 02:42:13","updateDate":"2014-07-23 19:11:34","country":{"isoCode":"US","name":"UNITED STATES","displayName":"United States","isoThree":"USA","numberCode":840,"createDate":"2012-01-03 02:41:33"}},{"id":"wm5dNi","name":"Main Brewery","streetAddress":"455 Park Ave","locality":"Worcester","region":"Massachusetts","postalCode":"01610","phone":"774-239-1555","website":"http://www.wormtownbrewery.com/","hoursOfOperation":"Mon - Sun: 12:00 pm - 10:00 pm","latitude":42.254511,"longitude":-71.8259346,"isPrimary":"Y","inPlanning":"N","isClosed":"N","openToPublic":"Y","locationType":"micro","locationTypeDisplay":"Micro Brewery","countryIsoCode":"US","yearOpened":"1978","status":"verified","statusDisplay":"Verified","createDate":"2012-01-03 02:42:13","updateDate":"2014-09-26 14:01:11","country":{"isoCode":"US","name":"UNITED STATES","displayName":"United States","isoThree":"USA","numberCode":840,"createDate":"2012-01-03 02:41:33"}},{"id":"SBNNy7","name":"Main Brewery","streetAddress":"601 North University Ave.","locality":"Lubbock","region":"Texas","postalCode":"79415","phone":"806-744-1917","website":"http://www.yellowhousecanyonbrewworks.com/","latitude":33.6052477,"longitude":-101.870499,"isPrimary":"Y","inPlanning":"N","isClosed":"N","openToPublic":"Y","locationType":"micro","locationTypeDisplay":"Micro Brewery","countryIsoCode":"US","yearOpened":"2010","status":"verified","statusDisplay":"Verified","createDate":"2012-01-03 02:42:13","updateDate":"2014-07-23 19:11:34","country":{"isoCode":"US","name":"UNITED STATES","displayName":"United States","isoThree":"USA","numberCode":840,"createDate":"2012-01-03 02:41:33"}},{"id":"4V6C7Y","name":"Main Brewery","streetAddress":"2406 Clinton Avenue","locality":"West Huntsville","region":"Alabama","postalCode":"35805","phone":"256-975-5950","website":"http://www.yellowhammerbrewery.com/","latitude":34.722525,"longitude":-86.603703,"isPrimary":"Y","inPlanning":"N","isClosed":"N","openToPublic":"Y","locationType":"micro","locationTypeDisplay":"Micro Brewery","countryIsoCode":"US","yearOpened":"2010","status":"verified","statusDisplay":"Verified","createDate":"2012-01-03 02:42:13","updateDate":"2014-07-23 19:11:34","country":{"isoCode":"US","name":"UNITED STATES","displayName":"United States","isoThree":"USA","numberCode":840,"createDate":"2012-01-03 02:41:33"}},{"id":"wOEbD8","name":"Main Brewery","streetAddress":"1300 Norton Ave","locality":"Columbus","region":"Ohio","postalCode":"43212","phone":"614-754-8389","website":"http://www.zbeers.com/","latitude":39.985589,"longitude":-83.03199,"isPrimary":"Y","inPlanning":"N","isClosed":"N","openToPublic":"Y","locationType":"micro","locationTypeDisplay":"Micro Brewery","countryIsoCode":"US","yearOpened":"2010","status":"verified","statusDisplay":"Verified","createDate":"2012-03-15 11:55:18","updateDate":"2014-07-23 19:11:34","country":{"isoCode":"US","name":"UNITED STATES","displayName":"United States","isoThree":"USA","numberCode":840,"createDate":"2012-01-03 02:41:33"}},{"id":"Uxbi4l","name":"Main Brewpub","streetAddress":"1001 Magnolia Ave","locality":"Fort Worth","region":"Texas","postalCode":"76104","phone":"(817) 923-8000","website":"http://www.gr8ale.com/","hoursOfOperation":"Mon - Fri: 11:30 am - 12:00 am\r\nSat: 11:30 am - 1:00 am\r\nSun: 10:30 am - 12:00 am","latitude":32.730385,"longitude":-97.335319,"isPrimary":"Y","inPlanning":"N","isClosed":"N","openToPublic":"Y","locationType":"brewpub","locationTypeDisplay":"Brewpub","countryIsoCode":"US","yearOpened":"2010","status":"verified","statusDisplay":"Verified","createDate":"2013-05-11 01:33:44","updateDate":"2014-07-23 19:11:34","country":{"isoCode":"US","name":"UNITED STATES","displayName":"United States","isoThree":"USA","numberCode":840,"createDate":"2012-01-03 02:41:33"}}]