[{"id":"4XTqCU","name":"127 Brewing","streetAddress":"3090 Shirley Drive","locality":"Jackson","region":"Michigan","postalCode":"49201","phone":"(517) 258-1346","website":"https://www.facebook.com/127brewing","hoursOfOperation":"Wed:  5:00pm - 10:00pm\nThu:  5:00pm - 10:00pm\nFri:  5:00pm - 12:00am\nSat:  5:00pm - 12:00am\n\n","latitude":42.2860115,"longitude":-84.4312613,"isPrimary":"Y","inPlanning":"N","isClosed":"N","openToPublic":"Y","locationType":"micro","locationTypeDisplay":"Micro Brewery","countryIsoCode":"US","yearOpened":"2014","status":"verified","statusDisplay":"Verified","createDate":"2014-09-03 13:47:01","updateDate":"2014-09-04 10:37:23","country":{"isoCode":"US","name":"UNITED STATES","displayName":"United States","isoThree":"USA","numberCode":840,"createDate":"2012-01-03 02:41:33"}},{"id":"BWRwOL","name":"Main Brewery","streetAddress":"335 1st Ave","extendedAddress":"Unit C","locality":"Longmont","region":"Colorado","postalCode":"80501","phone":"(720) 442-8292","website":"http://www.300sunsbrewing.com","hoursOfOperation":"Mon:  2:00pm - 9:00pm\nTue:  2:00pm - 9:00pm\nWed:  2:00pm - 9:00pm\nThu:  2:00pm - 9:00pm\nFri:  12:00pm - 10:00pm\nSat:  12:00pm - 10:00pm\nSun:  12:00pm - 8:00pm\n\n","latitude":40.1598532,"longitude":-105.1011372,"isPrimary":"Y","inPlanning":"N","isClosed":"N","openToPublic":"Y","locationType":"micro","locationTypeDisplay":"Micro Brewery","countryIsoCode":"US","status":"verified","statusDisplay":"Verified","createDate":"2014-05-05 12:24:54","updateDate":"2014-07-23 19:38:25","country":{"isoCode":"US","name":"UNITED STATES","displayName":"United States","isoThree":"USA","numberCode":840,"createDate":"2012-01-03 02:41:33"}},{"id":"eDYckD","name":"4 Seasons Brewery","streetAddress":"303 W. Nepessing St.","locality":"Lapeer","region":"Michigan","postalCode":"48846","website":"http://www.4seasonsbeer.com/","latitude":43.0541726,"longitude":-83.3116718,"isPrimary":"Y","inPlanning":"Y","isClosed":"N","openToPublic":"N","locationType":"micro","locationTypeDisplay":"Micro Brewery","countryIsoCode":"US","status":"verified","statusDisplay":"Verified","createDate":"2014-09-13 02:06:40","updateDate":"2014-09-13 12:34:39","country":{"isoCode":"US","name":"UNITED STATES","displayName":"United States","isoThree":"USA","numberCode":840,"createDate":"2012-01-03 02:41:33"}},{"id":"W3pb09","name":"Main Brewery","locality":"Westmont","region":"Illinois","postalCode":"60559","website":"http://51stwardbrewing.com/","latitude":41.7958639,"longitude":-87.9756175,"isPrimary":"Y","inPlanning":"N","isClosed":"N","openToPublic":"N","locationType":"micro","locationTypeDisplay":"Micro Brewery","countryIsoCode":"US","yearOpened":"2014","status":"verified","statusDisplay":"Verified","createDate":"2014-06-25 12:26:38","updateDate":"2014-07-23 19:11:34","country":{"isoCode":"US","name":"UNITED STATES","displayName":"United States","isoThree":"USA","numberCode":840,"createDate":"2012-01-03 02:41:33"}},{"id":"QyT3s1","name":"Main Brewpub","streetAddress":"717 Sylvan Lake Rd","extendedAddress":"B-1","locality":"Eagle","region":"Colorado","postalCode":"81631","phone":"(970) 328-6220","website":"http://www.7hermitsbrewing.com/","hoursOfOperation":"Tue:  4:00pm - 10:00pm\nWed:  4:00pm - 10:00pm\nThu:  4:00pm - 10:00pm\nFri:  4:00pm - 10:00pm\nSat:  12:00pm - 10:00pm\nSun:  12:00pm - 10:00pm\n\n","latitude":39.640104,"longitude":-106.832202,"isPrimary":"Y","inPlanning":"N","isClosed":"N","openToPublic":"Y","locationType":"brewpub","locationTypeDisplay":"Brewpub","countryIsoCode":"US","yearOpened":"2014","status":"verified","statusDisplay":"Verified","createDate":"2014-05-28 11:51:27","updateDate":"2014-07-23 19:38:41","country":{"isoCode":"US","name":"UNITED STATES","displayName":"United States","isoThree":"USA","numberCode":840,"createDate":"2012-01-03 02:41:33"}},{"id":"4yCJCi","name":"Main Brewery","streetAddress":"555 Centennial Ave","locality":"Hanover","region":"Pennsylvania","postalCode":"17331","latitude":39.790598,"longitude":-76.976899,"isPrimary":"Y","inPlanning":"N","isClosed":"N","openToPublic":"Y","locationType":"micro","locationTypeDisplay":"Micro Brewery","countryIsoCode":"US","status":"verified","statusDisplay":"Verified","createDate":"2014-10-29 22:32:24","updateDate":"2014-10-29 22:32:24","country":{"isoCode":"US","name":"UNITED STATES","displayName":"United States","isoThree":"USA","numberCode":840,"createDate":"2012-01-03 02:41:33"}},{"id":"alL5xh","name":"Main Brewery","streetAddress":"426 Alvarado St","locality":"Monterey","region":"California","postalCode":"93940","phone":"(831) 655-2337","website":"http://www.alvaradostreetbrewery.com","hoursOfOperation":"Mon:  11:00am - 11:00pm\nTue:  11:00am - 11:00pm\nWed:  11:00am - 11:00pm\nThu:  11:00am - 11:00pm\nFri:  11:00am - 11:00pm\nSat:  11:00am - 11:00pm\nSun:  11:00am - 11:00pm\n\n","latitude":36.599312,"longitude":-121.894919,"isPrimary":"N","inPlanning":"N","isClosed":"N","openToPublic":"Y","locationType":"micro","locationTypeDisplay":"Micro Brewery","countryIsoCode":"US","status":"verified","statusDisplay":"Verified","createDate":"2014-09-16 23:34:59","updateDate":"2014-09-21 15:11:46","country":{"isoCode":"US","name":"UNITED STATES","displayName":"United States","isoThree":"USA","numberCode":840,"createDate":"2012-01-03 02:41:33"}},{"id":"GN1WbX","name":"Main Brewery","streetAddress":"6401 N Florida Ave","locality":"Tampa","region":"Florida","postalCode":"33604","phone":"(813) 892-1651","website":"http://angrychairbrewing.com/","latitude":28.005142,"longitude":-82.459215,"isPrimary":"Y","inPlanning":"N","isClosed":"N","openToPublic":"Y","locationType":"micro","locationTypeDisplay":"Micro Brewery","countryIsoCode":"US","status":"verified","statusDisplay":"Verified","createDate":"2013-12-29 23:31:35","updateDate":"2014-07-23 19:11:34","country":{"isoCode":"US","name":"UNITED STATES","displayName":"United States","isoThree":"USA","numberCode":840,"createDate":"2012-01-03 02:41:33"}},{"id":"UHcVOt","name":"Main Brewery","streetAddress":"529 Grant Street","locality":"Akron","region":"Ohio","postalCode":"44311","phone":"(330) 606-6583","website":"https://aqueductbrewing.shutterfly.com/","hoursOfOperation":"Mon:  4:00pm - 11:00pm\nTue:  4:00pm - 11:00pm\nWed:  4:00pm - 11:00pm\nThu:  4:00pm - 11:00pm\nFri:  4:00pm - 11:00pm\nSun:  12:00pm - 11:00pm\n\n","latitude":41.068941,"longitude":-81.5174766,"isPrimary":"Y","inPlanning":"N","isClosed":"N","openToPublic":"Y","locationType":"micro","locationTypeDisplay":"Micro Brewery","countryIsoCode":"US","yearOpened":"2014","status":"verified","statusDisplay":"Verified","createDate":"2014-11-22 12:28:35","updateDate":"2014-11-22 12:28:52","country":{"isoCode":"US","name":"UNITED STATES","displayName":"United States","isoThree":"USA","numberCode":840,"createDate":"2012-01-03 02:41:33"}},{"id":"Oe91o4","name":"Main Brewery","streetAddress":"544 N. Main Street","locality":"Watervliet","region":"Michigan","postalCode":"49098","latitude":42.1910809,"longitude":-86.258322,"isPrimary":"Y","inPlanning":"N","isClosed":"N","openToPublic":"Y","locationType":"micro","locationTypeDisplay":"Micro Brewery","countryIsoCode":"US","yearOpened":"2014","status":"verified","statusDisplay":"Verified","createDate":"2014-07-17 12:10:17","updateDate":"2014-09-07 17:52:57","country":{"isoCode":"US","name":"UNITED STATES","displayName":"United States","isoThree":"USA","numberCode":840,"createDate":"2012-01-03 02:41:33"}},{"id":"vWJsRy","name":"Main Brewery","streetAddress":"3200 W Leigh St","locality":"Richmond","region":"Virginia","postalCode":"23230","phone":"(804) 363-2105","website":"http://ardentcraftales.com/","hoursOfOperation":"Wed:  4:00pm - 9:00pm\nThu:  4:00pm - 9:00pm\nFri:  4:00pm - 9:00pm\nSat:  11:00am - 9:00pm\nSun:  11:00am - 6:00pm\n\nWed - Fri: 4:00 pm - 9:00 pm\r\nSat: 11:00 am - 9:00 pm\r\nSun: 11:00 am - 6:00 pm","latitude":37.5681484,"longitude":-77.471961,"isPrimary":"Y","inPlanning":"N","isClosed":"N","openToPublic":"Y","locationType":"micro","locationTypeDisplay":"Micro Brewery","countryIsoCode":"US","yearOpened":"2014","status":"verified","statusDisplay":"Verified","createDate":"2013-09-21 20:13:36","updateDate":"2014-09-29 20:33:29","country":{"isoCode":"US","name":"UNITED STATES","displayName":"United States","isoThree":"USA","numberCode":840,"createDate":"2012-01-03 02:41:33"}},{"id":"FDSQ5n","name":"Main Brewery","streetAddress":"1640 NE Odell Ave","locality":"Roseburg","region":"Oregon","postalCode":"97470","phone":"(541)580-1906","latitude":43.214657,"longitude":-123.337702,"isPrimary":"Y","inPlanning":"N","isClosed":"N","openToPublic":"Y","locationType":"micro","locationTypeDisplay":"Micro Brewery","countryIsoCode":"US","status":"verified","statusDisplay":"Verified","createDate":"2014-09-19 18:37:54","updateDate":"2014-09-19 18:37:54","country":{"isoCode":"US","name":"UNITED STATES","displayName":"United States","isoThree":"USA","numberCode":840,"createDate":"2012-01-03 02:41:33"}},{"id":"9O3QPg","name":"Baere Brewing Company","streetAddress":"320 Broadway Unit E","locality":"Denver","region":"Colorado","postalCode":"80203","phone":"(970) 901-4810","website":"http://www.baerebrewing.com","latitude":39.7214236,"longitude":-104.9870303,"isPrimary":"Y","inPlanning":"N","isClosed":"N","openToPublic":"Y","locationType":"nano","locationTypeDisplay":"Nano Brewery","countryIsoCode":"US","status":"verified","statusDisplay":"Verified","createDate":"2014-04-21 13:51:20","updateDate":"2014-09-30 13:41:36","country":{"isoCode":"US","name":"UNITED STATES","displayName":"United States","isoThree":"USA","numberCode":840,"createDate":"2012-01-03 02:41:33"}},{"id":"vztmHq","name":"Main Brewery","streetAddress":"2235 SE 11th Ave","locality":"Portland","region":"Oregon","postalCode":"97214","phone":"(503) 477-9418","website":"http://baerlicbrewing.com","hoursOfOperation":"Tue:  4:00pm - 10:00pm\nWed:  4:00pm - 10:00pm\nThu:  4:00pm - 10:00pm\nFri:  2:00pm - 11:00pm\nSat:  12:00pm - 11:00pm\nSun:  12:00pm - 10:00pm\n\n","latitude":45.5067878,"longitude":-122.6549234,"isPrimary":"Y","inPlanning":"N","isClosed":"N","openToPublic":"Y","locationType":"micro","locationTypeDisplay":"Micro Brewery","countryIsoCode":"US","status":"verified","statusDisplay":"Verified","createDate":"2014-08-23 14:53:19","updateDate":"2014-08-23 14:53:19","country":{"isoCode":"US","name":"UNITED STATES","displayName":"United States","isoThree":"USA","numberCode":840,"createDate":"2012-01-03 02:41:33"}},{"id":"nDWlSG","name":"Barkerville Brewing Co.","streetAddress":"185 Davie Street","locality":"Quesnel","region":"British Columbia","postalCode":"V2J 2S8","phone":"(778) 414-2739","website":"http://barkervillebeer.com/","latitude":52.9757055,"longitude":-122.4933399,"isPrimary":"Y","inPlanning":"N","isClosed":"N","openToPublic":"Y","locationType":"micro","locationTypeDisplay":"Micro Brewery","countryIsoCode":"CA","yearOpened":"2014","status":"verified","statusDisplay":"Verified","createDate":"2014-03-11 23:24:58","updateDate":"2014-07-23 19:11:34","country":{"isoCode":"CA","name":"CANADA","displayName":"Canada","isoThree":"CAN","numberCode":124,"createDate":"2012-01-03 02:41:33"}},{"id":"fsNEt0","name":"Main Brewery","streetAddress":"7631 Woodwind Drive","locality":"Huntington Beach","region":"California","postalCode":"92647","phone":"(714) 425-4756","website":"http://www.beachcitybrewery.com/","latitude":33.704503,"longitude":-117.995402,"isPrimary":"Y","inPlanning":"N","isClosed":"N","openToPublic":"Y","locationType":"micro","locationTypeDisplay":"Micro Brewery","countryIsoCode":"US","status":"verified","statusDisplay":"Verified","createDate":"2013-11-22 16:59:39","updateDate":"2014-07-23 19:11:34","country":{"isoCode":"US","name":"UNITED STATES","displayName":"United States","isoThree":"USA","numberCode":840,"createDate":"2012-01-03 02:41:33"}},{"id":"JbdvVa","name":"Main Brewery","streetAddress":"84 Leonardville Rd","locality":"Belford","region":"New Jersey","postalCode":"07718","phone":"732-769-7168","hoursOfOperation":"Fri:  6:30pm - 8:30pm\nSat:  1:00pm - 5:00pm\n\n","latitude":40.4143957,"longitude":-74.0960986,"isPrimary":"Y","inPlanning":"N","isClosed":"N","openToPublic":"Y","locationType":"nano","locationTypeDisplay":"Nano Brewery","countryIsoCode":"US","status":"verified","statusDisplay":"Verified","createDate":"2014-10-30 14:15:25","updateDate":"2014-10-30 14:15:25","country":{"isoCode":"US","name":"UNITED STATES","displayName":"United States","isoThree":"USA","numberCode":840,"createDate":"2012-01-03 02:41:33"}},{"id":"pHOEo6","name":"Main Brewery","streetAddress":"450 8th Street","extendedAddress":"Suite B","locality":"Berthoud","region":"Colorado","postalCode":"80513","phone":"(970) 532-9850","website":"http://www.berthoudbrewing.com","hoursOfOperation":"Wed:  2:00pm - 9:00pm\nThu:  2:00pm - 9:00pm\nFri:  2:00pm - 10:00pm\nSat:  2:00pm - 10:00pm\nSun:  1:00pm - 8:00pm\n\n","latitude":40.304639,"longitude":-105.0850895,"isPrimary":"Y","inPlanning":"N","isClosed":"N","openToPublic":"Y","locationType":"micro","locationTypeDisplay":"Micro Brewery","countryIsoCode":"US","status":"verified","statusDisplay":"Verified","createDate":"2014-07-25 13:50:45","updateDate":"2014-07-25 13:50:45","country":{"isoCode":"US","name":"UNITED STATES","displayName":"United States","isoThree":"USA","numberCode":840,"createDate":"2012-01-03 02:41:33"}},{"id":"RptzsT","name":"Main Brewery","streetAddress":"N60","locality":"Co. Roscommon","region":"Ballinlough","latitude":53.7471457,"longitude":-8.6485381,"isPrimary":"Y","inPlanning":"N","isClosed":"N","openToPublic":"Y","locationType":"micro","locationTypeDisplay":"Micro Brewery","countryIsoCode":"IE","status":"verified","statusDisplay":"Verified","createDate":"2014-10-21 14:20:17","updateDate":"2014-10-21 14:20:17","country":{"isoCode":"IE","name":"IRELAND","displayName":"Ireland","isoThree":"IRL","numberCode":372,"createDate":"2012-01-03 02:41:33"}},{"id":"LoZU74","name":"Main Brewery","streetAddress":"115 Hurley Rd","extendedAddress":"Bldg 9A","locality":"Oxford","region":"Connecticut","postalCode":"06478","website":"http://www.blackhogbrewing.com","latitude":41.4757707,"longitude":-73.1520822,"isPrimary":"N","inPlanning":"N","isClosed":"N","openToPublic":"Y","locationType":"micro","locationTypeDisplay":"Micro Brewery","countryIsoCode":"US","status":"verified","statusDisplay":"Verified","createDate":"2014-08-24 01:04:56","updateDate":"2014-08-25 11:53:08","country":{"isoCode":"US","name":"UNITED STATES","displayName":"United States","isoThree":"USA","numberCode":840,"createDate":"2012-01-03 02:41:33"}},{"id":"oGtDY0","name":"Main Brewery","streetAddress":"1590 Swenson St","locality":"Prescott","region":"Arizona","postalCode":"86305","phone":"(928) 237-9029","website":"http://www.blackholebeer.com","hoursOfOperation":"Wed:  3:00pm - 9:00pm\nThu:  3:00pm - 9:00pm\nFri:  3:00pm - 11:00pm\nSat:  12:00pm - 11:00pm\nSun:  12:00pm - 7:00pm\n\n","latitude":34.565771,"longitude":-112.49455,"isPrimary":"Y","inPlanning":"N","isClosed":"N","openToPublic":"Y","locationType":"micro","locationTypeDisplay":"Micro Brewery","countryIsoCode":"US","status":"verified","statusDisplay":"Verified","createDate":"2014-08-14 11:18:27","updateDate":"2014-08-14 11:18:27","country":{"isoCode":"US","name":"UNITED STATES","displayName":"United States","isoThree":"USA","numberCode":840,"createDate":"2012-01-03 02:41:33"}},{"id":"uApFqw","name":"Main Brewery","streetAddress":"1053 E Whitaker Mill Rd","locality":"Raleigh","region":"North Carolina","postalCode":"27604","phone":"(919) 623-5850","website":"http://www.blackjackbrewing.com","latitude":35.8087141,"longitude":-78.6211297,"isPrimary":"Y","inPlanning":"Y","isClosed":"N","openToPublic":"Y","locationType":"micro","locationTypeDisplay":"Micro Brewery","countryIsoCode":"US","status":"verified","statusDisplay":"Verified","createDate":"2014-09-08 10:21:11","updateDate":"2014-09-08 10:21:11","country":{"isoCode":"US","name":"UNITED STATES","displayName":"United States","isoThree":"USA","numberCode":840,"createDate":"2012-01-03 02:41:33"}},{"id":"6kPOny","name":"Main Brewery","locality":"Austin","region":"Texas","postalCode":"78702","phone":"(512) 593-1262","website":"http://blueowlbrewing.com","latitude":30.2603535,"longitude":-97.7145152,"isPrimary":"Y","inPlanning":"Y","isClosed":"N","openToPublic":"Y","locationType":"micro","locationTypeDisplay":"Micro Brewery","countryIsoCode":"US","status":"verified","statusDisplay":"Verified","createDate":"2014-05-22 19:19:53","updateDate":"2014-07-23 19:11:34","country":{"isoCode":"US","name":"UNITED STATES","displayName":"United States","isoThree":"USA","numberCode":840,"createDate":"2012-01-03 02:41:33"}},{"id":"3nRNeV","name":"Main Brewery","streetAddress":"1509 East Broadway","locality":"Maryville","region":"Tennessee","postalCode":"37804","phone":"(865) 314-0397","website":"http://www.bluetickbrewery.com/","hoursOfOperation":"Tue: 10:00 am - 6:00 pm\r\nWed - Sat: 4:00 pm - 11:00 pm","latitude":35.7701715,"longitude":-83.9587378,"isPrimary":"Y","inPlanning":"N","isClosed":"N","openToPublic":"Y","locationType":"micro","locationTypeDisplay":"Micro Brewery","countryIsoCode":"US","status":"verified","statusDisplay":"Verified","createDate":"2014-04-20 13:39:40","updateDate":"2014-09-11 10:33:53","country":{"isoCode":"US","name":"UNITED STATES","displayName":"United States","isoThree":"USA","numberCode":840,"createDate":"2012-01-03 02:41:33"}},{"id":"m8UhZL","name":"Main Brewpub","streetAddress":"4810 Granite Dr","extendedAddress":"Suite A-1","locality":"Rocklin","region":"California","postalCode":"95677","phone":"(916) 672-6292","website":"http://www.boneshakerbrew.com/","hoursOfOperation":"Mon:  4:00pm - 9:00pm\nTue:  4:00pm - 9:00pm\nWed:  4:00pm - 9:00pm\nThu:  4:00pm - 9:00pm\nFri:  11:30am - 10:00pm\nSat:  11:30am - 10:00pm\nSun:  11:30am - 9:00pm\n\n","latitude":38.7891674,"longitude":-121.2259418,"isPrimary":"Y","inPlanning":"N","isClosed":"N","openToPublic":"Y","locationType":"brewpub","locationTypeDisplay":"Brewpub","countryIsoCode":"US","status":"verified","statusDisplay":"Verified","createDate":"2014-08-11 11:38:40","updateDate":"2014-08-11 11:38:40","country":{"isoCode":"US","name":"UNITED STATES","displayName":"United States","isoThree":"USA","numberCode":840,"createDate":"2012-01-03 02:41:33"}},{"id":"6fsMB9","name":"Main Brewery","streetAddress":"5778 E Us Highway 40","locality":"Plainfield","region":"Indiana","postalCode":"46168","phone":"(317) 408-6970","website":"http://brewlinkbrewing.com/","latitude":39.6958935,"longitude":-86.4233015,"isPrimary":"Y","inPlanning":"Y","isClosed":"N","openToPublic":"Y","locationType":"micro","locationTypeDisplay":"Micro Brewery","countryIsoCode":"US","status":"verified","statusDisplay":"Verified","createDate":"2014-09-05 12:22:07","updateDate":"2014-09-05 12:22:07","country":{"isoCode":"US","name":"UNITED STATES","displayName":"United States","isoThree":"USA","numberCode":840,"createDate":"2012-01-03 02:41:33"}},{"id":"P9OXR7","name":"Brewery Becker","streetAddress":"500 W. Main Street","locality":"Brighton","region":"Michigan","postalCode":"48116","phone":"(734) 678-3238","website":"http://brauereibecker.us/","hoursOfOperation":"Tue:  3:00pm - 10:00pm\nWed:  3:00pm - 10:00pm\nThu:  3:00pm - 10:00pm\nFri:  3:00pm - 11:00pm\nSat:  12:00pm - 11:00pm\nSun:  12:00pm - 9:00pm\n\nHours of Operation:\r\nMonday: closed\r\nTuesday-Thursday: 3pm-10pm\r\nFriday: 3pm-11pm\r\nSaturday: Noon-11pm\r\nSunday: Noon-9pm\r\nKitchen closes at 9","latitude":42.529503,"longitude":-83.7851236,"isPrimary":"Y","inPlanning":"N","isClosed":"N","openToPublic":"Y","locationType":"micro","locationTypeDisplay":"Micro Brewery","countryIsoCode":"US","yearOpened":"2014","status":"verified","statusDisplay":"Verified","createDate":"2014-07-01 15:41:49","updateDate":"2014-09-29 20:36:43","country":{"isoCode":"US","name":"UNITED STATES","displayName":"United States","isoThree":"USA","numberCode":840,"createDate":"2012-01-03 02:41:33"}},{"id":"lpAi1a","name":"Main Brewery","streetAddress":"68 Continental Court","extendedAddress":"Unit B12","locality":"Breckenridge","region":"Colorado","postalCode":"80424","phone":"(970) 368-2772","website":"http://www.brokencompassbrewing.com","hoursOfOperation":"Mon:  11:30am - 11:00pm\nTue:  11:30am - 11:00pm\nWed:  11:30am - 11:00pm\nThu:  11:30am - 11:00pm\nFri:  11:30am - 11:00pm\nSat:  11:30am - 11:00pm\nSun:  11:30am - 11:00pm\n\n","latitude":39.5148941,"longitude":-106.0534867,"isPrimary":"Y","inPlanning":"N","isClosed":"N","openToPublic":"Y","locationType":"micro","locationTypeDisplay":"Micro Brewery","countryIsoCode":"US","status":"verified","statusDisplay":"Verified","createDate":"2014-07-25 14:00:42","updateDate":"2014-07-25 14:00:42","country":{"isoCode":"US","name":"UNITED STATES","displayName":"United States","isoThree":"USA","numberCode":840,"createDate":"2012-01-03 02:41:33"}},{"id":"v6nEUD","name":"Main Brewery","streetAddress":"1710 S Broadway","locality":"Denver","region":"Colorado","postalCode":"80210","latitude":39.685463,"longitude":-104.987172,"isPrimary":"Y","inPlanning":"Y","isClosed":"N","openToPublic":"Y","locationType":"micro","locationTypeDisplay":"Micro Brewery","countryIsoCode":"US","status":"verified","statusDisplay":"Verified","createDate":"2014-10-24 12:05:14","updateDate":"2014-10-24 12:05:14","country":{"isoCode":"US","name":"UNITED STATES","displayName":"United States","isoThree":"USA","numberCode":840,"createDate":"2012-01-03 02:41:33"}},{"id":"oqflns","name":"Main Brewery","streetAddress":"6404 Amsterdam Way","extendedAddress":"Ste 100","locality":"Wilmington","region":"North Carolina","postalCode":"28405","phone":"(910) 264-1369","website":"www.broomtailcraftbrewery.com","hoursOfOperation":"Thu:  4:00pm - 9:00pm\r\nFri:  4:00pm - 10:00pm\r\nSat:  2:00pm - 10:00pm\r\nSun:  2:00pm - 8:00pm","latitude":34.259717,"longitude":-77.846777,"isPrimary":"Y","inPlanning":"N","isClosed":"N","openToPublic":"Y","locationType":"micro","locationTypeDisplay":"Micro Brewery","countryIsoCode":"US","yearOpened":"2014","status":"verified","statusDisplay":"Verified","createDate":"2014-03-17 15:05:49","updateDate":"2014-11-14 19:11:13","country":{"isoCode":"US","name":"UNITED STATES","displayName":"United States","isoThree":"USA","numberCode":840,"createDate":"2012-01-03 02:41:33"}},{"id":"sQHm2r","name":"Brouwtoren","streetAddress":"Kronenburgersingel","locality":"Nijmegen","region":"Gelderland","postalCode":"6511AL","website":"http://www.brouwtoren.nl","latitude":51.84618,"longitude":5.85625,"isPrimary":"Y","inPlanning":"N","isClosed":"N","openToPublic":"N","locationType":"micro","locationTypeDisplay":"Micro Brewery","countryIsoCode":"NL","status":"verified","statusDisplay":"Verified","createDate":"2014-07-07 13:27:54","updateDate":"2014-07-23 19:11:34","country":{"isoCode":"NL","name":"NETHERLANDS","displayName":"Netherlands","isoThree":"NLD","numberCode":528,"createDate":"2012-01-03 02:41:33"}},{"id":"CWwxeR","name":"Main Brewery","streetAddress":"1229 Perry Road","locality":"Apex","region":"North Carolina","postalCode":"27502","website":"http://brueprint.com/","hoursOfOperation":"Wednesday - Saturday   4 - 10 PM","latitude":35.7121944,"longitude":-78.851764,"isPrimary":"Y","inPlanning":"N","isClosed":"N","openToPublic":"Y","locationType":"micro","locationTypeDisplay":"Micro Brewery","countryIsoCode":"US","yearOpened":"2014","status":"verified","statusDisplay":"Verified","createDate":"2014-03-17 15:03:42","updateDate":"2014-07-23 19:11:34","country":{"isoCode":"US","name":"UNITED STATES","displayName":"United States","isoThree":"USA","numberCode":840,"createDate":"2012-01-03 02:41:33"}},{"id":"VkVbSO","name":"Main Brewpub","streetAddress":"505 Atwood Avenue","locality":"Cranston","region":"Rhode Island","postalCode":"02920","phone":"(401) 464-8877","website":"http://www.brutopiabrewery.com/","hoursOfOperation":"Mon - Fri: 4:00 pm - 1:00 am\r\nSat - Sun: 11:30 am - 1:00 am","latitude":41.789838,"longitude":-71.471691,"isPrimary":"Y","inPlanning":"N","isClosed":"N","openToPublic":"Y","locationType":"brewpub","locationTypeDisplay":"Brewpub","countryIsoCode":"US","yearOpened":"2014","status":"verified","statusDisplay":"Verified","createDate":"2014-05-13 11:16:07","updateDate":"2014-07-23 19:11:34","country":{"isoCode":"US","name":"UNITED STATES","displayName":"United States","isoThree":"USA","numberCode":840,"createDate":"2012-01-03 02:41:33"}},{"id":"8ZTvEs","name":"Main Brewery","streetAddress":"31 Appletree Lane","locality":"Pipersville","region":"Pennsylvania","postalCode":"18949","phone":"(609) 439-2468","website":"http://www.buckscountybrewery.com","hoursOfOperation":"Thu - Fri: 5:00 pm - 10:00 pm\r\nSat: 12:00 pm - 10:00 pm\r\nSun: 1:00 pm - 6:00 pm","latitude":40.397154,"longitude":-75.154312,"isPrimary":"Y","inPlanning":"N","isClosed":"N","openToPublic":"Y","locationType":"micro","locationTypeDisplay":"Micro Brewery","countryIsoCode":"US","status":"verified","statusDisplay":"Verified","createDate":"2014-04-12 21:20:31","updateDate":"2014-07-23 19:11:34","country":{"isoCode":"US","name":"UNITED STATES","displayName":"United States","isoThree":"USA","numberCode":840,"createDate":"2012-01-03 02:41:33"}},{"id":"illmv4","name":"Main Brewery","streetAddress":"2875 Elk River Road","extendedAddress":"PO Box 773207","locality":"Steamboat Springs","region":"Colorado","postalCode":"80487","phone":"970-879-2337","website":"http://www.butcherknifebrewing.com","latitude":40.5107724,"longitude":-106.858265,"isPrimary":"Y","inPlanning":"N","isClosed":"N","openToPublic":"Y","locationType":"micro","locationTypeDisplay":"Micro Brewery","countryIsoCode":"US","yearOpened":"2014","status":"verified","statusDisplay":"Verified","createDate":"2012-01-03 02:41:49","updateDate":"2014-09-11 10:33:25","country":{"isoCode":"US","name":"UNITED STATES","displayName":"United States","isoThree":"USA","numberCode":840,"createDate":"2012-01-03 02:41:33"}},{"id":"grCeLv","name":"Canton Brew Works","streetAddress":"8521 N Lilley Road","locality":"Canton","region":"Michigan","postalCode":"48187","website":"http://www.cantonbrewworks.com/","latitude":42.3492884,"longitude":-83.4598685,"isPrimary":"Y","inPlanning":"Y","isClosed":"N","openToPublic":"Y","locationType":"nano","locationTypeDisplay":"Nano Brewery","countryIsoCode":"US","yearOpened":"2014","status":"verified","statusDisplay":"Verified","createDate":"2014-09-03 13:50:45","updateDate":"2014-09-04 10:43:28","country":{"isoCode":"US","name":"UNITED STATES","displayName":"United States","isoThree":"USA","numberCode":840,"createDate":"2012-01-03 02:41:33"}},{"id":"15GJPy","name":"Main Brewery","region":"Indiana","website":"http://www.centralstatebrewing.com/","latitude":40.2671941,"longitude":-86.1349019,"isPrimary":"Y","inPlanning":"Y","isClosed":"N","openToPublic":"Y","locationType":"micro","locationTypeDisplay":"Micro Brewery","countryIsoCode":"US","status":"verified","statusDisplay":"Verified","createDate":"2014-09-05 12:13:51","updateDate":"2014-09-05 12:13:51","country":{"isoCode":"US","name":"UNITED STATES","displayName":"United States","isoThree":"USA","numberCode":840,"createDate":"2012-01-03 02:41:33"}},{"id":"iYshKM","name":"Main Brewery","streetAddress":"902 S Lipan St","locality":"Denver","region":"Colorado","postalCode":"80223","phone":"(303) 941-0732","website":"http://chainreactionbrewingco.com","latitude":39.6995433,"longitude":-105.0012001,"isPrimary":"Y","inPlanning":"N","isClosed":"N","openToPublic":"Y","locationType":"micro","locationTypeDisplay":"Micro Brewery","countryIsoCode":"US","yearOpened":"2014","status":"verified","statusDisplay":"Verified","createDate":"2014-06-23 11:27:11","updateDate":"2014-07-23 19:11:34","country":{"isoCode":"US","name":"UNITED STATES","displayName":"United States","isoThree":"USA","numberCode":840,"createDate":"2012-01-03 02:41:33"}},{"id":"oaDD5l","name":"Main Brewpub","streetAddress":"719 Virginia Ave","extendedAddress":"Suite 105","locality":"Indianapolis","region":"Indiana","postalCode":"46203","phone":"(317) 964-0518","website":"http://www.chillywaterbrewing.com","hoursOfOperation":"Tue:  11:00am - 10:00pm\nWed:  11:00am - 10:00pm\nThu:  11:00am - 10:00pm\nFri:  11:00am - 12:00am\nSat:  11:00am - 12:00am\nSun:  12:00pm - 6:00pm\n\n","latitude":39.7572649,"longitude":-86.146124,"isPrimary":"Y","inPlanning":"N","isClosed":"N","openToPublic":"Y","locationType":"brewpub","locationTypeDisplay":"Brewpub","countryIsoCode":"US","status":"verified","statusDisplay":"Verified","createDate":"2014-09-07 17:45:47","updateDate":"2014-09-07 17:45:47","country":{"isoCode":"US","name":"UNITED STATES","displayName":"United States","isoThree":"USA","numberCode":840,"createDate":"2012-01-03 02:41:33"}},{"id":"c2Ifvu","name":"Main Brewpub","streetAddress":"126 N. West St.","locality":"Raleigh","region":"North Carolina","postalCode":"27606","phone":"(919) 235-7949","website":"http://www.stormcloudsbrewing.com","latitude":35.7825987,"longitude":-78.6456981,"isPrimary":"Y","inPlanning":"N","isClosed":"N","openToPublic":"Y","locationType":"brewpub","locationTypeDisplay":"Brewpub","countryIsoCode":"US","yearOpened":"2014","status":"verified","statusDisplay":"Verified","createDate":"2014-03-06 13:39:10","updateDate":"2014-09-11 10:24:57","country":{"isoCode":"US","name":"UNITED STATES","displayName":"United States","isoThree":"USA","numberCode":840,"createDate":"2012-01-03 02:41:33"}},{"id":"Y9Mg9A","name":"Main Brewery","streetAddress":"2101 North Ursula","extendedAddress":"Unit 10","locality":"Aurora","region":"Colorado","postalCode":"80045","phone":"(720) 324-8529","hoursOfOperation":"Mon - Thu: 3:00 pm - 9:00 pm\r\nFri - Sat: 12:00 pm - 9:00 pm\r\nSun: 12:00 pm - 7:00 pm","latitude":39.748689,"longitude":-104.838388,"isPrimary":"Y","inPlanning":"N","isClosed":"N","openToPublic":"Y","locationType":"micro","locationTypeDisplay":"Micro Brewery","countryIsoCode":"US","status":"verified","statusDisplay":"Verified","createDate":"2013-11-16 23:50:32","updateDate":"2014-07-23 19:11:34","country":{"isoCode":"US","name":"UNITED STATES","displayName":"United States","isoThree":"USA","numberCode":840,"createDate":"2012-01-03 02:41:33"}},{"id":"X4KcGF","name":"Main Brewery","streetAddress":"7667 East Iliff Avenue","extendedAddress":"Unit F","locality":"Denver","region":"Colorado","postalCode":"80231","phone":"(720) 748-0700","website":"http://www.comradebrewing.com/","latitude":39.6749368,"longitude":-104.8987459,"isPrimary":"Y","inPlanning":"N","isClosed":"N","openToPublic":"Y","locationType":"micro","locationTypeDisplay":"Micro Brewery","countryIsoCode":"US","yearOpened":"2014","status":"verified","statusDisplay":"Verified","createDate":"2014-04-21 05:52:22","updateDate":"2014-07-23 19:11:34","country":{"isoCode":"US","name":"UNITED STATES","displayName":"United States","isoThree":"USA","numberCode":840,"createDate":"2012-01-03 02:41:33"}},{"id":"jNSCVA","name":"Constantine Brewing Company","streetAddress":"145 S Washington St","locality":"Constantine","region":"Michigan","postalCode":"49042","phone":"(269) 435-1230","website":"http://constantinebrewingco.com/","hoursOfOperation":"Thursday and Friday 4-10, Saturday 4-11\r\nSunday 12-5","latitude":41.8416791,"longitude":-85.6687291,"isPrimary":"Y","inPlanning":"N","isClosed":"N","openToPublic":"Y","locationType":"micro","locationTypeDisplay":"Micro Brewery","countryIsoCode":"US","yearOpened":"2014","status":"verified","statusDisplay":"Verified","createDate":"2014-07-07 22:01:12","updateDate":"2014-07-23 19:11:34","country":{"isoCode":"US","name":"UNITED STATES","displayName":"United States","isoThree":"USA","numberCode":840,"createDate":"2012-01-03 02:41:33"}},{"id":"Xsu7R3","name":"Main Brewery","streetAddress":"1612 West King Street","locality":"York","region":"Pennsylvania","postalCode":"17404","website":"http://www.crystalballbrewing.com","latitude":39.9487765,"longitude":-76.7630199,"isPrimary":"Y","inPlanning":"N","isClosed":"N","openToPublic":"Y","locationType":"micro","locationTypeDisplay":"Micro Brewery","countryIsoCode":"US","yearOpened":"2014","status":"verified","statusDisplay":"Verified","createDate":"2014-05-20 11:50:10","updateDate":"2014-07-23 19:11:34","country":{"isoCode":"US","name":"UNITED STATES","displayName":"United States","isoThree":"USA","numberCode":840,"createDate":"2012-01-03 02:41:33"}},{"id":"nKvEuj","name":"Main Brewery","streetAddress":"150 N. Main St.","locality":"Crystal Lake","region":"Illinois","postalCode":"60014","latitude":42.245312,"longitude":-88.316372,"isPrimary":"Y","inPlanning":"N","isClosed":"N","openToPublic":"Y","locationType":"micro","locationTypeDisplay":"Micro Brewery","countryIsoCode":"US","yearOpened":"2014","status":"verified","statusDisplay":"Verified","createDate":"2014-06-10 12:34:05","updateDate":"2014-07-28 20:59:01","country":{"isoCode":"US","name":"UNITED STATES","displayName":"United States","isoThree":"USA","numberCode":840,"createDate":"2012-01-03 02:41:33"}},{"id":"Vemjn6","name":"Brewpub","streetAddress":"1525 4th Street","locality":"Sarasota","region":"Florida","postalCode":"34236","phone":"(941) 343-2165","website":"http://darwinson4th.com/","hoursOfOperation":"Mon - Tue: 5:00 pm - 10:00 pm\r\nWed - Thu: 5:00 pm - 11:00 pm\r\nFri: 5:00 pm - 1:00 am\r\nSat: 5:00 pm - 1:00 pm\r\nSun: 5:00 pm - 10:00 pm","latitude":27.3398077,"longitude":-82.539913,"isPrimary":"N","inPlanning":"N","isClosed":"N","openToPublic":"Y","locationType":"brewpub","locationTypeDisplay":"Brewpub","countryIsoCode":"US","yearOpened":"2011","status":"verified","statusDisplay":"Verified","createDate":"2013-02-10 14:00:17","updateDate":"2014-08-18 11:26:26","country":{"isoCode":"US","name":"UNITED STATES","displayName":"United States","isoThree":"USA","numberCode":840,"createDate":"2012-01-03 02:41:33"}},{"id":"jdulDH","name":"Brewery","streetAddress":"803 17th Ave W","locality":"Bradenton","region":"Florida","postalCode":"34205","phone":"(941) 343-2165","website":"http://www.darwinbrewingco.com/","latitude":27.483944,"longitude":-82.570277,"isPrimary":"Y","inPlanning":"N","isClosed":"N","openToPublic":"Y","locationType":"micro","locationTypeDisplay":"Micro Brewery","countryIsoCode":"US","yearOpened":"2014","status":"verified","statusDisplay":"Verified","createDate":"2013-12-29 23:45:13","updateDate":"2014-08-18 11:26:26","country":{"isoCode":"US","name":"UNITED STATES","displayName":"United States","isoThree":"USA","numberCode":840,"createDate":"2012-01-03 02:41:33"}},{"id":"NcSBVV","name":"Main Brewery","streetAddress":"2030 South Cherokee Street","locality":"Denver","region":"Colorado","postalCode":"80223","phone":"(303) 955-7410","website":"http://www.declarationbrewing.com/","latitude":39.6796071,"longitude":-104.9910971,"isPrimary":"Y","inPlanning":"Y","isClosed":"N","openToPublic":"Y","locationType":"micro","locationTypeDisplay":"Micro Brewery","countryIsoCode":"US","yearOpened":"2014","status":"verified","statusDisplay":"Verified","createDate":"2012-12-19 11:46:15","updateDate":"2014-07-23 19:11:34","country":{"isoCode":"US","name":"UNITED STATES","displayName":"United States","isoThree":"USA","numberCode":840,"createDate":"2012-01-03 02:41:33"}},{"id":"IQszxN","name":"Main Brewery","streetAddress":"1875 South Pearl Street","locality":"Denver","region":"Colorado","postalCode":"80210","phone":"(303) 968-6674","website":"http://www.denverpearlbrewing.com/","hoursOfOperation":"Tue:  3:00pm - 10:00pm\nWed:  3:00pm - 10:00pm\nThu:  3:00pm - 10:00pm\nFri:  3:00pm - 12:00am\nSat:  12:00pm - 12:00am\nSun:  12:00pm - 8:00pm\n\n","latitude":39.6825659,"longitude":-104.9807821,"isPrimary":"Y","inPlanning":"N","isClosed":"N","openToPublic":"Y","locationType":"micro","locationTypeDisplay":"Micro Brewery","countryIsoCode":"US","yearOpened":"2014","status":"verified","statusDisplay":"Verified","createDate":"2014-04-20 15:35:15","updateDate":"2014-09-11 10:28:04","country":{"isoCode":"US","name":"UNITED STATES","displayName":"United States","isoThree":"USA","numberCode":840,"createDate":"2012-01-03 02:41:33"}},{"id":"NZ6xv9","name":"Main Brewery","region":"North Carolina","latitude":35.7595731,"longitude":-79.0192997,"isPrimary":"Y","inPlanning":"N","isClosed":"Y","openToPublic":"N","locationType":"micro","locationTypeDisplay":"Micro Brewery","countryIsoCode":"US","status":"verified","statusDisplay":"Verified","createDate":"2014-10-15 13:22:54","updateDate":"2014-10-15 13:22:54","country":{"isoCode":"US","name":"UNITED STATES","displayName":"United States","isoThree":"USA","numberCode":840,"createDate":"2012-01-03 02:41:33"}},{"id":"KBQTlS","name":"Main Office","streetAddress":"PO BOX 768","locality":"Belgrade","region":"Montana","postalCode":"59714","website":"http://dogtagbrewing.com","latitude":45.7762463,"longitude":-111.1770945,"isPrimary":"Y","inPlanning":"N","isClosed":"N","openToPublic":"N","locationType":"office","locationTypeDisplay":"Office","countryIsoCode":"US","yearOpened":"2014","status":"verified","statusDisplay":"Verified","createDate":"2014-07-31 11:26:37","updateDate":"2014-07-31 11:26:37","country":{"isoCode":"US","name":"UNITED STATES","displayName":"United States","isoThree":"USA","numberCode":840,"createDate":"2012-01-03 02:41:33"}},{"id":"G6YxtQ","name":"Main Brewery","region":"Lisbon","website":"http://www.doiscorvos.pt","latitude":38.7222524,"longitude":-9.1393366,"isPrimary":"Y","inPlanning":"N","isClosed":"N","openToPublic":"Y","locationType":"micro","locationTypeDisplay":"Micro Brewery","countryIsoCode":"PT","yearOpened":"2013","status":"verified","statusDisplay":"Verified","createDate":"2014-07-04 13:47:11","updateDate":"2014-07-23 19:11:34","country":{"isoCode":"PT","name":"PORTUGAL","displayName":"Portugal","isoThree":"PRT","numberCode":620,"createDate":"2012-01-03 02:41:33"}},{"id":"hwEiEq","name":"Main Brewery","streetAddress":"2502 NE 99th St.","locality":"Vancouver","region":"Washington","postalCode":"98665","phone":"(360) 907-5908","website":"http://www.doomsdaybrewing.com","latitude":45.693407,"longitude":-122.645648,"isPrimary":"Y","inPlanning":"N","isClosed":"N","openToPublic":"Y","locationType":"micro","locationTypeDisplay":"Micro Brewery","countryIsoCode":"US","yearOpened":"2014","status":"verified","statusDisplay":"Verified","createDate":"2014-03-22 13:18:28","updateDate":"2014-07-23 19:11:34","country":{"isoCode":"US","name":"UNITED STATES","displayName":"United States","isoThree":"USA","numberCode":840,"createDate":"2012-01-03 02:41:33"}},{"id":"aDE9V0","name":"Main Brewery","streetAddress":"341 Broad Street","extendedAddress":"Suite 151","locality":"Fuquay-Varina","region":"North Carolina","postalCode":"27526","hoursOfOperation":"Wed-Thurs: 4PM-10PM, \r\nFri: 4PM-11PM,\r\nSat: Noon-11PM, \r\nSun: 1PM-8PM","latitude":35.5952588,"longitude":-78.7969578,"isPrimary":"Y","inPlanning":"N","isClosed":"N","openToPublic":"Y","locationType":"micro","locationTypeDisplay":"Micro Brewery","countryIsoCode":"US","yearOpened":"2014","status":"verified","statusDisplay":"Verified","createDate":"2014-03-17 15:01:53","updateDate":"2014-07-23 19:11:34","country":{"isoCode":"US","name":"UNITED STATES","displayName":"United States","isoThree":"USA","numberCode":840,"createDate":"2012-01-03 02:41:33"}},{"id":"90COF6","name":"Main Brewery","streetAddress":"17035 N 67th Ave","extendedAddress":"Suites 6-7","locality":"Glendale","region":"Arizona","postalCode":"85308","website":"http://DubinaBrew.com","hoursOfOperation":"Mon:  3:00pm - 10:00pm\nWed:  3:00pm - 10:00pm\nThu:  3:00pm - 10:00pm\nFri:  3:00pm - 12:00am\nSat:  11:00am - 12:00am\nSun:  11:00am - 9:00pm\n\n","latitude":33.639765,"longitude":-112.2022065,"isPrimary":"Y","inPlanning":"N","isClosed":"N","openToPublic":"Y","locationType":"micro","locationTypeDisplay":"Micro Brewery","countryIsoCode":"US","status":"verified","statusDisplay":"Verified","createDate":"2014-07-28 11:12:43","updateDate":"2014-07-28 11:12:43","country":{"isoCode":"US","name":"UNITED STATES","displayName":"United States","isoThree":"USA","numberCode":840,"createDate":"2012-01-03 02:41:33"}},{"id":"y8IIGV","name":"Main Brewery","streetAddress":"59 School Ground Road","extendedAddress":"Unit #10","locality":"Branford","region":"Connecticut","postalCode":"06405","phone":"(203) 208-2213","website":"http://www.duvig.com","hoursOfOperation":"Fri:  3:00pm - 8:00pm\nSat:  12:00pm - 7:00pm\nSun:  12:00pm - 5:00pm\n\n","latitude":41.3022357,"longitude":-72.7688238,"isPrimary":"N","inPlanning":"N","isClosed":"N","openToPublic":"Y","locationType":"micro","locationTypeDisplay":"Micro Brewery","countryIsoCode":"US","yearOpened":"2014","status":"verified","statusDisplay":"Verified","createDate":"2014-08-24 01:06:56","updateDate":"2014-08-25 11:56:34","country":{"isoCode":"US","name":"UNITED STATES","displayName":"United States","isoThree":"USA","numberCode":840,"createDate":"2012-01-03 02:41:33"}},{"id":"t2vl8N","name":"Elk Brewing","streetAddress":"700 Wealthy St. Southeast","locality":"Grand Rapids","region":"Michigan","postalCode":"49503","phone":"(616) 238-5227","website":"https://www.facebook.com/ElkBrewing","hoursOfOperation":"Mon:  3:00pm - 12:00am\nTue:  3:00pm - 12:00am\nWed:  3:00pm - 12:00am\nThu:  3:00pm - 12:00am\nFri:  11:00am - 2:00am\nSat:  11:00am - 2:00am\nSun:  12:00pm - 11:00pm\n\n","latitude":42.955433,"longitude":-85.651544,"isPrimary":"Y","inPlanning":"N","isClosed":"N","openToPublic":"Y","locationType":"micro","locationTypeDisplay":"Micro Brewery","countryIsoCode":"US","yearOpened":"2014","status":"verified","statusDisplay":"Verified","createDate":"2014-08-06 17:27:26","updateDate":"2014-08-07 11:21:47","country":{"isoCode":"US","name":"UNITED STATES","displayName":"United States","isoThree":"USA","numberCode":840,"createDate":"2012-01-03 02:41:33"}},{"id":"vUeGen","name":"Eternity Brewing Company","streetAddress":"4060 E Grand River","locality":"Howell","region":"Michigan","postalCode":"48843","website":"http://eternitybrewing.com/","latitude":42.586286,"longitude":-83.872758,"isPrimary":"Y","inPlanning":"Y","isClosed":"N","openToPublic":"Y","locationType":"micro","locationTypeDisplay":"Micro Brewery","countryIsoCode":"US","yearOpened":"2014","status":"verified","statusDisplay":"Verified","createDate":"2014-09-03 14:02:45","updateDate":"2014-09-04 11:16:05","country":{"isoCode":"US","name":"UNITED STATES","displayName":"United States","isoThree":"USA","numberCode":840,"createDate":"2012-01-03 02:41:33"}},{"id":"g7ABnw","name":"Main Brewery","streetAddress":"1715 East Evans Avenue","locality":"Denver","region":"Colorado","postalCode":"80210","website":"http://www.fermaentra.com/","latitude":39.6787089,"longitude":-104.9670457,"isPrimary":"Y","inPlanning":"N","isClosed":"N","openToPublic":"Y","locationType":"micro","locationTypeDisplay":"Micro Brewery","countryIsoCode":"US","status":"verified","statusDisplay":"Verified","createDate":"2014-04-20 15:16:27","updateDate":"2014-11-20 13:45:06","country":{"isoCode":"US","name":"UNITED STATES","displayName":"United States","isoThree":"USA","numberCode":840,"createDate":"2012-01-03 02:41:33"}},{"id":"rndmxL","name":"Primary","streetAddress":"7101 East Colfax Avenue","locality":"Denver","region":"Colorado","postalCode":"80220","phone":"(303) 93106112","website":"http://www.fictionbeer.com/","latitude":39.7402193,"longitude":-104.9057379,"isPrimary":"Y","inPlanning":"N","isClosed":"N","openToPublic":"Y","locationType":"micro","locationTypeDisplay":"Micro Brewery","countryIsoCode":"US","yearOpened":"2014","status":"verified","statusDisplay":"Verified","createDate":"2014-04-06 20:09:06","updateDate":"2014-10-10 02:05:23","country":{"isoCode":"US","name":"UNITED STATES","displayName":"United States","isoThree":"USA","numberCode":840,"createDate":"2012-01-03 02:41:33"}},{"id":"jRzF7z","name":"Main Brewery","streetAddress":"1305 Cleveland Ave.","locality":"Santa Rosa","region":"California","postalCode":"95401","phone":"(707) 978-3400","website":"http://www.fogbeltbrewing.com/","hoursOfOperation":"Thursday 2-8pm\r\nFriday and Saturday 11-10pm\r\nSunday 11-8pm","latitude":38.448869,"longitude":-122.7265397,"isPrimary":"Y","inPlanning":"N","isClosed":"N","openToPublic":"Y","locationType":"micro","locationTypeDisplay":"Micro Brewery","countryIsoCode":"US","yearOpened":"2013","status":"verified","statusDisplay":"Verified","createDate":"2014-02-11 23:37:51","updateDate":"2014-07-23 19:11:34","country":{"isoCode":"US","name":"UNITED STATES","displayName":"United States","isoThree":"USA","numberCode":840,"createDate":"2012-01-03 02:41:33"}},{"id":"RuR2VI","name":"Main Brewery","streetAddress":"116 S Franklin St","locality":"Manchester","region":"Iowa","postalCode":"52057","phone":"(563) 927-2722","website":"http://franklinstreetbrewing.com","hoursOfOperation":"Wed:  3:30pm - 10:00pm\nThu:  3:30pm - 10:00pm\nFri:  3:30pm - 11:59pm\nSat:  12:01pm - 11:59pm\nSun:  1:00pm - 7:00pm\n\n","latitude":42.4838073,"longitude":-91.457904,"isPrimary":"Y","inPlanning":"N","isClosed":"N","openToPublic":"Y","locationType":"micro","locationTypeDisplay":"Micro Brewery","countryIsoCode":"US","yearOpened":"2014","status":"verified","statusDisplay":"Verified","createDate":"2014-08-08 10:41:34","updateDate":"2014-08-08 10:41:34","country":{"isoCode":"US","name":"UNITED STATES","displayName":"United States","isoThree":"USA","numberCode":840,"createDate":"2012-01-03 02:41:33"}},{"id":"uFMITl","name":"Brewpub","streetAddress":"108 E 6th St","locality":"Bloomington","region":"Indiana","postalCode":"47408","phone":"(812) 676-1000","website":"http://www.functionbrewing.com","hoursOfOperation":"Wed - Thu: 3:00 pm - 10:00 pm\r\nFri: 3:00 pm - 12:00 am\r\nSat: 11:00 am - 12:00 am\r\nSun: 11:00 am - 9:00 pm","latitude":39.167359,"longitude":-86.533077,"isPrimary":"Y","inPlanning":"N","isClosed":"N","openToPublic":"Y","locationType":"brewpub","locationTypeDisplay":"Brewpub","countryIsoCode":"US","yearOpened":"2014","status":"verified","statusDisplay":"Verified","createDate":"2014-06-02 12:21:41","updateDate":"2014-07-23 19:11:34","country":{"isoCode":"US","name":"UNITED STATES","displayName":"United States","isoThree":"USA","numberCode":840,"createDate":"2012-01-03 02:41:33"}},{"id":"cH5cqq","name":"Main Brewery","streetAddress":"19 S Sixth St","locality":"Emmaus","region":"Pennsylvania","postalCode":"18049","website":"http://www.funkbrewing.com","latitude":40.533338,"longitude":-75.494332,"isPrimary":"Y","inPlanning":"N","isClosed":"N","openToPublic":"Y","locationType":"micro","locationTypeDisplay":"Micro Brewery","countryIsoCode":"US","status":"verified","statusDisplay":"Verified","createDate":"2014-07-28 13:40:46","updateDate":"2014-07-28 13:40:46","country":{"isoCode":"US","name":"UNITED STATES","displayName":"United States","isoThree":"USA","numberCode":840,"createDate":"2012-01-03 02:41:33"}},{"id":"JYmUfw","name":"Main Brewery","streetAddress":"8423 Stewart Rd","locality":"Galveston","region":"Texas","postalCode":"77554","phone":"(409) 740-7000","website":"http://www.galvestonislandbrewing.com","hoursOfOperation":"Mon:  4:00pm - 10:00pm\nTue:  4:00pm - 10:00pm\nWed:  4:00pm - 10:00pm\nThu:  4:00pm - 10:00pm\nFri:  3:00pm - 12:00am\nSat:  12:00pm - 12:00am\nSun:  12:00pm - 12:00am\n\n","latitude":29.255666,"longitude":-94.8491449,"isPrimary":"Y","inPlanning":"N","isClosed":"N","openToPublic":"Y","locationType":"micro","locationTypeDisplay":"Micro Brewery","countryIsoCode":"US","yearOpened":"2014","status":"verified","statusDisplay":"Verified","createDate":"2014-06-27 19:36:55","updateDate":"2014-09-30 13:39:37","country":{"isoCode":"US","name":"UNITED STATES","displayName":"United States","isoThree":"USA","numberCode":840,"createDate":"2012-01-03 02:41:33"}},{"id":"RWa0Ki","name":"Gift Horse Brewery","locality":"York","region":"Pennsylvania","latitude":39.9625984,"longitude":-76.727745,"isPrimary":"Y","inPlanning":"N","isClosed":"N","openToPublic":"Y","locationType":"micro","locationTypeDisplay":"Micro Brewery","countryIsoCode":"US","status":"verified","statusDisplay":"Verified","createDate":"2014-10-07 16:57:44","updateDate":"2014-10-07 16:57:44","country":{"isoCode":"US","name":"UNITED STATES","displayName":"United States","isoThree":"USA","numberCode":840,"createDate":"2012-01-03 02:41:33"}},{"id":"d5f81e","name":"Main Brewery","streetAddress":"600 Wise Rd","locality":"Lincoln","region":"California","postalCode":"95648","phone":"(916) 740-9100","website":"http://www.goathousebrewing.com/","hoursOfOperation":"Thu:  2:00pm - 6:00pm\nFri:  2:00pm - 6:00pm\nSat:  11:00am - 4:00pm\nSun:  11:00am - 4:00pm\n\n","latitude":38.9244148,"longitude":-121.2687325,"isPrimary":"Y","inPlanning":"N","isClosed":"N","openToPublic":"Y","locationType":"micro","locationTypeDisplay":"Micro Brewery","countryIsoCode":"US","yearOpened":"2013","status":"verified","statusDisplay":"Verified","createDate":"2014-08-11 11:47:38","updateDate":"2014-08-11 11:47:38","country":{"isoCode":"US","name":"UNITED STATES","displayName":"United States","isoThree":"USA","numberCode":840,"createDate":"2012-01-03 02:41:33"}},{"id":"FTuynu","name":"Goldspot Brewing Company","streetAddress":"4970 Lowell Blvd","locality":"Denver","region":"Colorado","postalCode":"80221","phone":"(303) 350-0287","website":"http://goldspotbrewing.com/","hoursOfOperation":"Thu: 4:00 pm - 10:00 pm\r\nFri: 3:00 pm - 10:00 pm\r\nSat-Sun: noon - 10:00 pm","latitude":39.786894,"longitude":-105.0343153,"isPrimary":"Y","inPlanning":"Y","isClosed":"N","openToPublic":"Y","locationType":"micro","locationTypeDisplay":"Micro Brewery","countryIsoCode":"US","yearOpened":"2014","status":"verified","statusDisplay":"Verified","createDate":"2014-04-06 12:25:49","updateDate":"2014-07-23 19:11:34","country":{"isoCode":"US","name":"UNITED STATES","displayName":"United States","isoThree":"USA","numberCode":840,"createDate":"2012-01-03 02:41:33"}},{"id":"jG3j2h","name":"Main Brewery","streetAddress":"811 Harper Avenue","locality":"Carolina Beach","region":"North Carolina","postalCode":"28428","phone":"(706) 713-1594","website":"https://www.goodhopsbrewing.com","latitude":34.041266,"longitude":-77.904635,"isPrimary":"Y","inPlanning":"Y","isClosed":"N","openToPublic":"Y","locationType":"micro","locationTypeDisplay":"Micro Brewery","countryIsoCode":"US","status":"verified","statusDisplay":"Verified","createDate":"2014-03-17 14:46:23","updateDate":"2014-07-23 19:11:34","country":{"isoCode":"US","name":"UNITED STATES","displayName":"United States","isoThree":"USA","numberCode":840,"createDate":"2012-01-03 02:41:33"}},{"id":"mRoh76","name":"Main Brewpub","streetAddress":"315 W Washington St","locality":"Goshen","region":"Indiana","postalCode":"46526","phone":"(843) 469-0314","website":"http://goshenbrewing.com/","latitude":41.585411,"longitude":-85.83884,"isPrimary":"Y","inPlanning":"Y","isClosed":"N","openToPublic":"Y","locationType":"brewpub","locationTypeDisplay":"Brewpub","countryIsoCode":"US","status":"verified","statusDisplay":"Verified","createDate":"2014-09-05 12:10:22","updateDate":"2014-09-05 12:10:22","country":{"isoCode":"US","name":"UNITED STATES","displayName":"United States","isoThree":"USA","numberCode":840,"createDate":"2012-01-03 02:41:33"}},{"id":"a1IdPi","name":"Main Brewery","streetAddress":"2120 Bardstown Road","locality":"Louisville","region":"Kentucky","postalCode":"40205","phone":"(502) 457-7711","website":"http://greatfloodbrewing.com/","hoursOfOperation":"Thu - Fri: 4:00 pm - 12:00 am\r\nSat: 2:00 pm - 12:00 am\r\nSun: 1:00 pm - 10:00 pm","latitude":38.2246795,"longitude":-85.6944461,"isPrimary":"Y","inPlanning":"N","isClosed":"N","openToPublic":"Y","locationType":"micro","locationTypeDisplay":"Micro Brewery","countryIsoCode":"US","yearOpened":"2014","status":"verified","statusDisplay":"Verified","createDate":"2014-05-26 13:33:37","updateDate":"2014-07-23 19:11:34","country":{"isoCode":"US","name":"UNITED STATES","displayName":"United States","isoThree":"USA","numberCode":840,"createDate":"2012-01-03 02:41:33"}},{"id":"2b0qJ7","name":"Main Brewery","streetAddress":"3227 Laconia Ave","locality":"Bronx","region":"New York","postalCode":"10469","phone":"(718) 881-0010","website":"http://gunhillbrewing.com","hoursOfOperation":"Mon:  1:00pm - 9:00pm\nTue:  1:00pm - 9:00pm\nWed:  1:00pm - 9:00pm\nThu:  1:00pm - 9:00pm\nFri:  1:00pm - 10:00pm\nSat:  12:00pm - 10:00pm\nSun:  12:00pm - 7:00pm\n\n","latitude":40.872112,"longitude":-73.855929,"isPrimary":"Y","inPlanning":"N","isClosed":"N","openToPublic":"Y","locationType":"micro","locationTypeDisplay":"Micro Brewery","countryIsoCode":"US","status":"verified","statusDisplay":"Verified","createDate":"2014-07-25 14:24:30","updateDate":"2014-07-25 14:24:30","country":{"isoCode":"US","name":"UNITED STATES","displayName":"United States","isoThree":"USA","numberCode":840,"createDate":"2012-01-03 02:41:33"}},{"id":"oOHh0T","name":"Main Brewery","locality":"Vancouver","region":"WA","latitude":45.6387281,"longitude":-122.6614861,"isPrimary":"Y","inPlanning":"N","isClosed":"N","openToPublic":"Y","locationType":"micro","locationTypeDisplay":"Micro Brewery","countryIsoCode":"US","status":"verified","statusDisplay":"Verified","createDate":"2014-10-01 18:48:40","updateDate":"2014-10-01 18:48:40","country":{"isoCode":"US","name":"UNITED STATES","displayName":"United States","isoThree":"USA","numberCode":840,"createDate":"2012-01-03 02:41:33"}},{"id":"6wKutG","name":"Main Brewery","streetAddress":"1002 Henderson Dr","extendedAddress":"Suite A","locality":"Jacksonville","region":"North Carolina","postalCode":"28540","phone":"(910) 526-1536","website":"http://www.hightidebrewing.com","latitude":34.780164,"longitude":-77.425459,"isPrimary":"Y","inPlanning":"N","isClosed":"N","openToPublic":"Y","locationType":"micro","locationTypeDisplay":"Micro Brewery","countryIsoCode":"US","yearOpened":"2014","status":"verified","statusDisplay":"Verified","createDate":"2014-03-17 14:44:26","updateDate":"2014-07-23 19:11:34","country":{"isoCode":"US","name":"UNITED STATES","displayName":"United States","isoThree":"USA","numberCode":840,"createDate":"2012-01-03 02:41:33"}},{"id":"dOz7ZP","name":"Main Brewery","locality":"Fairland","region":"Indiana","postalCode":"46126","website":"http://www.HoosierBrewingco.com","latitude":39.5858806,"longitude":-85.8635919,"isPrimary":"Y","inPlanning":"Y","isClosed":"N","openToPublic":"Y","locationType":"micro","locationTypeDisplay":"Micro Brewery","countryIsoCode":"US","status":"verified","statusDisplay":"Verified","createDate":"2014-09-05 12:15:28","updateDate":"2014-09-05 12:15:28","country":{"isoCode":"US","name":"UNITED STATES","displayName":"United States","isoThree":"USA","numberCode":840,"createDate":"2012-01-03 02:41:33"}},{"id":"Qtw1FC","name":"Main Brewery","streetAddress":"80 Ethan Allen Dr","locality":"South Burlington","region":"Vermont","postalCode":"05403","phone":"(802) 735-1288","website":"http://infinitybrewing.com/","hoursOfOperation":"Thu:  4:00pm - 8:00pm\nFri:  4:00pm - 8:00pm\nSat:  12:00pm - 6:00pm\nSun:  12:00pm - 4:00pm\n\n","latitude":44.48354,"longitude":-73.156578,"isPrimary":"Y","inPlanning":"N","isClosed":"N","openToPublic":"Y","locationType":"micro","locationTypeDisplay":"Micro Brewery","countryIsoCode":"US","status":"verified","statusDisplay":"Verified","createDate":"2014-09-07 17:48:04","updateDate":"2014-09-07 17:48:04","country":{"isoCode":"US","name":"UNITED STATES","displayName":"United States","isoThree":"USA","numberCode":840,"createDate":"2012-01-03 02:41:33"}},{"id":"yHMNW9","name":"Main Brewery","streetAddress":"1215 Mango Avenue","locality":"Sarasota","region":"Florida","postalCode":"34237","phone":"(941) 955-2739","website":"http://www.jdubsbrewing.com/","latitude":27.348907,"longitude":-82.525404,"isPrimary":"Y","inPlanning":"N","isClosed":"N","openToPublic":"Y","locationType":"micro","locationTypeDisplay":"Micro Brewery","countryIsoCode":"US","status":"verified","statusDisplay":"Verified","createDate":"2013-12-29 23:49:39","updateDate":"2014-07-23 19:11:34","country":{"isoCode":"US","name":"UNITED STATES","displayName":"United States","isoThree":"USA","numberCode":840,"createDate":"2012-01-03 02:41:33"}},{"id":"ik6B7t","name":"Main Brewery","streetAddress":"7407 Saint Charles Ave","locality":"New Orleans","region":"Louisiana","postalCode":"70118","phone":"504-258-0658","website":"http://lafittebrewing.com/","latitude":29.938488,"longitude":-90.1283143,"isPrimary":"Y","inPlanning":"N","isClosed":"N","openToPublic":"Y","locationType":"micro","locationTypeDisplay":"Micro Brewery","countryIsoCode":"US","status":"verified","statusDisplay":"Verified","createDate":"2012-01-03 02:42:00","updateDate":"2014-07-23 19:11:34","country":{"isoCode":"US","name":"UNITED STATES","displayName":"United States","isoThree":"USA","numberCode":840,"createDate":"2012-01-03 02:41:33"}},{"id":"u7xp1I","name":"Main Brewery","streetAddress":"159 Barley Park Lane","locality":"Mooresville","region":"North Carolina","postalCode":"28115","phone":"(704) 660-1182","website":"http://lakenormanbrewingcompany.com/","hoursOfOperation":"Tuesdays and Thursdays 4 pm - 7 pm\r\nSaturdays 2 pm - 8 pm","latitude":35.6244756,"longitude":-80.8034742,"isPrimary":"Y","inPlanning":"N","isClosed":"N","openToPublic":"Y","locationType":"micro","locationTypeDisplay":"Micro Brewery","countryIsoCode":"US","yearOpened":"2014","status":"verified","statusDisplay":"Verified","createDate":"2014-03-05 14:17:19","updateDate":"2014-07-23 19:11:34","country":{"isoCode":"US","name":"UNITED STATES","displayName":"United States","isoThree":"USA","numberCode":840,"createDate":"2012-01-03 02:41:33"}},{"id":"H2WwWh","name":"Main Brewery","locality":"Franklin","region":"North Carolina","website":"http://www.lazyhikerbrewing.com/","latitude":35.1823171,"longitude":-83.3815429,"isPrimary":"Y","inPlanning":"Y","isClosed":"N","openToPublic":"Y","locationType":"micro","locationTypeDisplay":"Micro Brewery","countryIsoCode":"US","status":"verified","statusDisplay":"Verified","createDate":"2014-08-31 13:20:34","updateDate":"2014-08-31 13:20:34","country":{"isoCode":"US","name":"UNITED STATES","displayName":"United States","isoThree":"USA","numberCode":840,"createDate":"2012-01-03 02:41:33"}},{"id":"4E9qej","name":"Main Brewery","streetAddress":"59 16th Ave SW","locality":"Cedar Rapids","region":"Iowa","postalCode":"52404","phone":"(319) 200-4460","website":"http://lionbridgebrewing.com","hoursOfOperation":"Wed:  3:00pm - 10:00pm\nThu:  3:00pm - 10:00pm\nFri:  3:00pm - 10:00pm\nSat:  12:00pm - 10:00pm\nSun:  12:00pm - 8:00pm\n\n","latitude":41.9650801,"longitude":-91.6603498,"isPrimary":"Y","inPlanning":"N","isClosed":"N","openToPublic":"Y","locationType":"micro","locationTypeDisplay":"Micro Brewery","countryIsoCode":"US","yearOpened":"2014","status":"verified","statusDisplay":"Verified","createDate":"2014-08-08 10:42:52","updateDate":"2014-08-08 10:42:52","country":{"isoCode":"US","name":"UNITED STATES","displayName":"United States","isoThree":"USA","numberCode":840,"createDate":"2012-01-03 02:41:33"}},{"id":"dACAeT","name":"Lowdown Brewery + Kitchen","streetAddress":"800 Lincoln Street","locality":"Denver","region":"Colorado","postalCode":"80203","phone":"(720) 524-8065","website":"http://www.lowdownbrewery.com/","hoursOfOperation":"Sun-Thur: 11:00AM - 12:00AM\r\nFri & Sat: 11:00AM - 1:00AM","latitude":39.729689,"longitude":-104.98576,"isPrimary":"Y","inPlanning":"N","isClosed":"N","openToPublic":"Y","locationType":"brewpub","locationTypeDisplay":"Brewpub","countryIsoCode":"US","yearOpened":"2014","status":"verified","statusDisplay":"Verified","createDate":"2014-04-06 12:10:22","updateDate":"2014-07-23 19:11:34","country":{"isoCode":"US","name":"UNITED STATES","displayName":"United States","isoThree":"USA","numberCode":840,"createDate":"2012-01-03 02:41:33"}},{"id":"Nl2U0R","name":"Moses Bates Public House","streetAddress":"422 N Main St","locality":"Hannibal","region":"MO","phone":"573-406-1300","hoursOfOperation":"Mon:  11:00am - 10:00pm\nTue:  11:00am - 10:00pm\nWed:  11:00am - 10:00pm\nThu:  11:00am - 10:00pm\nFri:  11:00am - 1:30am\nSat:  11:00am - 1:30am\nSun:  11:00am - 9:00pm\n\n","latitude":39.7122401,"longitude":-91.3575565,"isPrimary":"Y","inPlanning":"N","isClosed":"N","openToPublic":"Y","locationType":"brewpub","locationTypeDisplay":"Brewpub","countryIsoCode":"US","status":"verified","statusDisplay":"Verified","createDate":"2014-09-24 17:57:21","updateDate":"2014-09-24 17:57:21","country":{"isoCode":"US","name":"UNITED STATES","displayName":"United States","isoThree":"USA","numberCode":840,"createDate":"2012-01-03 02:41:33"}},{"id":"YCE6yo","name":"Main Brewpub","streetAddress":"2440 E Market St","locality":"York","region":"Pennsylvania","postalCode":"17402","phone":"(717) 600-8226","website":"http://www.Mexitaly.com","hoursOfOperation":"Mon - Sun: 11:00 am - 10:00 pm","latitude":39.9743226,"longitude":-76.6792009,"isPrimary":"Y","inPlanning":"N","isClosed":"N","openToPublic":"Y","locationType":"brewpub","locationTypeDisplay":"Brewpub","countryIsoCode":"US","yearOpened":"2014","status":"verified","statusDisplay":"Verified","createDate":"2014-06-30 12:08:36","updateDate":"2014-07-23 19:11:34","country":{"isoCode":"US","name":"UNITED STATES","displayName":"United States","isoThree":"USA","numberCode":840,"createDate":"2012-01-03 02:41:33"}},{"id":"XZa7tI","name":"Mockery Brewing Co.","streetAddress":"3501 Delgany Street","locality":"Denver","region":"Colorado","postalCode":"80126","phone":"303.808.4011","website":"http://mockerybrewing.blogspot.com/","latitude":39.7712142,"longitude":-104.9797391,"isPrimary":"Y","inPlanning":"N","isClosed":"N","openToPublic":"Y","locationType":"micro","locationTypeDisplay":"Micro Brewery","countryIsoCode":"US","status":"verified","statusDisplay":"Verified","createDate":"2014-04-04 09:34:34","updateDate":"2014-11-20 13:44:14","country":{"isoCode":"US","name":"UNITED STATES","displayName":"United States","isoThree":"USA","numberCode":840,"createDate":"2012-01-03 02:41:33"}},{"id":"HoF0rr","name":"Main Brewery","streetAddress":"9786 Bonita Beach Road SE","extendedAddress":"STE 1-2","locality":"Bonita Springs","region":"Florida","postalCode":"34135","phone":"(239) 398-4450","website":"http://www.momentumbrewhouse.com/","latitude":26.33146,"longitude":-81.789762,"isPrimary":"Y","inPlanning":"Y","isClosed":"N","openToPublic":"Y","locationType":"micro","locationTypeDisplay":"Micro Brewery","countryIsoCode":"US","status":"verified","statusDisplay":"Verified","createDate":"2014-03-05 14:12:34","updateDate":"2014-07-23 19:11:34","country":{"isoCode":"US","name":"UNITED STATES","displayName":"United States","isoThree":"USA","numberCode":840,"createDate":"2012-01-03 02:41:33"}},{"id":"ab5Bfa","name":"Main Brewery","streetAddress":"1014 - 9th Street West","locality":"Bradenton","region":"Florida","postalCode":"34205","phone":"(941) 896-9892","website":"http://www.motorworksbrewing.com","latitude":27.4908,"longitude":-82.571578,"isPrimary":"Y","inPlanning":"N","isClosed":"N","openToPublic":"Y","locationType":"micro","locationTypeDisplay":"Micro Brewery","countryIsoCode":"US","status":"verified","statusDisplay":"Verified","createDate":"2013-12-29 23:51:02","updateDate":"2014-07-23 19:11:34","country":{"isoCode":"US","name":"UNITED STATES","displayName":"United States","isoThree":"USA","numberCode":840,"createDate":"2012-01-03 02:41:33"}},{"id":"QTDYEy","name":"Main Brewery","streetAddress":"9735 E. Colfax Ave.","locality":"Aurora","region":"Colorado","postalCode":"80010","website":"http://www.brewbymu.com/","hoursOfOperation":"Thursday: 4pm - 10pm\r\nFriday: 2pm - Midnight\r\nSaturday: 10am - Midnight\r\nSunday: 10am - 10pm","latitude":39.740434,"longitude":-104.8746332,"isPrimary":"Y","inPlanning":"N","isClosed":"N","openToPublic":"Y","locationType":"micro","locationTypeDisplay":"Micro Brewery","countryIsoCode":"US","yearOpened":"2014","status":"verified","statusDisplay":"Verified","createDate":"2014-06-23 11:47:13","updateDate":"2014-07-23 19:11:34","country":{"isoCode":"US","name":"UNITED STATES","displayName":"United States","isoThree":"USA","numberCode":840,"createDate":"2012-01-03 02:41:33"}},{"id":"73jOLj","name":"Northport Brewing Company","streetAddress":"112 W Naganoba St","locality":"Northport","region":"Michigan","postalCode":"49670","phone":"(231) 386-1101","website":"http://www.localbeerisbetter.com/","hoursOfOperation":"Wed - Sat: 3:00 pm - 11:00 pm","latitude":45.1313875,"longitude":-85.6167509,"isPrimary":"Y","inPlanning":"N","isClosed":"N","openToPublic":"Y","locationType":"micro","locationTypeDisplay":"Micro Brewery","countryIsoCode":"US","yearOpened":"2014","status":"verified","statusDisplay":"Verified","createDate":"2014-07-07 21:36:10","updateDate":"2014-07-23 19:11:34","country":{"isoCode":"US","name":"UNITED STATES","displayName":"United States","isoThree":"USA","numberCode":840,"createDate":"2012-01-03 02:41:33"}},{"id":"s6xmV6","name":"Oasis Texas Brewing Company","streetAddress":"6550 Comanche Trail","extendedAddress":"Suite 301","locality":"Austin","region":"Texas","postalCode":"78732","website":"http://otxbc.com","hoursOfOperation":"Thu: 5:00 pm - 10:00 pm\r\nFri: 2:00 pm - 12:00 am\r\nSat: 12:00 pm - 12:00 am\r\nSun: 2:00 pm - 10:00 pm","latitude":30.4058986,"longitude":-97.8739516,"isPrimary":"Y","inPlanning":"N","isClosed":"N","openToPublic":"Y","locationType":"micro","locationTypeDisplay":"Micro Brewery","countryIsoCode":"US","yearOpened":"2014","status":"verified","statusDisplay":"Verified","createDate":"2014-05-22 14:20:04","updateDate":"2014-07-23 19:11:34","country":{"isoCode":"US","name":"UNITED STATES","displayName":"United States","isoThree":"USA","numberCode":840,"createDate":"2012-01-03 02:41:33"}},{"id":"MJozk7","name":"Main Brewery","streetAddress":"7 Fox Hollow Rd","locality":"Oxford","region":"Connecticut","postalCode":"06478","phone":"(203) 295-2831","website":"http://oecbrewing.com","hoursOfOperation":"Sat:  12:00pm - 7:00pm\n\n","latitude":41.4684694,"longitude":-73.1200339,"isPrimary":"Y","inPlanning":"N","isClosed":"N","openToPublic":"Y","locationType":"micro","locationTypeDisplay":"Micro Brewery","countryIsoCode":"US","status":"verified","statusDisplay":"Verified","createDate":"2014-08-07 11:23:25","updateDate":"2014-08-07 11:23:25","country":{"isoCode":"US","name":"UNITED STATES","displayName":"United States","isoThree":"USA","numberCode":840,"createDate":"2012-01-03 02:41:33"}},{"id":"rj6kKW","name":"Main Brewery","streetAddress":"44652 Guilford Dr","extendedAddress":"Suite 114","locality":"Ashburn","region":"Virginia","postalCode":"20147","phone":"(703) 729-8375","website":"http://www.oldoxbrewery.com","hoursOfOperation":"Thu:  4:00pm - 9:00pm\nFri:  4:00pm - 9:00pm\nSat:  11:00am - 9:00pm\nSun:  11:00am - 6:00pm\n\n","latitude":39.0238995,"longitude":-77.4553148,"isPrimary":"Y","inPlanning":"N","isClosed":"N","openToPublic":"Y","locationType":"micro","locationTypeDisplay":"Micro Brewery","countryIsoCode":"US","status":"verified","statusDisplay":"Verified","createDate":"2014-08-12 12:39:26","updateDate":"2014-08-12 12:39:26","country":{"isoCode":"US","name":"UNITED STATES","displayName":"United States","isoThree":"USA","numberCode":840,"createDate":"2012-01-03 02:41:33"}},{"id":"KQDQgO","name":"Main Brewery","streetAddress":"4213 Portage St","locality":"Kalamazoo","region":"Michigan","postalCode":"49001","phone":"(269) 459-9240","website":"http://onewellbrewing.com","hoursOfOperation":"Wed:  4:00pm - 10:00pm\nThu:  4:00pm - 10:00pm\nFri:  4:00pm - 12:00am\nSat:  12:00pm - 12:00am\nSun:  12:00pm - 10:00pm\n\n","latitude":42.2487815,"longitude":-85.5602303,"isPrimary":"Y","inPlanning":"N","isClosed":"N","openToPublic":"Y","locationType":"micro","locationTypeDisplay":"Micro Brewery","countryIsoCode":"US","status":"verified","statusDisplay":"Verified","createDate":"2014-11-13 18:56:27","updateDate":"2014-11-13 18:56:27","country":{"isoCode":"US","name":"UNITED STATES","displayName":"United States","isoThree":"USA","numberCode":840,"createDate":"2012-01-03 02:41:33"}},{"id":"Tge86Y","name":"Main Brewery","streetAddress":"10 Patton Ave","locality":"Asheville","region":"North Carolina","postalCode":"28801","phone":"(508) 982-3757","website":"http://www.oneworldbrewing.com/","hoursOfOperation":"Wed - Sun: 4:00 pm - 12:00 am","latitude":35.594796,"longitude":-82.552285,"isPrimary":"Y","inPlanning":"N","isClosed":"N","openToPublic":"Y","locationType":"micro","locationTypeDisplay":"Micro Brewery","countryIsoCode":"US","yearOpened":"2014","status":"verified","statusDisplay":"Verified","createDate":"2013-12-31 15:17:24","updateDate":"2014-07-23 19:11:34","country":{"isoCode":"US","name":"UNITED STATES","displayName":"United States","isoThree":"USA","numberCode":840,"createDate":"2012-01-03 02:41:33"}},{"id":"ze2p9e","name":"Main Brewery","streetAddress":"1440 Dutch Valley Pl NE","locality":"Atlanta","region":"Georgia","postalCode":"30324","website":"http://www.orpheusbrewing.com","latitude":33.7933915,"longitude":-84.3687604,"isPrimary":"Y","inPlanning":"N","isClosed":"N","openToPublic":"Y","locationType":"micro","locationTypeDisplay":"Micro Brewery","countryIsoCode":"US","status":"verified","statusDisplay":"Verified","createDate":"2014-07-21 10:37:27","updateDate":"2014-07-23 19:11:34","country":{"isoCode":"US","name":"UNITED STATES","displayName":"United States","isoThree":"USA","numberCode":840,"createDate":"2012-01-03 02:41:33"}},{"id":"Vru4ur","name":"Main Brewery","streetAddress":"409 S Treadaway Blvd","locality":"Abilene","region":"Texas","postalCode":"79602","phone":"(325) 201-4112","latitude":32.4445058,"longitude":-99.7269209,"isPrimary":"Y","inPlanning":"N","isClosed":"N","openToPublic":"Y","locationType":"micro","locationTypeDisplay":"Micro Brewery","countryIsoCode":"US","status":"verified","statusDisplay":"Verified","createDate":"2014-07-25 14:29:27","updateDate":"2014-07-25 14:29:27","country":{"isoCode":"US","name":"UNITED STATES","displayName":"United States","isoThree":"USA","numberCode":840,"createDate":"2012-01-03 02:41:33"}},{"id":"DmEvpT","name":"Main Brewery","streetAddress":"1211 N Las Brisas St.","locality":"Anaheim","region":"California","postalCode":"92806","phone":"(714) 630-9463","website":"http://www.phantomales.com","hoursOfOperation":"Mon:  11:00am - 7:00pm\nTue:  11:00am - 7:00pm\nWed:  11:00am - 9:00pm\nThu:  11:00am - 10:00pm\nFri:  11:00am - 11:00pm\nSat:  11:00am - 11:00pm\nSun:  11:00am - 6:00pm\n\n","latitude":33.854041,"longitude":-117.866804,"isPrimary":"Y","inPlanning":"N","isClosed":"N","openToPublic":"Y","locationType":"micro","locationTypeDisplay":"Micro Brewery","countryIsoCode":"US","status":"verified","statusDisplay":"Verified","createDate":"2014-07-25 14:36:59","updateDate":"2014-07-25 14:36:59","country":{"isoCode":"US","name":"UNITED STATES","displayName":"United States","isoThree":"USA","numberCode":840,"createDate":"2012-01-03 02:41:33"}},{"id":"q5xjyu","name":"Main Brewery","streetAddress":"840 E 5th St.","locality":"Reno","region":"Nevada","postalCode":"89512","hoursOfOperation":"Wed:  2:00pm - 8:00pm\nThu:  2:00pm - 8:00pm\nFri:  12:00pm - 8:00pm\nSat:  12:00pm - 8:00pm\nSun:  12:00pm - 5:00pm\n\n","latitude":39.533189,"longitude":-119.802863,"isPrimary":"Y","inPlanning":"N","isClosed":"N","openToPublic":"Y","locationType":"micro","locationTypeDisplay":"Micro Brewery","countryIsoCode":"US","status":"verified","statusDisplay":"Verified","createDate":"2014-07-25 14:40:20","updateDate":"2014-07-25 14:40:20","country":{"isoCode":"US","name":"UNITED STATES","displayName":"United States","isoThree":"USA","numberCode":840,"createDate":"2012-01-03 02:41:33"}},{"id":"84EPbp","name":"Main Brewery","streetAddress":"3025 Shore Drive","locality":"Virginia Beach","region":"Virginia","postalCode":"23451","phone":"(757) 647-8597","website":"http://www.pleasurehousebrewing.com","hoursOfOperation":"Thu: 4:00 pm - 9:00 pm\r\nFri: 4:00 pm - 10:00 pm\r\nSat: 12:00 pm - 10:00 pm\r\nSun: 12:00 pm - 8:00 pm","latitude":36.909833,"longitude":-76.078121,"isPrimary":"Y","inPlanning":"N","isClosed":"N","openToPublic":"Y","locationType":"micro","locationTypeDisplay":"Micro Brewery","countryIsoCode":"US","yearOpened":"2014","status":"verified","statusDisplay":"Verified","createDate":"2014-05-13 11:28:11","updateDate":"2014-07-23 19:11:34","country":{"isoCode":"US","name":"UNITED STATES","displayName":"United States","isoThree":"USA","numberCode":840,"createDate":"2012-01-03 02:41:33"}},{"id":"dTWACE","name":"Main Brewery","locality":"Boise","region":"Idaho","postalCode":"83705","phone":"(208) 954-0401","website":"http://powderhausbrewing.com/","latitude":43.5698551,"longitude":-116.2249298,"isPrimary":"Y","inPlanning":"Y","isClosed":"N","openToPublic":"Y","locationType":"micro","locationTypeDisplay":"Micro Brewery","countryIsoCode":"US","status":"verified","statusDisplay":"Verified","createDate":"2014-05-21 11:07:12","updateDate":"2014-07-23 19:11:34","country":{"isoCode":"US","name":"UNITED STATES","displayName":"United States","isoThree":"USA","numberCode":840,"createDate":"2012-01-03 02:41:33"}},{"id":"dWNb1s","name":"Main Brewpub","streetAddress":"28 State St","locality":"Auburn","region":"New York","postalCode":"13021","phone":"(315) 604-0763","website":"http://www.prisoncitybrewing.com/","latitude":42.9317983,"longitude":-76.5684195,"isPrimary":"Y","inPlanning":"Y","isClosed":"N","openToPublic":"Y","locationType":"brewpub","locationTypeDisplay":"Brewpub","countryIsoCode":"US","status":"verified","statusDisplay":"Verified","createDate":"2014-10-09 13:33:48","updateDate":"2014-10-09 13:33:48","country":{"isoCode":"US","name":"UNITED STATES","displayName":"United States","isoThree":"USA","numberCode":840,"createDate":"2012-01-03 02:41:33"}},{"id":"SPgY8L","name":"Main Brewery","locality":"San Diego","region":"California","phone":"(619) 234-5678","latitude":32.715738,"longitude":-117.1610838,"isPrimary":"Y","inPlanning":"Y","isClosed":"N","openToPublic":"N","locationType":"micro","locationTypeDisplay":"Micro Brewery","countryIsoCode":"US","status":"verified","statusDisplay":"Verified","createDate":"2014-07-25 14:46:42","updateDate":"2014-07-25 14:46:42","country":{"isoCode":"US","name":"UNITED STATES","displayName":"United States","isoThree":"USA","numberCode":840,"createDate":"2012-01-03 02:41:33"}},{"id":"SzT6OD","name":"Main Brewery","streetAddress":"115 E. Broadway Blvd","locality":"Tucson","region":"Arizona","postalCode":"85701","phone":"(520) 576-3830","website":"http://www.pueblovidabrewing.com/","latitude":32.2212112,"longitude":-110.9681168,"isPrimary":"Y","inPlanning":"N","isClosed":"N","openToPublic":"Y","locationType":"micro","locationTypeDisplay":"Micro Brewery","countryIsoCode":"US","status":"verified","statusDisplay":"Verified","createDate":"2014-03-06 22:26:28","updateDate":"2014-07-23 19:11:34","country":{"isoCode":"US","name":"UNITED STATES","displayName":"United States","isoThree":"USA","numberCode":840,"createDate":"2012-01-03 02:41:33"}},{"id":"3DepOd","name":"Main Brewery","streetAddress":"703 Pine St","locality":"Burlington","region":"Vermont","postalCode":"05401","website":"http://queencitybrewery.com/","hoursOfOperation":"Thu:  3:00pm - 7:00pm\nFri:  3:00pm - 7:00pm\nSat:  3:00pm - 7:00pm\nSun:  1:00pm - 5:00pm\n\n","latitude":44.4594923,"longitude":-73.2150952,"isPrimary":"Y","inPlanning":"N","isClosed":"N","openToPublic":"Y","locationType":"micro","locationTypeDisplay":"Micro Brewery","countryIsoCode":"US","status":"verified","statusDisplay":"Verified","createDate":"2014-09-07 17:50:53","updateDate":"2014-09-07 17:50:53","country":{"isoCode":"US","name":"UNITED STATES","displayName":"United States","isoThree":"USA","numberCode":840,"createDate":"2012-01-03 02:41:33"}},{"id":"21EI3F","name":"Main Brewery","streetAddress":"3555 68th Street SE","locality":"Dutton","region":"Michigan","postalCode":"49316","website":"http://www.railtownbrewing.com","hoursOfOperation":"Opening fall 2014","latitude":42.8411246,"longitude":-85.5786559,"isPrimary":"N","inPlanning":"Y","isClosed":"N","openToPublic":"Y","locationType":"micro","locationTypeDisplay":"Micro Brewery","countryIsoCode":"US","status":"verified","statusDisplay":"Verified","createDate":"2014-10-17 02:32:26","updateDate":"2014-10-18 07:55:53","country":{"isoCode":"US","name":"UNITED STATES","displayName":"United States","isoThree":"USA","numberCode":840,"createDate":"2012-01-03 02:41:33"}},{"id":"LhB0eb","name":"Rare Bird Brewery","streetAddress":"229 Lake Street","locality":"Traverse City","region":"Michigan","postalCode":"49684","phone":"(231) 943-2053","website":"http://rarebirdbrewpub.com/","hoursOfOperation":"Mon-Wed 3pm-12pm\r\nThurs-Sat 3pm-2am\r\nSun 3pm-10pm","latitude":44.7599647,"longitude":-85.620349,"isPrimary":"Y","inPlanning":"N","isClosed":"N","openToPublic":"Y","locationType":"brewpub","locationTypeDisplay":"Brewpub","countryIsoCode":"US","yearOpened":"2013","status":"verified","statusDisplay":"Verified","createDate":"2014-07-07 22:07:17","updateDate":"2014-07-23 19:11:34","country":{"isoCode":"US","name":"UNITED STATES","displayName":"United States","isoThree":"USA","numberCode":840,"createDate":"2012-01-03 02:41:33"}},{"id":"hHv7M9","name":"Main Brewery","streetAddress":"307 N Main St","locality":"Edwardsville","region":"Illinois","postalCode":"62025","phone":"(618) 307-5966","latitude":38.8143539,"longitude":-89.9591206,"isPrimary":"Y","inPlanning":"Y","isClosed":"N","openToPublic":"Y","locationType":"micro","locationTypeDisplay":"Micro Brewery","countryIsoCode":"US","status":"verified","statusDisplay":"Verified","createDate":"2014-10-29 22:37:53","updateDate":"2014-10-29 22:37:53","country":{"isoCode":"US","name":"UNITED STATES","displayName":"United States","isoThree":"USA","numberCode":840,"createDate":"2012-01-03 02:41:33"}},{"id":"b4f5VS","name":"Main Brewery","streetAddress":"10 Conroy Street","locality":"Charleston","region":"SC","postalCode":"29403","hoursOfOperation":"Tasting Room hours are currently announced via social media for occasional weekends.\r\n\r\nOpen 5 days a week soon!","latitude":32.807076,"longitude":-79.94501,"isPrimary":"Y","inPlanning":"N","isClosed":"N","openToPublic":"Y","locationType":"micro","locationTypeDisplay":"Micro Brewery","countryIsoCode":"US","status":"verified","statusDisplay":"Verified","createDate":"2014-10-01 13:29:37","updateDate":"2014-10-01 13:29:37","country":{"isoCode":"US","name":"UNITED STATES","displayName":"United States","isoThree":"USA","numberCode":840,"createDate":"2012-01-03 02:41:33"}},{"id":"moTuFD","name":"Main Brewpub","streetAddress":"624 T Street NW","locality":"Washington","region":"District of Columbia","postalCode":"20001","phone":"(202) 607-2337","website":"http://www.rightproperbrewery.com/","hoursOfOperation":"TUESDAY - THURSDAY: 5PM - 11PM\r\nFRIDAY - SATURDAY: 5PM - 12AM\r\nSUNDAY: 5PM - 10PM\r\nMONDAY: CLOSED","latitude":38.915437,"longitude":-77.0213678,"isPrimary":"Y","inPlanning":"N","isClosed":"N","openToPublic":"Y","locationType":"brewpub","locationTypeDisplay":"Brewpub","countryIsoCode":"US","yearOpened":"2014","status":"verified","statusDisplay":"Verified","createDate":"2012-10-05 00:39:34","updateDate":"2014-07-23 19:11:34","country":{"isoCode":"US","name":"UNITED STATES","displayName":"United States","isoThree":"USA","numberCode":840,"createDate":"2012-01-03 02:41:33"}},{"id":"mpfjHg","name":"River's Edge Brewing Co.","streetAddress":"125 South Main Street","locality":"Milford","region":"Michigan","postalCode":"48381","phone":"(248) 685-1625","website":"http://riversedgebrew.com/","latitude":42.586228,"longitude":-83.599907,"isPrimary":"Y","inPlanning":"N","isClosed":"N","openToPublic":"Y","locationType":"micro","locationTypeDisplay":"Micro Brewery","countryIsoCode":"US","yearOpened":"2014","status":"verified","statusDisplay":"Verified","createDate":"2014-07-01 15:36:27","updateDate":"2014-08-22 00:55:02","country":{"isoCode":"US","name":"UNITED STATES","displayName":"United States","isoThree":"USA","numberCode":840,"createDate":"2012-01-03 02:41:33"}},{"id":"h38ARD","name":"Main Brewery","streetAddress":"1941 Dolores Way #81623","locality":"Carbondale","region":"Colorado","postalCode":"81623","phone":"(970) 963-5870","website":"http://roaringforkbeerco.com","hoursOfOperation":"Mon:  2:00pm - 8:00pm\nTue:  2:00pm - 8:00pm\nWed:  2:00pm - 8:00pm\nThu:  2:00pm - 8:00pm\nFri:  2:00pm - 8:00pm\nSat:  2:00pm - 8:00pm\n\n","latitude":39.410617,"longitude":-107.223645,"isPrimary":"Y","inPlanning":"N","isClosed":"N","openToPublic":"Y","locationType":"micro","locationTypeDisplay":"Micro Brewery","countryIsoCode":"US","status":"verified","statusDisplay":"Verified","createDate":"2014-07-25 14:55:25","updateDate":"2014-07-25 14:55:25","country":{"isoCode":"US","name":"UNITED STATES","displayName":"United States","isoThree":"USA","numberCode":840,"createDate":"2012-01-03 02:41:33"}},{"id":"Ko4Sqy","name":"Main Brewery","streetAddress":"1939 W 11th St","extendedAddress":"Suite A","locality":"Upland","region":"California","postalCode":"91786","phone":"(909) 981-0020","website":"http://www.rokhousebrewing.com","hoursOfOperation":"Thu:  4:00pm - 9:00pm\nFri:  2:00pm - 9:00pm\nSat:  1:00pm - 9:00pm\nSun:  1:00pm - 6:00pm\n\n","latitude":34.1034562,"longitude":-117.6883994,"isPrimary":"Y","inPlanning":"N","isClosed":"N","openToPublic":"Y","locationType":"micro","locationTypeDisplay":"Micro Brewery","countryIsoCode":"US","yearOpened":"2014","status":"verified","statusDisplay":"Verified","createDate":"2014-09-21 14:51:48","updateDate":"2014-09-21 14:51:48","country":{"isoCode":"US","name":"UNITED STATES","displayName":"United States","isoThree":"USA","numberCode":840,"createDate":"2012-01-03 02:41:33"}},{"id":"gXseoA","name":"Main Brewery","streetAddress":"454 Carolina Way","locality":"Highlands","region":"North Carolina","postalCode":"28741","phone":"(828) 482-9794","hoursOfOperation":"Tue:  4:00pm - 9:00pm\nWed:  4:00pm - 9:00pm\nThu:  4:00pm - 9:00pm\nFri:  4:00pm - 12:00am\nSat:  2:00pm - 12:00am\nSun:  2:00pm - 10:00pm\n\n","latitude":35.0538964,"longitude":-83.1954328,"isPrimary":"Y","inPlanning":"N","isClosed":"N","openToPublic":"Y","locationType":"brewpub","locationTypeDisplay":"Brewpub","countryIsoCode":"US","status":"verified","statusDisplay":"Verified","createDate":"2014-08-08 14:37:03","updateDate":"2014-08-08 14:37:03","country":{"isoCode":"US","name":"UNITED STATES","displayName":"United States","isoThree":"USA","numberCode":840,"createDate":"2012-01-03 02:41:33"}},{"id":"wt0K5T","name":"Save the World Brewing Co.","streetAddress":"1510 Resource Parkway","locality":"Marble Falls","region":"Texas","postalCode":"78654","phone":"(830) 637-7654","website":"http://savetheworldbrewing.com","latitude":30.616771,"longitude":-98.2640193,"isPrimary":"Y","inPlanning":"N","isClosed":"N","openToPublic":"Y","locationType":"micro","locationTypeDisplay":"Micro Brewery","countryIsoCode":"US","status":"verified","statusDisplay":"Verified","createDate":"2014-05-02 17:53:54","updateDate":"2014-07-23 19:11:34","country":{"isoCode":"US","name":"UNITED STATES","displayName":"United States","isoThree":"USA","numberCode":840,"createDate":"2012-01-03 02:41:33"}},{"id":"SeTV3H","name":"Main Brewery","streetAddress":"574 Indian St.","locality":"Savannah","region":"Georgia","postalCode":"31401","hoursOfOperation":"Thu:  5:30pm - 7:30pm\nFri:  5:30pm - 7:30pm\nSat:  2:00pm - 4:00pm\n\n","latitude":32.084358,"longitude":-81.098298,"isPrimary":"Y","inPlanning":"N","isClosed":"N","openToPublic":"Y","locationType":"micro","locationTypeDisplay":"Micro Brewery","countryIsoCode":"US","status":"verified","statusDisplay":"Verified","createDate":"2014-10-29 21:56:07","updateDate":"2014-10-29 21:56:57","country":{"isoCode":"US","name":"UNITED STATES","displayName":"United States","isoThree":"USA","numberCode":840,"createDate":"2012-01-03 02:41:33"}},{"id":"GzfVh3","name":"Main Brewery","streetAddress":"32 York Street","region":"Sydney","phone":"0402336765","website":"http://shenanigansbrewing.com/","latitude":-33.869097,"longitude":151.206197,"isPrimary":"Y","inPlanning":"N","isClosed":"N","openToPublic":"Y","locationType":"micro","locationTypeDisplay":"Micro Brewery","countryIsoCode":"AU","status":"verified","statusDisplay":"Verified","createDate":"2014-02-24 23:25:41","updateDate":"2014-07-23 19:11:34","country":{"isoCode":"AU","name":"AUSTRALIA","displayName":"Australia","isoThree":"AUS","numberCode":36,"createDate":"2012-01-03 02:41:33"}},{"id":"VYa5N6","name":"Main Brewery","streetAddress":"712 Ontario Ave W","locality":"Minneapolis","region":"Minnesota","postalCode":"55403","website":"http://www.sisyphusbrewing.com/","latitude":44.973223,"longitude":-93.288925,"isPrimary":"Y","inPlanning":"N","isClosed":"N","openToPublic":"Y","locationType":"micro","locationTypeDisplay":"Micro Brewery","countryIsoCode":"US","yearOpened":"2014","status":"verified","statusDisplay":"Verified","createDate":"2014-07-14 11:26:46","updateDate":"2014-07-23 19:11:34","country":{"isoCode":"US","name":"UNITED STATES","displayName":"United States","isoThree":"USA","numberCode":840,"createDate":"2012-01-03 02:41:33"}},{"id":"SMp7Ih","name":"Main Brewery","streetAddress":"7052 Benjamin Road","locality":"Tampa","region":"Florida","postalCode":"33634","phone":"(813) 886-0610","website":"http://www.sixtenbrewing.com","latitude":28.0149219,"longitude":-82.5419259,"isPrimary":"Y","inPlanning":"N","isClosed":"N","openToPublic":"Y","locationType":"micro","locationTypeDisplay":"Micro Brewery","countryIsoCode":"US","yearOpened":"2013","status":"verified","statusDisplay":"Verified","createDate":"2014-01-05 22:06:12","updateDate":"2014-07-23 19:11:34","country":{"isoCode":"US","name":"UNITED STATES","displayName":"United States","isoThree":"USA","numberCode":840,"createDate":"2012-01-03 02:41:33"}},{"id":"p5Siio","name":"Main Brewpub","streetAddress":"1615 Oak Ave","locality":"Evanston","region":"Illinois","postalCode":"60201","phone":"(224) 999-7320","website":"http://www.smyliebros.com","hoursOfOperation":"Tue:  4:00pm - 12:00am\nWed:  4:00pm - 12:00am\nThu:  4:00pm - 1:00am\nFri:  4:00pm - 1:00am\nSat:  4:00pm - 1:00am\nSun:  4:00pm - 11:00pm\n\n","latitude":42.047656,"longitude":-87.686413,"isPrimary":"Y","inPlanning":"N","isClosed":"N","openToPublic":"N","locationType":"brewpub","locationTypeDisplay":"Brewpub","countryIsoCode":"US","yearOpened":"2014","status":"verified","statusDisplay":"Verified","createDate":"2014-08-25 12:00:04","updateDate":"2014-08-25 12:00:04","country":{"isoCode":"US","name":"UNITED STATES","displayName":"United States","isoThree":"USA","numberCode":840,"createDate":"2012-01-03 02:41:33"}},{"id":"3iuL1g","name":"Main Brewery","streetAddress":"225 N Lemay Ave","extendedAddress":"Suite 1","locality":"Fort Collins","region":"Colorado","postalCode":"80524","phone":"(970) 999-5658","website":"http://www.snowbankbrewing.com/","hoursOfOperation":"Mon:  12:00pm - 6:00pm\nTue:  12:00pm - 8:00pm\nWed:  12:00pm - 8:00pm\nThu:  12:00pm - 8:00pm\nFri:  12:00pm - 9:00pm\nSat:  12:00pm - 9:00pm\nSun:  12:00pm - 6:00pm\n\n","latitude":40.5902995,"longitude":-105.057759,"isPrimary":"Y","inPlanning":"N","isClosed":"N","openToPublic":"Y","locationType":"micro","locationTypeDisplay":"Micro Brewery","countryIsoCode":"US","yearOpened":"2014","status":"verified","statusDisplay":"Verified","createDate":"2014-08-25 12:07:15","updateDate":"2014-08-25 12:07:15","country":{"isoCode":"US","name":"UNITED STATES","displayName":"United States","isoThree":"USA","numberCode":840,"createDate":"2012-01-03 02:41:33"}},{"id":"92Lmmz","name":"Main Brewery","streetAddress":"415 East Saint Elmo Rd.","extendedAddress":"Suite 1D","locality":"Austin","region":"Texas","postalCode":"78745","phone":"512.354.BEER","website":"http://www.southaustinbrewery.com/","latitude":30.2146205,"longitude":-97.7623164,"isPrimary":"Y","inPlanning":"N","isClosed":"N","openToPublic":"Y","locationType":"micro","locationTypeDisplay":"Micro Brewery","countryIsoCode":"US","yearOpened":"2010","status":"verified","statusDisplay":"Verified","createDate":"2012-01-03 02:42:08","updateDate":"2014-10-06 16:18:16","country":{"isoCode":"US","name":"UNITED STATES","displayName":"United States","isoThree":"USA","numberCode":840,"createDate":"2012-01-03 02:41:33"}},{"id":"PSiWys","name":"Main Brewery","streetAddress":"500 Commercial Street","locality":"Manchester","region":"New Hampshire","postalCode":"03101","phone":"603-625-4444","latitude":42.9940958,"longitude":-71.467279,"isPrimary":"Y","inPlanning":"N","isClosed":"N","openToPublic":"Y","locationType":"micro","locationTypeDisplay":"Micro Brewery","countryIsoCode":"US","status":"verified","statusDisplay":"Verified","createDate":"2014-07-25 13:34:32","updateDate":"2014-07-25 13:34:32","country":{"isoCode":"US","name":"UNITED STATES","displayName":"United States","isoThree":"USA","numberCode":840,"createDate":"2012-01-03 02:41:33"}},{"id":"lOSF1M","name":"Stem Ciders","streetAddress":"2811 Walnut Street, Suite 150","locality":"Denver","region":"Colorado","postalCode":"80205","phone":"(720) 443-3007","website":"http://stemciders.com/","hoursOfOperation":"WedThu: 4pm10pm\r\nFri: 4pm11pm\r\nSat: Noon11pm\r\nSun: Noon6pm","latitude":39.7612539,"longitude":-104.9836271,"isPrimary":"Y","inPlanning":"N","isClosed":"N","openToPublic":"Y","locationType":"tasting","locationTypeDisplay":"Tasting Room","countryIsoCode":"US","yearOpened":"2014","status":"verified","statusDisplay":"Verified","createDate":"2014-03-20 01:16:58","updateDate":"2014-07-23 19:11:34","country":{"isoCode":"US","name":"UNITED STATES","displayName":"United States","isoThree":"USA","numberCode":840,"createDate":"2012-01-03 02:41:33"}},{"id":"NWFX5V","name":"Main Brewery","streetAddress":"100 Park St","locality":"Ayer","region":"Massachusetts","postalCode":"01432","website":"http://stillriverbrewery.com/","latitude":42.567403,"longitude":-71.592612,"isPrimary":"Y","inPlanning":"N","isClosed":"N","openToPublic":"Y","locationType":"micro","locationTypeDisplay":"Micro Brewery","countryIsoCode":"US","yearOpened":"2014","status":"verified","statusDisplay":"Verified","createDate":"2014-06-04 15:20:23","updateDate":"2014-07-23 19:11:34","country":{"isoCode":"US","name":"UNITED STATES","displayName":"United States","isoThree":"USA","numberCode":840,"createDate":"2012-01-03 02:41:33"}},{"id":"fem70X","name":"Smithfield","locality":"Smithfield","region":"Virginia","postalCode":"23430","website":"http://www.stormforgebrewery.com/","latitude":36.9823709,"longitude":-76.6310662,"isPrimary":"Y","inPlanning":"Y","isClosed":"N","openToPublic":"N","locationType":"micro","locationTypeDisplay":"Micro Brewery","countryIsoCode":"US","yearOpened":"2014","status":"verified","statusDisplay":"Verified","createDate":"2014-10-14 01:07:52","updateDate":"2014-10-14 20:07:48","country":{"isoCode":"US","name":"UNITED STATES","displayName":"United States","isoThree":"USA","numberCode":840,"createDate":"2012-01-03 02:41:33"}},{"id":"Wl0ciU","name":"Main Brewery","streetAddress":"215 Southside Dr.","locality":"Charlotte","region":"North Carolina","postalCode":"28217","website":"http://sugarcreekbrewing.com/","latitude":35.185548,"longitude":-80.880945,"isPrimary":"Y","inPlanning":"Y","isClosed":"N","openToPublic":"Y","locationType":"micro","locationTypeDisplay":"Micro Brewery","countryIsoCode":"US","status":"verified","statusDisplay":"Verified","createDate":"2014-03-18 15:02:21","updateDate":"2014-07-23 19:11:34","country":{"isoCode":"US","name":"UNITED STATES","displayName":"United States","isoThree":"USA","numberCode":840,"createDate":"2012-01-03 02:41:33"}},{"id":"OlXVGX","name":"Main Brewery","locality":"Bloomington","region":"Indiana","postalCode":"47403","website":"http://www.switchyardbrewing.com","latitude":39.165325,"longitude":-86.5263857,"isPrimary":"Y","inPlanning":"Y","isClosed":"N","openToPublic":"Y","locationType":"micro","locationTypeDisplay":"Micro Brewery","countryIsoCode":"US","status":"verified","statusDisplay":"Verified","createDate":"2014-09-05 12:12:13","updateDate":"2014-09-05 12:12:13","country":{"isoCode":"US","name":"UNITED STATES","displayName":"United States","isoThree":"USA","numberCode":840,"createDate":"2012-01-03 02:41:33"}},{"id":"VnN2I2","name":"Main Brewery","streetAddress":"235 Main Street","region":"Tatamagouche","postalCode":"NSB0K1v0","phone":"902-657-4000","hoursOfOperation":"10AM - 6PM everyday","latitude":45.7122478,"longitude":-63.291469,"isPrimary":"Y","inPlanning":"N","isClosed":"N","openToPublic":"Y","locationType":"micro","locationTypeDisplay":"Micro Brewery","countryIsoCode":"CA","status":"verified","statusDisplay":"Verified","createDate":"2014-10-08 13:58:47","updateDate":"2014-10-08 13:58:47","country":{"isoCode":"CA","name":"CANADA","displayName":"Canada","isoThree":"CAN","numberCode":124,"createDate":"2012-01-03 02:41:33"}},{"id":"fE3e0J","name":"Main Brewery","streetAddress":"1641 S Stapley Dr","extendedAddress":"Suite 104","locality":"Mesa","region":"Arizona","postalCode":"85204","website":"http://www.thebeerresearchinstitute.com","latitude":33.3846485,"longitude":-111.8027455,"isPrimary":"Y","inPlanning":"Y","isClosed":"N","openToPublic":"Y","locationType":"micro","locationTypeDisplay":"Micro Brewery","countryIsoCode":"US","status":"verified","statusDisplay":"Verified","createDate":"2014-08-14 11:27:17","updateDate":"2014-08-14 11:27:17","country":{"isoCode":"US","name":"UNITED STATES","displayName":"United States","isoThree":"USA","numberCode":840,"createDate":"2012-01-03 02:41:33"}},{"id":"UQgaeX","name":"Brewery","streetAddress":"512 Braddock Ave","locality":"Braddock","region":"Pennsylvania","postalCode":"15104","phone":"(412) 871-5075","website":"http://www.brewgentlemen.com/","latitude":40.404099,"longitude":-79.870272,"isPrimary":"Y","inPlanning":"N","isClosed":"N","openToPublic":"Y","locationType":"micro","locationTypeDisplay":"Micro Brewery","countryIsoCode":"US","yearOpened":"2014","status":"verified","statusDisplay":"Verified","createDate":"2014-05-22 18:24:45","updateDate":"2014-07-23 19:11:34","country":{"isoCode":"US","name":"UNITED STATES","displayName":"United States","isoThree":"USA","numberCode":840,"createDate":"2012-01-03 02:41:33"}},{"id":"nB97NK","name":"Main Brewery","streetAddress":"31 Loop Rd","extendedAddress":"Ste 1","locality":"Auburn","region":"New York","postalCode":"13021","phone":"315-406-6498","hoursOfOperation":"Fri:  4:00pm - 9:00pm\r\nSat:  1:00pm - 8:00pm\r\nSun:  12:00pm - 4:00pm","latitude":42.9325653,"longitude":-76.5652967,"isPrimary":"Y","inPlanning":"N","isClosed":"N","openToPublic":"Y","locationType":"micro","locationTypeDisplay":"Micro Brewery","countryIsoCode":"US","yearOpened":"2014","status":"verified","statusDisplay":"Verified","createDate":"2012-01-03 02:42:08","updateDate":"2014-11-14 18:56:53","country":{"isoCode":"US","name":"UNITED STATES","displayName":"United States","isoThree":"USA","numberCode":840,"createDate":"2012-01-03 02:41:33"}},{"id":"ctjbwM","name":"Main Brewery","streetAddress":"39 N. Main St.","locality":"Wolfeboro","region":"New Hampshire","postalCode":"03894","hoursOfOperation":"Thu:  5:00pm - 11:00pm\r\nFri:  5:00pm - 11:00pm\r\nSat:  1:00pm - 11:00pm\r\nSun:  1:00pm - 5:00pm\r\n\r\nThu:  5:00pm - 11:00pm\r\nFri:  5:00pm - 11:00pm\r\nSat:  1:00pm - 11:00pm\r\nSun:  1:00pm - 5:00pm","latitude":43.5848738,"longitude":-71.2158765,"isPrimary":"Y","inPlanning":"N","isClosed":"N","openToPublic":"Y","locationType":"nano","locationTypeDisplay":"Nano Brewery","countryIsoCode":"US","status":"verified","statusDisplay":"Verified","createDate":"2014-09-19 18:22:11","updateDate":"2014-10-06 15:30:54","country":{"isoCode":"US","name":"UNITED STATES","displayName":"United States","isoThree":"USA","numberCode":840,"createDate":"2012-01-03 02:41:33"}},{"id":"HXmS9k","name":"Main Brewpub","streetAddress":"232 S Wall St","locality":"Chandler","region":"Arizona","postalCode":"85225","phone":"(480) 773-7688","website":"http://perchpubbrewery.com/","hoursOfOperation":"Wed:  11:00am - 11:00pm\n\n","latitude":33.300157,"longitude":-111.842515,"isPrimary":"Y","inPlanning":"N","isClosed":"N","openToPublic":"Y","locationType":"brewpub","locationTypeDisplay":"Brewpub","countryIsoCode":"US","status":"verified","statusDisplay":"Verified","createDate":"2014-08-14 11:31:35","updateDate":"2014-08-14 11:31:35","country":{"isoCode":"US","name":"UNITED STATES","displayName":"United States","isoThree":"USA","numberCode":840,"createDate":"2012-01-03 02:41:33"}},{"id":"lhmEZ7","name":"Main Brewery","streetAddress":"131 N. Diamond St","locality":"Mansfield","region":"Ohio","postalCode":"44902","website":"http://www.phoenixbrewing.com/","hoursOfOperation":"Thu: 4:00 pm - 10:00 pm\r\nFri: 4:00 pm - 12:00 am\r\nSat: 2:00 pm - 12:00 am","latitude":40.761953,"longitude":-82.514139,"isPrimary":"Y","inPlanning":"N","isClosed":"N","openToPublic":"Y","locationType":"micro","locationTypeDisplay":"Micro Brewery","countryIsoCode":"US","yearOpened":"2014","status":"verified","statusDisplay":"Verified","createDate":"2014-04-23 09:36:51","updateDate":"2014-07-23 19:11:34","country":{"isoCode":"US","name":"UNITED STATES","displayName":"United States","isoThree":"USA","numberCode":840,"createDate":"2012-01-03 02:41:33"}},{"id":"0C9lcL","name":"The Tap","streetAddress":"101 N. COLLEGE AVE","locality":"Bloomington","region":"Indiana","postalCode":"47404","phone":"(812) 287-8579","hoursOfOperation":"Open 7 days a week.  12PM  2AM daily.","latitude":39.166732,"longitude":-86.5350807,"isPrimary":"Y","inPlanning":"N","isClosed":"N","openToPublic":"Y","locationType":"brewpub","locationTypeDisplay":"Brewpub","countryIsoCode":"US","status":"verified","statusDisplay":"Verified","createDate":"2014-11-13 16:32:14","updateDate":"2014-11-13 16:32:14","country":{"isoCode":"US","name":"UNITED STATES","displayName":"United States","isoThree":"USA","numberCode":840,"createDate":"2012-01-03 02:41:33"}},{"id":"oekFia","name":"Main Brewery","locality":"Charlotte","region":"North Carolina","website":"http://threespiritsbrewery.com","latitude":35.2270869,"longitude":-80.8431267,"isPrimary":"Y","inPlanning":"Y","isClosed":"N","openToPublic":"Y","locationType":"micro","locationTypeDisplay":"Micro Brewery","countryIsoCode":"US","status":"verified","statusDisplay":"Verified","createDate":"2014-05-27 11:37:18","updateDate":"2014-07-23 19:11:34","country":{"isoCode":"US","name":"UNITED STATES","displayName":"United States","isoThree":"USA","numberCode":840,"createDate":"2012-01-03 02:41:33"}},{"id":"06ughl","name":"Tin Whiskers Brewery and Taproom","streetAddress":"125 E 9th St.","extendedAddress":"Unit 127","locality":"St. Paul","region":"Minnesota","postalCode":"55101","phone":"(651) 330-4734","website":"http://twbrewing.com/","hoursOfOperation":"Wednesday: 4-10PM\r\nThursday 4-10PM\r\nFriday 3-11PM\r\nSaturday 12-11PM","latitude":44.9506615,"longitude":-93.09361,"isPrimary":"Y","inPlanning":"N","isClosed":"N","openToPublic":"Y","locationType":"micro","locationTypeDisplay":"Micro Brewery","countryIsoCode":"US","yearOpened":"2014","status":"verified","statusDisplay":"Verified","createDate":"2012-01-03 02:42:10","updateDate":"2014-07-23 19:11:34","country":{"isoCode":"US","name":"UNITED STATES","displayName":"United States","isoThree":"USA","numberCode":840,"createDate":"2012-01-03 02:41:33"}},{"id":"BKWQJ3","name":"Main Brewery","streetAddress":"315 Main Street","locality":"Tonopah","region":"Nevada","postalCode":"89049","phone":"(775) 482-2000","website":"http://www.tonopahbrewing.com/","latitude":38.0710516,"longitude":-117.2331562,"isPrimary":"Y","inPlanning":"N","isClosed":"N","openToPublic":"Y","locationType":"micro","locationTypeDisplay":"Micro Brewery","countryIsoCode":"US","yearOpened":"2014","status":"verified","statusDisplay":"Verified","createDate":"2014-07-10 13:11:58","updateDate":"2014-07-23 19:11:34","country":{"isoCode":"US","name":"UNITED STATES","displayName":"United States","isoThree":"USA","numberCode":840,"createDate":"2012-01-03 02:41:33"}},{"id":"0LDqrz","name":"Top Rung Brewery","streetAddress":"8343 Hogum Bay Lane NE","extendedAddress":"Suite E","locality":"Lacey","region":"Washington","postalCode":"98516","phone":"(360) 239-3043","website":"http://www.toprungbrewing.com/","hoursOfOperation":"Fri - Sat: 2:00 pm - 9:00 pm","latitude":47.0759538,"longitude":-122.76318,"isPrimary":"Y","inPlanning":"N","isClosed":"N","openToPublic":"Y","locationType":"micro","locationTypeDisplay":"Micro Brewery","countryIsoCode":"US","yearOpened":"2014","status":"verified","statusDisplay":"Verified","createDate":"2014-04-26 01:31:40","updateDate":"2014-07-23 19:11:34","country":{"isoCode":"US","name":"UNITED STATES","displayName":"United States","isoThree":"USA","numberCode":840,"createDate":"2012-01-03 02:41:33"}},{"id":"TsZeBq","name":"Main Brewery","streetAddress":"501 S. Madison","locality":"Indianapolis","region":"Indiana","postalCode":"46225","phone":"(317) 638-9273","website":"http://towyardbrewing.com/","hoursOfOperation":"Mon - Thu: 11:00 am - 10:00 pm\r\nFri - Sat: 11:00 am - 1:00 am\r\nSun: 11:00 am - 10:00 pm","latitude":39.759948,"longitude":-86.156913,"isPrimary":"Y","inPlanning":"N","isClosed":"N","openToPublic":"Y","locationType":"micro","locationTypeDisplay":"Micro Brewery","countryIsoCode":"US","status":"verified","statusDisplay":"Verified","createDate":"2013-11-01 16:57:14","updateDate":"2014-07-23 19:11:34","country":{"isoCode":"US","name":"UNITED STATES","displayName":"United States","isoThree":"USA","numberCode":840,"createDate":"2012-01-03 02:41:33"}},{"id":"5NixAT","name":"Main Brewery","streetAddress":"146 E. Main","locality":"Zealand","region":"Michigan","postalCode":"49464","phone":"(616) 953-0050","latitude":42.812088,"longitude":-86.014679,"isPrimary":"Y","inPlanning":"Y","isClosed":"N","openToPublic":"N","locationType":"micro","locationTypeDisplay":"Micro Brewery","countryIsoCode":"US","status":"verified","statusDisplay":"Verified","createDate":"2013-10-07 00:15:31","updateDate":"2014-07-23 19:11:34","country":{"isoCode":"US","name":"UNITED STATES","displayName":"United States","isoThree":"USA","numberCode":840,"createDate":"2012-01-03 02:41:33"}},{"id":"Uk0aCI","name":"Tunnel Vision Brewery at Pond Hill Farm","streetAddress":"5699 S Lake Shore Dr","locality":"Harbor Springs","region":"Michigan","postalCode":"49740","phone":"(231) 526-3276","website":"http://www.tunnelvisionbeer.com/","hoursOfOperation":"11am-6pm daily","latitude":45.4752719,"longitude":-85.054638,"isPrimary":"Y","inPlanning":"N","isClosed":"N","openToPublic":"Y","locationType":"micro","locationTypeDisplay":"Micro Brewery","countryIsoCode":"US","yearOpened":"2014","status":"verified","statusDisplay":"Verified","createDate":"2014-07-07 21:30:38","updateDate":"2014-07-23 19:11:34","country":{"isoCode":"US","name":"UNITED STATES","displayName":"United States","isoThree":"USA","numberCode":840,"createDate":"2012-01-03 02:41:33"}},{"id":"nimH5J","name":"Main Brewery","streetAddress":"4550 S. Reservoir Rd.","locality":"Centennial","region":"Colorado","postalCode":"80015","website":"http://www.two22brew.com","latitude":39.6342377,"longitude":-104.7600534,"isPrimary":"Y","inPlanning":"N","isClosed":"N","openToPublic":"Y","locationType":"micro","locationTypeDisplay":"Micro Brewery","countryIsoCode":"US","status":"verified","statusDisplay":"Verified","createDate":"2014-02-23 21:25:18","updateDate":"2014-07-23 19:11:34","country":{"isoCode":"US","name":"UNITED STATES","displayName":"United States","isoThree":"USA","numberCode":840,"createDate":"2012-01-03 02:41:33"}},{"id":"5XyrSa","name":"Main Brewpub","streetAddress":"110 N Magnolia Ave","locality":"El Cajon","region":"California","postalCode":"92020","phone":"(619) 328-6922","website":"http://www.urbnstbrewing.com","latitude":32.795502,"longitude":-116.962785,"isPrimary":"Y","inPlanning":"N","isClosed":"N","openToPublic":"Y","locationType":"brewpub","locationTypeDisplay":"Brewpub","countryIsoCode":"US","status":"verified","statusDisplay":"Verified","createDate":"2014-07-30 11:41:03","updateDate":"2014-07-30 11:41:03","country":{"isoCode":"US","name":"UNITED STATES","displayName":"United States","isoThree":"USA","numberCode":840,"createDate":"2012-01-03 02:41:33"}},{"id":"J841fi","name":"Main Brewery","streetAddress":"1807 Dean Ave","locality":"Bellingham","region":"Washington","postalCode":"98225","phone":"(360) 647-6152","website":"http://www.wanderbrewing.com/","latitude":48.7541854,"longitude":-122.4736329,"isPrimary":"Y","inPlanning":"N","isClosed":"N","openToPublic":"Y","locationType":"micro","locationTypeDisplay":"Micro Brewery","countryIsoCode":"US","status":"verified","statusDisplay":"Verified","createDate":"2014-02-28 13:20:32","updateDate":"2014-07-23 19:11:34","country":{"isoCode":"US","name":"UNITED STATES","displayName":"United States","isoThree":"USA","numberCode":840,"createDate":"2012-01-03 02:41:33"}},{"id":"Iw8VaQ","name":"Main Brewery","streetAddress":"26 Wyandot Street","locality":"Dayton","region":"Ohio","postalCode":"45402","phone":"(937) 222-7003","website":"http://www.warpedwing.com","hoursOfOperation":"Wed - Thu: 5:00 pm - 10:00 pm\r\nFri: 4:00 pm - 12:00 am\r\nSat: 2:00 pm - 12:00 am\r\nSun: 1:00 pm - 6:00 pm","latitude":39.75973,"longitude":-84.185402,"isPrimary":"Y","inPlanning":"N","isClosed":"N","openToPublic":"Y","locationType":"micro","locationTypeDisplay":"Micro Brewery","countryIsoCode":"US","yearOpened":"2014","status":"verified","statusDisplay":"Verified","createDate":"2014-04-04 02:25:52","updateDate":"2014-07-23 19:11:34","country":{"isoCode":"US","name":"UNITED STATES","displayName":"United States","isoThree":"USA","numberCode":840,"createDate":"2012-01-03 02:41:33"}},{"id":"fUWCiQ","name":"Main Brewery","streetAddress":"7655 W 108th Ave","extendedAddress":"Unit 600","locality":"Westminster","region":"Colorado","postalCode":"80021","phone":"(303) 284-1864","website":"http://westminsterbrewingco.com","hoursOfOperation":"M-Th 3-9,\r\nF-Sa 1-10,\r\nSu 1-8","latitude":39.8931624,"longitude":-105.0831241,"isPrimary":"Y","inPlanning":"N","isClosed":"N","openToPublic":"Y","locationType":"micro","locationTypeDisplay":"Micro Brewery","countryIsoCode":"US","yearOpened":"2013","status":"verified","statusDisplay":"Verified","createDate":"2014-03-05 12:48:41","updateDate":"2014-07-23 19:11:34","country":{"isoCode":"US","name":"UNITED STATES","displayName":"United States","isoThree":"USA","numberCode":840,"createDate":"2012-01-03 02:41:33"}},{"id":"3L3Ir6","name":"Smithfiled","streetAddress":"25 Main St","locality":"Smithfield","region":"Virginia","postalCode":"23430","latitude":36.982501,"longitude":-76.630287,"isPrimary":"Y","inPlanning":"Y","isClosed":"N","openToPublic":"Y","locationType":"brewpub","locationTypeDisplay":"Brewpub","countryIsoCode":"US","yearOpened":"2014","status":"verified","statusDisplay":"Verified","createDate":"2014-10-14 01:05:25","updateDate":"2014-10-14 13:35:33","country":{"isoCode":"US","name":"UNITED STATES","displayName":"United States","isoThree":"USA","numberCode":840,"createDate":"2012-01-03 02:41:33"}},{"id":"mx4Ck9","name":"Main Brewery","locality":"The Woodlands","region":"Texas","postalCode":"77381","website":"http://wybrewco.com/","latitude":30.1704912,"longitude":-95.509247,"isPrimary":"Y","inPlanning":"Y","isClosed":"N","openToPublic":"N","locationType":"micro","locationTypeDisplay":"Micro Brewery","countryIsoCode":"US","status":"verified","statusDisplay":"Verified","createDate":"2014-08-23 16:06:46","updateDate":"2014-08-23 16:06:46","country":{"isoCode":"US","name":"UNITED STATES","displayName":"United States","isoThree":"USA","numberCode":840,"createDate":"2012-01-03 02:41:33"}},{"id":"Z0nc9c","name":"Main Location","streetAddress":"2045 Eagle Drive","locality":"Pagosa Springs","region":"Colorado","postalCode":"81147","phone":"(970) 731-9653","hoursOfOperation":"Mon - Sun: 11:00 am - 2:00 am","latitude":37.270504,"longitude":-107.044128,"isPrimary":"Y","inPlanning":"N","isClosed":"N","openToPublic":"Y","locationType":"brewpub","locationTypeDisplay":"Brewpub","countryIsoCode":"US","yearOpened":"2014","status":"verified","statusDisplay":"Verified","createDate":"2014-07-10 12:53:16","updateDate":"2014-07-23 19:11:34","country":{"isoCode":"US","name":"UNITED STATES","displayName":"United States","isoThree":"USA","numberCode":840,"createDate":"2012-01-03 02:41:33"}},{"id":"x4vqAl","name":"Main Brewery","streetAddress":"1114 W Front St","locality":"Boise","region":"Idaho","postalCode":"83704","website":"http://woodlandempire.com/","hoursOfOperation":"Tasting Room hours: \r\nTues- Thurs: 3 pm- 10 pm\r\nFri: 3 pm-11 pm\r\nSat: 12 noon-11 pm\r\nSun: 12 noon-8 pm","latitude":43.616471,"longitude":-116.208926,"isPrimary":"Y","inPlanning":"N","isClosed":"N","openToPublic":"Y","locationType":"micro","locationTypeDisplay":"Micro Brewery","countryIsoCode":"US","yearOpened":"2012","status":"verified","statusDisplay":"Verified","createDate":"2014-03-16 14:38:24","updateDate":"2014-07-23 19:11:34","country":{"isoCode":"US","name":"UNITED STATES","displayName":"United States","isoThree":"USA","numberCode":840,"createDate":"2012-01-03 02:41:33"}},{"id":"KgfzOV","name":"Main Brewery","streetAddress":"4612 S Mason St","extendedAddress":"Suite 120","locality":"Fort Collins","region":"Colorado","postalCode":"80525","hoursOfOperation":"Mon:  11:00am - 9:00pm\nTue:  11:00am - 9:00pm\nWed:  11:00am - 9:00pm\nThu:  11:00am - 9:00pm\nFri:  11:00am - 9:00pm\nSat:  11:00am - 9:00pm\nSun:  11:00am - 9:00pm\n\n","latitude":40.522701,"longitude":-105.078327,"isPrimary":"Y","inPlanning":"N","isClosed":"N","openToPublic":"Y","locationType":"micro","locationTypeDisplay":"Micro Brewery","countryIsoCode":"US","status":"verified","statusDisplay":"Verified","createDate":"2014-07-25 14:18:28","updateDate":"2014-09-20 15:01:15","country":{"isoCode":"US","name":"UNITED STATES","displayName":"United States","isoThree":"USA","numberCode":840,"createDate":"2012-01-03 02:41:33"}}]